timestamp,pitch,yaw,roll,lat,lon,alt,velocity_x,velocity_y,velocity_z,battery,heading,airspeed,groundspeed
0,-0.01532106101512909,-0.018735893070697784,-0.016989372670650482,36.7156066,3.18463,28.7,-0.01,0.02,0.03,96,358,0.048576850444078445,0.03218640387058258
1,-0.04004056006669998,-0.018141480162739754,0.11923488974571228,36.7156077,3.1846322,28.58,0.34,0.53,-0.02,95,358,0.637698233127594,0.637027382850647
2,-0.22247588634490967,1.4267511367797852,-0.08354339748620987,36.7156244,3.1846617,28.59,1.91,2.69,-0.05,95,81,3.308788299560547,3.3083460330963135
3,-0.20352278649806976,0.8977633118629456,-0.020665248855948448,36.7156563,3.1847173,28.62,2.62,3.68,-0.05,94,51,4.520079612731934,4.519725322723389
4,0.024709656834602356,0.9395697712898254,-0.002208861755207181,36.715698,3.1847886,28.65,2.34,3.22,-0.03,94,53,3.9849114418029785,3.984761953353882
5,0.3396040201187134,0.8150075674057007,-0.04076922684907913,36.7157171,3.1848197,28.65,-0.02,-0.12,0.0,94,46,0.13181933760643005,0.13180692493915558
6,0.011239271610975266,-0.713878333568573,-0.21823221445083618,36.7157005,3.1847887,28.68,-2.1,-2.99,-0.05,93,319,3.6622049808502197,3.6618518829345703
7,-0.1021481528878212,-2.386888027191162,0.06260181218385696,36.7156651,3.1847247,28.69,-2.22,-3.25,0.0,93,223,3.9433116912841797,3.9433014392852783
8,-0.03174078091979027,-1.761222243309021,0.15777434408664703,36.7156434,3.1846704,28.68,-0.64,-2.99,0.01,93,259,3.0675551891326904,3.067518949508667
9,-0.35799917578697205,-0.6518648266792297,0.0747818648815155,36.7156667,3.1846144,28.67,3.67,-3.03,0.0,92,322,4.771659851074219,4.771658897399902
10,-0.5289791226387024,-0.6158620715141296,-0.0015181723283603787,36.715737,3.1845519,28.67,6.47,-4.51,0.0,92,324,7.895221710205078,7.895220756530762
11,-0.505750298500061,-0.6144671440124512,0.029254799708724022,36.7158349,3.1844672,28.69,7.76,-5.42,0.0,91,324,9.477032661437988,9.477031707763672
12,-0.4166242778301239,-0.6202226877212524,-0.023441968485713005,36.7159592,3.1843581,28.71,7.71,-5.46,-0.01,91,324,9.455461502075195,9.45545482635498
13,-0.1494213193655014,-0.6223863959312439,0.020748134702444077,36.7160547,3.1842738,28.75,6.01,-4.26,0.03,91,324,7.372357368469238,7.372267246246338
14,0.04457269608974457,-1.0040149688720703,-0.2621105909347534,36.7161203,3.184207,28.81,1.8,-2.86,-0.17,90,302,3.394998073577881,3.390626907348633
15,-0.34578534960746765,-2.123522996902466,-0.06187979131937027,36.7161159,3.1841535,29.54,-2.31,-3.99,-0.78,90,238,4.684423446655273,4.618728160858154
16,-0.4638949930667877,-2.174229383468628,-0.022919658571481705,36.7160668,3.1840662,31.19,-4.54,-6.5,-1.35,89,235,8.052892684936523,7.9384589195251465
17,-0.4786803126335144,-2.165665626525879,0.03528859093785286,36.7159849,3.1839198,33.92,-5.51,-7.96,-1.6,89,235,9.819804191589355,9.687262535095215
18,-0.4263482391834259,-2.165959596633911,0.010067320428788662,36.7159098,3.1837828,36.39,-5.55,-8.16,-1.56,88,235,9.99483585357666,9.87134838104248
19,-0.4885263442993164,-2.1651272773742676,-0.004055781755596399,36.7158219,3.18362,39.25,-5.56,-8.24,-1.57,88,235,10.066786766052246,9.942073822021484
20,-0.4580860137939453,-2.1649138927459717,0.03285474702715874,36.7157469,3.1834809,41.73,-5.53,-8.22,-1.59,87,235,10.040129661560059,9.91290283203125
21,-0.4598808288574219,-2.1680305004119873,-0.023607449606060982,36.7156721,3.1833422,44.22,-5.55,-8.24,-1.59,87,235,10.073806762695312,9.946439743041992
22,-0.48881012201309204,-2.1668100357055664,-0.00817129760980606,36.7155844,3.1831792,47.11,-5.52,-8.29,-1.6,87,235,10.09293270111084,9.964009284973145
23,-0.45240509510040283,-2.1653246879577637,0.038113683462142944,36.7155095,3.1830392,49.61,-5.51,-8.29,-1.62,86,235,10.09302043914795,9.961684226989746
24,-0.4515877962112427,-2.1648731231689453,-0.02671891823410988,36.7154224,3.1828766,52.53,-5.51,-8.28,-1.61,86,235,10.089520454406738,9.959454536437988
25,-0.49211135506629944,-2.1645333766937256,0.004829560872167349,36.7153476,3.182737,55.03,-5.51,-8.29,-1.61,85,235,10.091204643249512,9.960664749145508
26,-0.4169553518295288,-2.1647934913635254,0.005915255285799503,36.7152601,3.1825738,57.94,-5.53,-8.25,-1.63,85,235,10.073752403259277,9.940021514892578
27,-0.466543048620224,-2.166367292404175,-0.02693178877234459,36.7151852,3.1824345,60.45,-5.53,-8.3,-1.62,84,235,10.108088493347168,9.976637840270996
28,-0.4589937925338745,-2.166154146194458,0.040202997624874115,36.7150977,3.1822711,63.37,-5.54,-8.3,-1.63,84,235,10.120786666870117,9.988404273986816
29,-0.2555728554725647,-2.168551206588745,-0.005460826680064201,36.7150252,3.1821363,65.79,-4.95,-7.34,-1.47,83,235,8.981980323791504,8.860078811645508
30,-0.09344687312841415,-2.1666598320007324,-0.002523278584703803,36.7149682,3.1820307,67.66,-3.33,-5.01,-0.87,83,235,6.085346221923828,6.022342205047607
31,-0.1175214871764183,-2.1140713691711426,0.006567368283867836,36.7149269,3.1819494,68.56,-2.18,-3.71,-0.2,83,238,4.313299179077148,4.308469772338867
32,-0.1775590032339096,-2.0870277881622314,0.010768345557153225,36.7148991,3.1818879,68.66,-2.01,-3.69,0.0,82,240,4.209800720214844,4.209789752960205
33,-0.016794705763459206,-2.087376594543457,-0.02492704428732395,36.7148682,3.1818176,68.64,-1.75,-3.23,0.0,82,240,3.678256034851074,3.6782538890838623
34,0.017945671454072,-2.244558572769165,-0.024351630359888077,36.7148485,3.1817768,68.08,-1.22,-1.61,0.91,82,231,2.2258479595184326,2.0312020778656006
35,-0.0004432268033269793,-2.486884593963623,-0.024149224162101746,36.714833,3.181758,65.99,-1.04,-0.79,1.48,81,217,1.9817054271697998,1.3135520219802856
36,-0.015928568318486214,-2.472325325012207,0.025941766798496246,36.7148166,3.1817429,63.35,-1.04,-0.81,1.41,81,218,1.9405409097671509,1.3247284889221191
37,-0.049762047827243805,-2.470015525817871,-0.019496046006679535,36.7148024,3.1817289,61.11,-1.05,-0.87,1.42,80,218,1.97841215133667,1.373574137687683
38,-0.007338510826230049,-2.4700798988342285,-0.008934231474995613,36.7147855,3.1817119,58.49,-1.06,-0.88,1.43,80,218,1.9962979555130005,1.3885712623596191
39,-0.0576915442943573,-2.4692394733428955,-0.005258569959551096,36.7147709,3.1816972,56.26,-1.06,-0.87,1.44,80,218,2.0050621032714844,1.3850008249282837
40,-0.006972345989197493,-2.469557762145996,0.007093423046171665,36.7147563,3.1816826,54.01,-1.06,-0.87,1.45,79,218,2.0064215660095215,1.3839778900146484
41,-0.0469290055334568,-2.4695613384246826,0.029253879562020302,36.7147394,3.1816656,51.39,-1.06,-0.88,1.45,79,218,2.0144011974334717,1.3894639015197754
42,-0.019962595775723457,-2.4699201583862305,-0.02110818214714527,36.7147248,3.1816509,49.15,-1.06,-0.88,1.47,79,218,2.0222296714782715,1.3876380920410156
43,-0.021049192175269127,-2.469221353530884,0.027215922251343727,36.7147078,3.1816337,46.53,-1.07,-0.89,1.47,78,218,2.0295634269714355,1.3971145153045654
44,-0.045351542532444,-2.469470739364624,-0.022078612819314003,36.7146931,3.1816189,44.28,-1.07,-0.88,1.46,78,218,2.0235095024108887,1.3912582397460938
45,-0.008838215842843056,-2.4698078632354736,-0.0015762461116537452,36.7146761,3.1816019,41.66,-1.06,-0.87,1.47,77,218,2.022139549255371,1.3811525106430054
46,-0.06359583139419556,-2.4697065353393555,0.004950276110321283,36.7146616,3.1815871,39.41,-1.06,-0.89,1.47,77,218,2.024667263031006,1.3853883743286133
47,-0.009264815598726273,-2.4695582389831543,0.011239530518651009,36.7146471,3.1815724,37.16,-1.06,-0.89,1.47,77,218,2.0234153270721436,1.3898756504058838
48,-0.05193333700299263,-2.469381332397461,0.023204123601317406,36.71463,3.181555,34.54,-1.06,-0.87,1.47,76,218,2.0232999324798584,1.382873296737671
49,-0.015047376975417137,-2.469104528427124,0.019612418487668037,36.7146177,3.1815429,32.66,-1.07,-0.87,1.47,76,218,2.0253734588623047,1.385852336883545
50,-0.08514541387557983,-2.917877197265625,-0.07772276550531387,36.714596,3.1815251,29.7,-1.64,-0.42,1.28,76,192,2.1283140182495117,1.699861764907837
51,-0.256646066904068,2.6797211170196533,-0.05911799147725105,36.7145639,3.1815327,28.66,-3.2,1.44,0.05,75,153,3.5120651721954346,3.5115926265716553
52,-0.16862455010414124,2.6800785064697266,0.02177528850734234,36.7145129,3.1815634,28.75,-4.05,2.02,-0.04,75,153,4.529727935791016,4.5295305252075195
53,-0.06488130986690521,2.8523166179656982,0.1447327882051468,36.7144497,3.1815994,28.72,-3.71,1.06,0.06,74,163,3.8679909706115723,3.867516040802002
54,-0.2919555604457855,-2.3584108352661133,0.19273360073566437,36.7144051,3.1815908,28.69,-2.92,-2.54,0.02,74,224,3.875486373901367,3.875382661819458
55,-0.5065380334854126,-2.1395621299743652,0.021178632974624634,36.7143532,3.1815004,28.69,-3.97,-6.35,0.01,74,237,7.498044967651367,7.498028755187988
56,-0.44682276248931885,-2.146073818206787,0.010522150434553623,36.7142926,3.1813804,28.7,-4.85,-7.6,0.0,73,237,9.022533416748047,9.022534370422363
57,-0.3782449960708618,-2.151371717453003,-0.008192453533411026,36.7142149,3.1812301,28.72,-4.79,-7.39,0.0,73,236,8.814711570739746,8.814709663391113
58,-0.21867886185646057,-2.1477749347686768,0.0368100143969059,36.714155,3.1811147,28.73,-3.97,-6.2,0.03,72,236,7.364682197570801,7.364604949951172
59,-0.27153927087783813,-2.1217212677001953,-0.012389243580400944,36.7141061,3.1810161,28.7,-3.4,-5.69,0.02,72,238,6.632688045501709,6.632622241973877
60,-0.25952598452568054,-2.101057291030884,0.027817510068416595,36.7140543,3.1809054,28.7,-3.24,-5.65,0.01,72,239,6.517755508422852,6.517740249633789
61,-0.2177230715751648,-2.100735902786255,-0.024664776399731636,36.7140105,3.1808101,28.7,-3.16,-5.55,0.0,71,239,6.396037578582764,6.396035194396973
62,0.13693326711654663,-2.1009414196014404,0.006822405848652124,36.7139681,3.1807176,28.68,-1.92,-3.36,0.04,71,239,3.880735158920288,3.8804829120635986
63,0.11010425537824631,-2.100017547607422,-0.014479123055934906,36.7139533,3.180685,28.68,-0.37,-0.65,-0.01,71,239,0.7566271424293518,0.756376326084137
64,0.024875810369849205,-2.1003870964050293,0.02209964208304882,36.7139528,3.1806839,28.68,0.09,0.15,0.02,70,239,0.18811418116092682,0.18648184835910797
