timestamp,pitch,yaw,roll,lat,lon,alt,velocity_x,velocity_y,velocity_z,battery,heading,airspeed,groundspeed
0,-0.025367723777890205,0.03430723771452904,0.017915675416588783,36.7156065,3.18463,17.3,-0.01,0.02,-0.02,96,1,0.04198018088936806,0.03317457437515259
1,-0.11121448874473572,0.05585183575749397,0.05159835144877434,36.715609,3.1846325,17.36,0.55,0.5,0.0,95,3,0.7493529319763184,0.7493525147438049
2,-0.18906192481517792,0.8863312005996704,-0.015923481434583664,36.7156272,3.1846512,17.32,2.19,1.88,-0.02,95,50,2.892261028289795,2.8921914100646973
3,-0.19229285418987274,0.725257396697998,-0.01487363688647747,36.7156638,3.1846903,17.35,3.04,2.57,-0.02,95,41,3.988596200942993,3.988497495651245
4,0.10023249685764313,0.6771259903907776,-0.04029811918735504,36.7157111,3.184739,17.37,2.52,1.98,0.0,94,38,3.2111690044403076,3.2111620903015137
5,0.12843847274780273,-0.34880146384239197,-0.30918487906455994,36.7157279,3.1847486,17.35,-0.49,-1.27,0.01,94,340,1.3663253784179688,1.366286039352417
6,-0.18392455577850342,-2.181401252746582,-0.005315068643540144,36.715701,3.1846967,17.39,-2.37,-3.32,-0.01,93,235,4.0860748291015625,4.08603048324585
7,-0.053649503737688065,-2.0542356967926025,0.04786728695034981,36.7156698,3.1846393,17.38,-2.1,-3.28,0.01,93,242,3.9025893211364746,3.9025678634643555
8,-0.11752436310052872,-1.4253491163253784,0.256397008895874,36.7156555,3.1845863,17.36,0.42,-2.85,0.01,93,278,2.887157440185547,2.887124538421631
9,-0.42609211802482605,-0.6460099220275879,0.021648555994033813,36.7156981,3.1845276,17.36,4.8,-3.46,0.0,92,322,5.9262166023254395,5.926216125488281
10,-0.5443044900894165,-0.6283828616142273,0.019169777631759644,36.7157803,3.1844559,17.37,7.11,-4.93,0.0,92,324,8.658426284790039,8.658426284790039
11,-0.46120795607566833,-0.6200539469718933,-0.010467234998941422,36.7159011,3.1843507,17.39,7.89,-5.57,0.0,91,324,9.666793823242188,9.666793823242188
12,-0.3596504330635071,-0.6221743226051331,-0.021553771570324898,36.7160059,3.1842579,17.42,7.32,-5.2,-0.01,91,324,8.985566139221191,8.985553741455078
13,0.04716060683131218,-0.658549964427948,-0.0696047842502594,36.7161024,3.1841716,17.43,4.39,-3.41,0.03,91,322,5.566011428833008,5.565887928009033
14,-0.1548011749982834,-1.5011353492736816,-0.28488582372665405,36.7161351,3.1841207,17.67,0.15,-2.98,-0.37,90,274,3.0158047676086426,2.9926915168762207
15,-0.3840838074684143,-2.1431996822357178,-0.02964164689183235,36.7161113,3.1840578,18.74,-3.38,-4.81,-1.01,90,237,5.974382400512695,5.888092041015625
16,-0.5141120553016663,-2.162332773208618,0.00031229559681378305,36.7160411,3.1839344,21.07,-5.15,-7.45,-1.52,89,236,9.191686630249023,9.063711166381836
17,-0.4699670076370239,-2.164196252822876,0.034880366176366806,36.7159674,3.1838012,23.53,-5.54,-8.03,-1.59,89,236,9.890801429748535,9.7615385055542
18,-0.45121970772743225,-2.166797161102295,-0.027699356898665428,36.7158795,3.1836398,26.4,-5.55,-8.23,-1.56,88,235,10.057250022888184,9.934260368347168
19,-0.491830974817276,-2.1634998321533203,0.0008367281989194453,36.7158044,3.1835,28.86,-5.53,-8.26,-1.58,88,236,10.073653221130371,9.948196411132812
20,-0.44992825388908386,-2.1647684574127197,0.03955790027976036,36.7157294,3.1833603,31.34,-5.5,-8.24,-1.6,88,235,10.045825958251953,9.916535377502441
21,-0.4576646089553833,-2.1634700298309326,-0.031088825315237045,36.7156427,3.1831985,34.24,-5.5,-8.29,-1.6,87,236,10.0806245803833,9.95221996307373
22,-0.4902612566947937,-2.1623659133911133,0.003452153177931905,36.7155679,3.1830584,36.74,-5.52,-8.29,-1.61,87,236,10.098447799682617,9.96889591217041
23,-0.4233889877796173,-2.1644721031188965,0.009330393746495247,36.7154804,3.1828955,39.65,-5.51,-8.26,-1.62,86,235,10.064120292663574,9.931768417358398
24,-0.4615798890590668,-2.1652228832244873,-0.027294185012578964,36.7154057,3.1827559,42.15,-5.5,-8.3,-1.62,86,235,10.096948623657227,9.965362548828125
25,-0.4573220908641815,-2.165848731994629,0.03890365734696388,36.7153185,3.1825926,45.07,-5.51,-8.31,-1.63,85,235,10.119881629943848,9.98828411102295
26,-0.42475366592407227,-2.1628823280334473,0.018486106768250465,36.7152438,3.1824525,47.58,-5.5,-8.29,-1.63,85,236,10.087061882019043,9.954092979431152
27,-0.46367475390434265,-2.1645619869232178,-0.027013299986720085,36.7151693,3.1823128,50.08,-5.52,-8.27,-1.62,84,235,10.082756996154785,9.950230598449707
28,-0.4077826142311096,-2.164623260498047,0.032375406473875046,36.7150821,3.1821503,53.0,-5.46,-8.16,-1.61,84,235,9.960002899169922,9.827699661254883
29,-0.15484926104545593,-2.168081760406494,-0.010890848934650421,36.7150135,3.1820232,55.29,-4.43,-6.61,-1.31,83,235,8.073477745056152,7.965031623840332
30,-0.06461034715175629,-2.1495361328125,0.04427991807460785,36.7149591,3.1819206,56.93,-2.58,-4.05,-0.5,83,236,4.835528373718262,4.808649063110352
31,-0.12788917124271393,-2.0978379249572754,-0.010790389031171799,36.7149289,3.1818574,57.33,-2.07,-3.69,-0.08,83,239,4.236497402191162,4.23555850982666
32,-0.178649440407753,-2.086608648300171,0.023729057982563972,36.7149017,3.181796,57.34,-2.0,-3.71,-0.01,82,240,4.221640110015869,4.221602439880371
33,0.018771884962916374,-2.1004080772399902,-0.04282442852854729,36.7148725,3.1817304,57.26,-1.5,-2.65,0.2,82,239,3.055389881134033,3.048832654953003
34,0.0192829929292202,-2.384702682495117,-0.012351078912615776,36.7148551,3.1816996,56.09,-1.16,-1.19,1.33,82,223,2.1380999088287354,1.6669139862060547
35,-0.05698460713028908,-2.462672710418701,-0.0037179114297032356,36.7148382,3.1816827,53.43,-1.03,-0.8,1.42,81,218,1.9324649572372437,1.3105354309082031
36,-0.013556992635130882,-2.468830108642578,0.011760061606764793,36.7148241,3.1816692,51.2,-1.04,-0.84,1.42,81,218,1.9603102207183838,1.3431565761566162
37,-0.05949762463569641,-2.469691038131714,-0.010157043114304543,36.7148097,3.181655,48.95,-1.06,-0.87,1.43,81,218,1.9932893514633179,1.3843047618865967
38,-0.018649285659193993,-2.4702765941619873,-0.018664877861738205,36.7147927,3.181638,46.34,-1.07,-0.87,1.44,80,218,1.9992858171463013,1.3828991651535034
39,-0.060544319450855255,-2.4694039821624756,0.009816768579185009,36.7147782,3.1816234,44.1,-1.06,-0.88,1.45,80,218,2.0035412311553955,1.3807637691497803
40,-0.04445551708340645,-2.4696664810180664,-0.023939931765198708,36.7147612,3.1816063,41.48,-1.06,-0.88,1.45,79,218,2.0139575004577637,1.3899379968643188
41,-0.03618890047073364,-2.469320058822632,0.028694799169898033,36.7147466,3.1815916,39.24,-1.06,-0.88,1.46,79,218,2.0153238773345947,1.3887829780578613
42,-0.05960880219936371,-2.469510555267334,-0.0005779708153568208,36.7147296,3.1815744,36.62,-1.07,-0.88,1.47,79,218,2.0275118350982666,1.3926165103912354
43,-0.007558859884738922,-2.4690089225769043,0.013910433277487755,36.714715,3.1815598,34.37,-1.06,-0.87,1.47,78,218,2.016148567199707,1.3795348405838013
44,-0.05798361077904701,-2.4692013263702393,-0.013939794152975082,36.7147004,3.1815451,32.12,-1.06,-0.89,1.46,78,218,2.0250110626220703,1.3934651613235474
45,-0.013483325950801373,-2.469778537750244,-0.01641501858830452,36.7146835,3.1815278,29.5,-1.06,-0.88,1.47,78,218,2.027411699295044,1.3905515670776367
46,-0.05762890353798866,-2.469804048538208,0.013861064799129963,36.7146688,3.181513,27.25,-1.06,-0.88,1.47,77,218,2.024975061416626,1.382238507270813
47,-0.042686827480793,-2.4698424339294434,-0.02166586183011532,36.7146519,3.181496,24.62,-1.07,-0.88,1.47,77,218,2.029496192932129,1.393682599067688
48,-0.04204367846250534,-2.469527244567871,0.02742971107363701,36.7146372,3.1814812,22.38,-1.05,-0.88,1.47,77,218,2.0211920738220215,1.3813422918319702
49,-0.07564675062894821,-2.482858657836914,-0.033164218068122864,36.7146202,3.181464,19.75,-1.1,-0.87,1.47,76,217,2.039807081222534,1.4046034812927246
50,-0.14775674045085907,2.994117259979248,-0.0925452932715416,36.7145993,3.1814557,17.76,-2.15,0.2,0.85,76,171,2.3275606632232666,2.1640501022338867
51,-0.2484142780303955,2.677231788635254,-0.01990014873445034,36.7145589,3.1814747,17.37,-3.67,1.81,-0.06,75,153,4.102506160736084,4.101963520050049
52,-0.1056692823767662,2.6824848651885986,0.010018519125878811,36.7144955,3.1815138,17.45,-4.01,1.99,0.05,75,153,4.486994743347168,4.486660957336426
53,-0.06541872024536133,-3.1338584423065186,0.2478484958410263,36.7144441,3.1815347,17.39,-3.36,-0.04,0.04,75,180,3.3691887855529785,3.3689074516296387
54,-0.3695569634437561,-2.1902623176574707,0.10114514082670212,36.7144027,3.1815015,17.38,-3.05,-4.01,0.01,74,234,5.048004627227783,5.047976493835449
55,-0.5146381855010986,-2.1565701961517334,0.03169010952115059,36.7143442,3.1813891,17.38,-4.42,-7.02,0.0,74,236,8.302338600158691,8.302334785461426
56,-0.43147391080856323,-2.149604320526123,0.01211306732147932,36.71428,3.1812628,17.4,-4.94,-7.69,0.0,73,236,9.149313926696777,9.149312973022461
57,-0.3387153446674347,-2.152125120162964,-0.006004489026963711,36.7142035,3.1811152,17.42,-4.5,-6.95,0.0,73,236,8.288087844848633,8.288086891174316
58,-0.226291224360466,-2.141756534576416,0.03500399366021156,36.7141481,3.1810074,17.4,-3.67,-5.83,0.03,73,237,6.895480155944824,6.895401954650879
59,-0.30138853192329407,-2.116468906402588,0.009937463328242302,36.7140933,3.1808954,17.39,-3.33,-5.63,0.01,72,238,6.545159816741943,6.545146942138672
60,-0.2648291289806366,-2.1080126762390137,0.024242805317044258,36.7140489,3.1808008,17.39,-3.27,-5.68,0.01,72,239,6.560014724731445,6.560004711151123
61,-0.13773047924041748,-2.108553171157837,-0.02431240677833557,36.7140053,3.1807073,17.39,-2.98,-5.12,0.0,71,239,5.93610954284668,5.9361090660095215
62,0.1944073885679245,-2.109067678451538,-0.0003815929521806538,36.7139696,3.1806313,17.36,-1.26,-2.16,0.01,71,239,2.5062155723571777,2.5061419010162354
63,0.06075609102845192,-2.1086926460266113,-0.002480457304045558,36.7139618,3.1806144,17.37,-0.04,-0.11,-0.01,71,239,0.12255322933197021,0.12173078209161758
64,-5.2401093853404745e-05,-2.1091415882110596,0.07214032113552094,36.7139638,3.1806164,17.33,0.39,-0.09,0.01,70,239,0.4041367471218109,0.403719961643219
