timestamp,pitch,yaw,roll,lat,lon,alt,velocity_x,velocity_y,velocity_z,battery,heading,airspeed,groundspeed
0,0.02405848540365696,0.00438702991232276,0.016293831169605255,36.7156064,3.1846302,10.59,0.0,0.0,-0.42,98,0,0.42935943603515625,0.008867253549396992
1,-0.0850471779704094,0.0380631722509861,0.1171526312828064,36.715608,3.1846336,10.84,0.38,0.66,-0.09,97,2,0.7725763916969299,0.7668642997741699
2,-0.19561649858951569,1.5348689556121826,-0.13040603697299957,36.7156203,3.1846591,10.9,1.49,2.53,0.0,97,87,2.9432501792907715,2.9432499408721924
3,-0.13959817588329315,0.8916618824005127,0.03995828330516815,36.7156453,3.1847113,10.83,2.03,3.5,0.04,97,51,4.055904388427734,4.0556321144104
4,0.02895379811525345,1.0107682943344116,0.014626692049205303,36.7156773,3.1847778,10.72,1.71,2.89,0.04,96,57,3.365976333618164,3.365720748901367
5,0.3555983901023865,1.4152367115020752,0.14526349306106567,36.7156874,3.1847995,10.69,-0.61,-0.83,-0.01,96,81,1.038278579711914,1.0381120443344116
6,-0.09599664807319641,-3.022109031677246,0.14930196106433868,36.7156615,3.1847527,10.65,-2.23,-3.19,0.02,95,186,3.9029860496520996,3.9028830528259277
7,-0.1155310571193695,-1.9538326263427734,-0.0010026585077866912,36.7156315,3.1846972,10.7,-2.18,-3.26,-0.01,95,248,3.9251115322113037,3.9250681400299072
8,-0.02876526117324829,-1.5891517400741577,0.24836456775665283,36.7156136,3.1846438,10.66,-0.11,-2.93,0.01,95,268,2.9354381561279297,2.9353854656219482
9,-0.44093233346939087,-0.6556709408760071,0.07255972176790237,36.7156465,3.1845867,10.65,4.24,-3.22,0.0,94,322,5.330557346343994,5.330548286437988
10,-0.4863702654838562,-0.6266648173332214,0.0384286604821682,36.7157227,3.1845193,10.65,6.79,-4.71,-0.01,94,324,8.270392417907715,8.270378112792969
11,-0.5150145292282104,-0.6187376379966736,-0.020732415840029716,36.715841,3.1844168,10.67,7.89,-5.51,0.0,93,324,9.62909984588623,9.629096984863281
12,-0.3812146484851837,-0.6238824129104614,0.03161773458123207,36.7159468,3.1843234,10.7,7.51,-5.35,-0.02,93,324,9.228692054748535,9.228650093078613
13,-0.04539858549833298,-0.6268036365509033,-0.028592348098754883,36.7160372,3.1842433,10.72,5.5,-3.95,0.03,93,324,6.777202129364014,6.777095317840576
14,-0.005135532468557358,-1.2415199279785156,-0.2563202381134033,36.716092,3.1841797,10.86,0.96,-2.9,-0.28,92,288,3.076319694519043,3.0632896423339844
15,-0.3959624767303467,-2.1270456314086914,-0.10948414355516434,36.7160774,3.1841213,11.77,-2.91,-4.39,-0.9,92,238,5.349905014038086,5.272085189819336
16,-0.4680957794189453,-2.1602911949157715,0.03396308422088623,36.7160119,3.1840064,13.95,-4.99,-7.14,-1.49,91,236,8.843705177307129,8.716629981994629
17,-0.4298151135444641,-2.1633036136627197,-0.022685330361127853,36.7159393,3.1838758,16.38,-5.51,-8.05,-1.61,91,236,9.898115158081055,9.765908241271973
18,-0.48879846930503845,-2.162929058074951,0.005339094903320074,36.7158514,3.1837146,19.24,-5.54,-8.2,-1.58,90,236,10.031296730041504,9.905138969421387
19,-0.43715471029281616,-2.1644577980041504,0.030331779271364212,36.7157761,3.1835752,21.7,-5.52,-8.24,-1.6,90,235,10.049583435058594,9.921030044555664
20,-0.4365788698196411,-2.164074659347534,-0.02184758149087429,36.7157014,3.1834359,24.19,-5.51,-8.26,-1.6,89,236,10.067022323608398,9.938241958618164
21,-0.48297685384750366,-2.1657464504241943,0.02848093770444393,36.7156141,3.183273,27.08,-5.51,-8.28,-1.62,89,235,10.082738876342773,9.951498031616211
22,-0.4395442008972168,-2.163085460662842,0.04152757301926613,36.7155395,3.1831333,29.57,-5.5,-8.27,-1.63,89,236,10.067394256591797,9.934300422668457
23,-0.4809578061103821,-2.163644313812256,-0.024302197620272636,36.7154525,3.1829706,32.5,-5.51,-8.26,-1.62,88,236,10.068183898925781,9.93656063079834
24,-0.491639643907547,-2.1639609336853027,0.027283186092972755,36.7153779,3.1828311,35.0,-5.52,-8.3,-1.62,88,236,10.109498023986816,9.977690696716309
25,-0.4317094385623932,-2.165872573852539,0.028127191588282585,36.7153029,3.182691,37.49,-5.53,-8.29,-1.64,87,235,10.110604286193848,9.975933074951172
26,-0.4852864444255829,-2.1656105518341064,-0.017094634473323822,36.7152156,3.1825281,40.42,-5.52,-8.3,-1.63,87,235,10.104581832885742,9.97136402130127
27,-0.48233509063720703,-2.165310859680176,0.02222287282347679,36.7151409,3.182388,42.93,-5.51,-8.31,-1.63,86,235,10.108501434326172,9.975096702575684
28,-0.41031622886657715,-2.1647026538848877,-0.020462239161133766,36.7150536,3.1822246,45.84,-5.49,-8.25,-1.63,86,235,10.053593635559082,9.919171333312988
29,-0.2627418339252472,-2.1668636798858643,-0.01441067922860384,36.7149832,3.1820937,48.21,-4.69,-6.96,-1.4,85,235,8.517443656921387,8.400004386901855
30,-0.057846616953611374,-2.162149429321289,0.040488675236701965,36.7149309,3.1819964,49.89,-3.05,-4.63,-0.73,85,236,5.600252151489258,5.551591873168945
31,-0.16539877653121948,-2.1040778160095215,0.005036210175603628,36.7148922,3.1819184,50.6,-2.12,-3.71,-0.14,85,239,4.283952713012695,4.281622409820557
32,-0.1277032345533371,-2.0857489109039307,0.019547387957572937,36.7148648,3.1818568,50.64,-2.0,-3.68,0.0,84,240,4.198565483093262,4.198556900024414
33,-0.024778546765446663,-2.089818000793457,0.005480174440890551,36.7148348,3.1817889,50.62,-1.61,-2.93,0.09,84,240,3.3490965366363525,3.347745895385742
34,0.037383198738098145,-2.3280997276306152,-0.057402603328228,36.7148164,3.1817536,49.74,-1.22,-1.38,1.16,84,226,2.191329002380371,1.8533287048339844
35,-0.03064712882041931,-2.4747722148895264,0.02622409164905548,36.7147988,3.1817349,47.14,-1.05,-0.79,1.44,83,218,1.955013394355774,1.3188444375991821
36,-0.03719876706600189,-2.476811170578003,-0.02275928296148777,36.7147846,3.1817217,44.9,-1.06,-0.83,1.43,83,218,1.9671019315719604,1.3507075309753418
37,-0.04908553510904312,-2.47593355178833,0.02747330814599991,36.7147701,3.1817076,42.66,-1.07,-0.87,1.43,83,218,1.998011589050293,1.3896267414093018
38,-0.059076499193906784,-2.4753782749176025,-0.013210788369178772,36.7147529,3.1816906,40.05,-1.08,-0.88,1.45,82,218,2.0191385746002197,1.4011560678482056
39,-0.019856255501508713,-2.4755427837371826,0.021733183413743973,36.7147383,3.181676,37.8,-1.08,-0.87,1.45,82,218,2.017296314239502,1.39689302444458
40,-0.060210973024368286,-2.475172519683838,0.006287388503551483,36.714721,3.1816588,35.19,-1.08,-0.88,1.46,81,218,2.0239269733428955,1.4000710248947144
41,-0.010796796530485153,-2.4754714965820312,-0.005452560726553202,36.7147062,3.1816442,32.95,-1.09,-0.88,1.47,81,218,2.0339064598083496,1.402826189994812
42,-0.03975491225719452,-2.4753427505493164,0.02691897563636303,36.714689,3.181627,30.33,-1.07,-0.88,1.47,81,218,2.027038812637329,1.38776433467865
43,-0.030866021290421486,-2.4757654666900635,-0.023249000310897827,36.7146742,3.1816124,28.07,-1.08,-0.89,1.47,80,218,2.0380332469940186,1.4064743518829346
44,-0.05483325198292732,-2.4754018783569336,0.023188551887869835,36.7146595,3.1815976,25.83,-1.07,-0.88,1.47,80,218,2.032482385635376,1.3955810070037842
45,-0.05661902204155922,-2.475306749343872,-0.01732422411441803,36.7146422,3.1815803,23.2,-1.07,-0.89,1.48,80,218,2.034996271133423,1.3960793018341064
46,-0.027216147631406784,-2.475146770477295,0.027781900018453598,36.7146275,3.1815657,20.95,-1.07,-0.87,1.47,79,218,2.0280685424804688,1.3883647918701172
47,-0.05863482877612114,-2.4757235050201416,0.013372281566262245,36.7146102,3.1815485,18.33,-1.06,-0.88,1.48,79,218,2.0277395248413086,1.3852317333221436
48,-0.010026536881923676,-2.4754750728607178,-0.004131571389734745,36.7145954,3.1815339,16.08,-1.07,-0.87,1.48,78,218,2.0304453372955322,1.3894438743591309
49,-0.04916834086179733,-2.4758493900299072,0.020607110112905502,36.7145783,3.1815167,13.45,-1.07,-0.88,1.47,78,218,2.0257439613342285,1.3887245655059814
50,-0.1308586150407791,-3.125408172607422,-0.13905173540115356,36.7145594,3.1815058,11.33,-1.91,-0.12,1.08,78,180,2.205538749694824,1.9187183380126953
51,-0.23433400690555573,2.666719913482666,0.008890442550182343,36.7145228,3.18152,10.66,-3.43,1.67,-0.03,77,152,3.8232080936431885,3.8230648040771484
52,-0.18064552545547485,2.6714508533477783,-0.019064607098698616,36.7144617,3.1815582,10.76,-4.02,2.05,0.03,77,153,4.515851020812988,4.515721797943115
53,-0.020613865926861763,3.012335777282715,0.2232399731874466,36.7144095,3.1815839,10.7,-3.51,0.46,0.05,77,172,3.5461602210998535,3.5457730293273926
54,-0.43052229285240173,-2.1949856281280518,0.10455849766731262,36.7143604,3.1815502,10.68,-3.04,-4.07,0.01,76,234,5.089062690734863,5.089028835296631
55,-0.4608999192714691,-2.148468255996704,0.027677485719323158,36.7143113,3.1814565,10.68,-4.26,-6.77,0.0,76,236,8.001773834228516,8.001768112182617
56,-0.48339948058128357,-2.150064468383789,-0.016040023416280746,36.7142374,3.1813112,10.7,-4.93,-7.75,0.0,75,236,9.192243576049805,9.192243576049805
57,-0.32580313086509705,-2.1523051261901855,0.03151702135801315,36.7141714,3.1811834,10.71,-4.61,-7.13,0.0,75,236,8.495779991149902,8.495776176452637
58,-0.21940414607524872,-2.145202398300171,-0.0068227145820856094,36.7141142,3.1810726,10.7,-3.78,-5.94,0.02,75,237,7.052370071411133,7.052310466766357
59,-0.27445945143699646,-2.11808705329895,0.04045763984322548,36.7140586,3.1809598,10.68,-3.36,-5.63,0.0,74,238,6.565873146057129,6.565868854522705
60,-0.26523593068122864,-2.1081972122192383,-0.018462765961885452,36.7140139,3.1808649,10.68,-3.27,-5.64,0.0,74,239,6.528245449066162,6.528241157531738
61,-0.12856966257095337,-2.1086535453796387,0.028050914406776428,36.7139631,3.1807561,10.69,-2.96,-5.08,0.0,73,239,5.883077621459961,5.883077144622803
62,0.16105115413665771,-2.109204053878784,-0.026286303997039795,36.7139311,3.180688,10.66,-1.55,-2.65,0.03,73,239,3.0754330158233643,3.075282573699951
63,0.11171972006559372,-2.108546733856201,0.010554085485637188,36.7139202,3.1806645,10.67,-0.04,-0.1,-0.01,73,239,0.36120715737342834,0.3605802059173584
64,-0.028287479653954506,-2.11067533493042,0.05523296073079109,36.7139215,3.1806661,10.64,0.26,0.02,0.03,72,239,0.26402607560157776,0.2614891529083252
