timestamp,pitch,yaw,roll,lat,lon,alt,velocity_x,velocity_y,velocity_z,battery,heading,airspeed,groundspeed
0,0.013604898005723953,-0.024153022095561028,0.029793962836265564,36.7156066,3.1846299,28.31,-0.02,0.02,0.08,96,358,0.08783810585737228,0.03606639429926872
1,-0.042241163551807404,-0.03026355430483818,0.07356669753789902,36.715607,3.1846321,28.16,0.14,0.53,-0.01,95,358,0.554449737071991,0.5543222427368164
2,-0.15849874913692474,1.766058325767517,-0.12561532855033875,36.7156142,3.1846618,28.16,0.83,2.68,-0.06,95,101,2.810168504714966,2.8094661235809326
3,-0.10741952061653137,1.084301471710205,0.05233818292617798,36.7156282,3.1847152,28.21,1.1,3.44,-0.06,95,62,3.621870756149292,3.6212897300720215
4,0.14945216476917267,1.3020353317260742,0.06438823789358139,36.7156437,3.1847765,28.25,0.47,2.05,-0.03,94,74,2.105189085006714,2.104948043823242
5,-0.052008092403411865,2.8318190574645996,0.2763728201389313,36.7156372,3.1847771,28.26,-1.59,-2.06,-0.03,94,162,2.607095241546631,2.6068356037139893
6,-0.10491929203271866,-1.9050347805023193,-0.014551092870533466,36.7156041,3.1847174,28.3,-2.31,-3.33,-0.01,93,250,4.065051078796387,4.065033435821533
7,-0.07005107402801514,-2.056389570236206,0.10483420640230179,36.7155754,3.1846607,28.29,-1.6,-3.25,0.0,93,242,3.631051778793335,3.6310439109802246
8,-0.2161889374256134,-1.0070066452026367,0.23829223215579987,36.7155727,3.1846096,28.28,1.59,-2.77,0.0,93,302,3.203212022781372,3.203204393386841
9,-0.5152319073677063,-0.6123250126838684,0.028654783964157104,36.7156316,3.1845472,28.28,5.66,-3.92,0.01,92,324,6.888771057128906,6.888763904571533
10,-0.48459550738334656,-0.6163578033447266,0.003390567610040307,36.7157223,3.1844693,28.29,7.51,-5.2,-0.01,92,324,9.14173698425293,9.141731262207031
11,-0.5010742545127869,-0.6191843748092651,0.005270048975944519,36.715846,3.1843615,28.31,7.9,-5.56,0.0,91,324,9.666914939880371,9.666913986206055
12,-0.24077622592449188,-0.6215577125549316,0.02188599668443203,36.7159483,3.1842716,28.35,6.86,-4.87,0.0,91,324,8.42077350616455,8.42077350616455
13,0.035728517919778824,-0.7358955144882202,-0.12995465099811554,36.7160333,3.1841943,28.35,3.41,-3.12,-0.02,91,317,4.627548694610596,4.627481460571289
14,-0.2610050141811371,-1.9055912494659424,-0.21500065922737122,36.7160505,3.1841442,28.77,-0.99,-3.31,-0.53,90,250,3.4984800815582275,3.4573352336883545
15,-0.4872649610042572,-2.1738181114196777,0.0025940921623259783,36.7160148,3.1840721,30.1,-3.92,-5.54,-1.16,90,235,6.894339084625244,6.795045852661133
16,-0.44581976532936096,-2.1663472652435303,-0.006699611898511648,36.7159391,3.1839376,32.63,-5.34,-7.77,-1.57,89,235,9.56708812713623,9.436006546020508
17,-0.4652453660964966,-2.1665921211242676,-0.022975238040089607,36.7158641,3.1838017,35.08,-5.53,-8.1,-1.58,89,235,9.94098949432373,9.813713073730469
18,-0.44546815752983093,-2.163015842437744,0.03452836722135544,36.7157765,3.1836396,37.96,-5.53,-8.21,-1.58,88,236,10.029742240905762,9.90356159210205
19,-0.43225938081741333,-2.163975238800049,-0.019371874630451202,36.7157016,3.1835005,40.44,-5.55,-8.25,-1.59,88,236,10.074300765991211,9.947834014892578
20,-0.4824380576610565,-2.1644504070281982,-0.01784694194793701,36.7156266,3.183361,42.92,-5.52,-8.28,-1.59,87,235,10.08482551574707,9.957318305969238
21,-0.4312092363834381,-2.163721799850464,0.030290698632597923,36.7155394,3.183198,45.81,-5.5,-8.24,-1.62,87,236,10.04216194152832,9.910300254821777
22,-0.44548720121383667,-2.1647307872772217,-0.025717884302139282,36.7154649,3.183059,48.32,-5.51,-8.29,-1.61,87,235,10.0956449508667,9.965283393859863
23,-0.4698944687843323,-2.1646580696105957,0.035287193953990936,36.7153776,3.1828954,51.23,-5.52,-8.31,-1.62,86,235,10.113334655761719,9.981705665588379
24,-0.424143522977829,-2.164992332458496,0.02022591046988964,36.7153027,3.1827555,53.73,-5.5,-8.27,-1.63,86,235,10.071282386779785,9.937761306762695
25,-0.48839330673217773,-2.1642091274261475,-0.008037086576223373,36.7152156,3.1825925,56.65,-5.5,-8.3,-1.63,85,236,10.098031044006348,9.965597152709961
26,-0.4691956639289856,-2.1634745597839355,0.027410320937633514,36.7151411,3.1824529,59.15,-5.51,-8.28,-1.63,85,236,10.0858736038208,9.952722549438477
27,-0.42663586139678955,-2.1642379760742188,0.0013811098178848624,36.7150661,3.182313,61.66,-5.52,-8.29,-1.63,84,236,10.101820945739746,9.967887878417969
28,-0.3973386883735657,-2.1642608642578125,-0.0006167645333334804,36.7149794,3.1821509,64.57,-5.3,-7.9,-1.57,84,236,9.646775245666504,9.5180082321167
29,-0.0797865241765976,-2.1674559116363525,0.024421177804470062,36.7149153,3.1820324,66.72,-3.97,-5.91,-1.13,83,235,7.2104387283325195,7.12040901184082
30,-0.12253725528717041,-2.142426013946533,0.026484964415431023,36.714867,3.1819401,68.02,-2.36,-3.8,-0.37,83,237,4.493261814117432,4.477942943572998
31,-0.11891470849514008,-2.1061296463012695,0.007090647704899311,36.7148374,3.1818781,68.27,-2.1,-3.66,-0.04,83,239,4.228538513183594,4.228316783905029
32,-0.15293602645397186,-2.1032042503356934,-0.008200513198971748,36.7148093,3.1818168,68.25,-2.08,-3.68,-0.02,82,239,4.23600435256958,4.235901355743408
33,0.07154127210378647,-2.1515727043151855,-0.05551408603787422,36.7147812,3.1817569,68.06,-1.37,-2.17,0.42,82,236,2.6099092960357666,2.574781894683838
34,-0.010179129429161549,-2.4492602348327637,-0.0046639032661914825,36.7147647,3.181732,66.45,-1.1,-0.97,1.47,82,219,2.086132049560547,1.4725316762924194
35,-0.05433361604809761,-2.46637225151062,-0.019984591752290726,36.7147483,3.1817164,63.78,-1.04,-0.81,1.41,81,218,1.9324947595596313,1.3200982809066772
36,-0.01856965571641922,-2.4684412479400635,0.022369788959622383,36.7147341,3.1817027,61.55,-1.06,-0.86,1.42,81,218,1.9821110963821411,1.3741248846054077
37,-0.04819350317120552,-2.4693260192871094,-0.021977949887514114,36.7147196,3.1816883,59.31,-1.06,-0.88,1.44,80,218,2.0001609325408936,1.3850921392440796
38,-0.012878833338618279,-2.470118522644043,-0.00814494863152504,36.7147026,3.1816713,56.69,-1.06,-0.86,1.44,80,218,1.9975879192352295,1.3745919466018677
39,-0.06405191123485565,-2.469170093536377,0.0022034719586372375,36.7146881,3.1816567,54.45,-1.07,-0.89,1.45,80,218,2.0116844177246094,1.3919384479522705
40,-0.03847974166274071,-2.4696483612060547,-0.0259383711963892,36.7146711,3.1816395,51.83,-1.07,-0.89,1.46,79,218,2.02280855178833,1.394769549369812
41,-0.044288359582424164,-2.4696907997131348,0.029720831662416458,36.7146565,3.1816248,49.59,-1.06,-0.88,1.46,79,218,2.0201804637908936,1.3874788284301758
42,-0.06254775077104568,-2.469816207885742,-0.004017758648842573,36.7146395,3.1816077,46.96,-1.06,-0.89,1.46,79,218,2.0209367275238037,1.391236424446106
43,-0.005739055573940277,-2.4693191051483154,0.013126982375979424,36.7146249,3.181593,44.72,-1.06,-0.88,1.47,78,218,2.0216610431671143,1.3815078735351562
44,-0.059670399874448776,-2.469600200653076,-0.011739496141672134,36.7146103,3.1815782,42.47,-1.05,-0.89,1.47,78,218,2.0236597061157227,1.3849157094955444
45,-0.01805182918906212,-2.4697630405426025,-0.022129476070404053,36.7145934,3.181561,39.84,-1.06,-0.89,1.47,78,218,2.0243945121765137,1.3917900323867798
46,-0.05628106743097305,-2.4698708057403564,0.020117545500397682,36.7145787,3.1815463,37.6,-1.06,-0.88,1.47,77,218,2.0185461044311523,1.3807189464569092
47,-0.049602068960666656,-2.46975040435791,-0.02189994603395462,36.7145617,3.1815292,34.98,-1.05,-0.87,1.47,77,218,2.0202269554138184,1.37533700466156
48,-0.030142424628138542,-2.4692747592926025,0.026049260050058365,36.7145472,3.1815145,32.72,-1.06,-0.88,1.47,76,218,2.018601417541504,1.3811485767364502
49,-0.094821996986866,-2.588310480117798,-0.0539148673415184,36.7145297,3.1814975,30.1,-1.27,-0.78,1.46,76,211,2.0930466651916504,1.4990239143371582
50,-0.19739389419555664,2.7907705307006836,-0.08336806297302246,36.7145046,3.1814948,28.42,-2.57,0.79,0.47,76,159,2.733872652053833,2.6917831897735596
51,-0.2368314564228058,2.6711878776550293,0.0026551613118499517,36.7144596,3.1815202,28.32,-3.86,1.95,-0.06,75,153,4.32921838760376,4.328787326812744
52,-0.07490701228380203,2.7140157222747803,0.053392570465803146,36.7143966,3.1815595,28.36,-3.89,1.73,0.06,75,155,4.265868663787842,4.265300750732422
53,-0.15526176989078522,-2.790076732635498,0.308380126953125,36.7143483,3.1815694,28.3,-3.04,-1.12,0.03,75,200,3.2464852333068848,3.246267318725586
54,-0.4239630103111267,-2.1817409992218018,0.04608636721968651,36.7143074,3.1815174,28.3,-3.29,-5.0,0.02,74,235,5.991032600402832,5.9909987449646
55,-0.49272027611732483,-2.155194044113159,0.035018134862184525,36.7142439,3.1813921,28.3,-4.65,-7.39,0.0,74,236,8.737189292907715,8.737189292907715
56,-0.4037814140319824,-2.1510252952575684,-0.0022091621067374945,36.7141779,3.1812631,28.32,-4.95,-7.7,0.0,73,236,9.15987777709961,9.159878730773926
57,-0.2995421290397644,-2.152379035949707,0.02392525225877762,36.7141035,3.1811199,28.34,-4.27,-6.6,0.02,73,236,7.864763259887695,7.864728927612305
58,-0.2435905784368515,-2.1355977058410645,0.008044947870075703,36.7140513,3.1810173,28.32,-3.54,-5.73,0.03,73,237,6.741186141967773,6.741096496582031
59,-0.28944942355155945,-2.112360954284668,0.033447716385126114,36.7139976,3.1809058,28.31,-3.3,-5.64,0.01,72,238,6.543761730194092,6.5437517166137695
60,-0.25172221660614014,-2.108368158340454,-0.01116546057164669,36.7139531,3.1808106,28.31,-3.29,-5.65,0.01,72,239,6.549778461456299,6.549768447875977
61,-0.01662386767566204,-2.108593702316284,0.02557010017335415,36.7139054,3.1807088,28.31,-2.49,-4.28,0.02,71,239,4.9610915184021,4.9610276222229
62,0.15520629286766052,-2.109248161315918,-0.03115999698638916,36.7138825,3.1806598,28.28,-0.83,-1.41,0.0,71,239,1.6380852460861206,1.6380667686462402
63,0.03825513646006584,-2.109074354171753,0.02760203368961811,36.7138787,3.1806514,28.29,0.08,0.11,0.0,71,239,0.14297468960285187,0.1429743617773056
64,-0.05648696422576904,-2.06630802154541,0.13482698798179626,36.7138827,3.1806526,28.25,0.72,-0.39,-0.01,70,241,0.8314341902732849,0.8311952352523804
