timestamp,pitch,yaw,roll,lat,lon,alt,velocity_x,velocity_y,velocity_z,battery,heading,airspeed,groundspeed
0,0.028857380151748657,-0.05116104334592819,0.015313367359340191,36.7156066,3.1846299,26.38,-0.02,0.02,0.07,96,357,0.08571822941303253,0.037623774260282516
1,-0.0618462935090065,-0.0556679368019104,0.10596531629562378,36.7156073,3.1846323,26.34,0.21,0.59,-0.01,95,356,0.6301692128181458,0.6300342679023743
2,-0.1917867660522461,1.7627058029174805,-0.1387399435043335,36.7156174,3.1846651,26.31,1.15,2.93,-0.05,95,100,3.1524498462677,3.151890277862549
3,-0.12141746282577515,1.001503586769104,0.037444956600666046,36.7156362,3.1847236,26.37,1.5,3.8,-0.07,95,57,4.097171783447266,4.096566200256348
4,0.0941108763217926,1.1778004169464111,0.04600770026445389,36.7156589,3.1847941,26.43,1.06,2.77,-0.03,94,67,2.972188949584961,2.9719488620758057
5,0.09190591424703598,2.3318772315979004,0.30219364166259766,36.7156605,3.1848092,26.44,-1.12,-1.33,-0.01,94,133,1.751678705215454,1.7516000270843506
6,-0.1635291427373886,-2.415116548538208,0.061393484473228455,36.7156356,3.1847659,26.48,-2.24,-3.28,-0.02,93,221,3.9766321182250977,3.9765219688415527
7,-0.09409982711076736,-2.2314469814300537,0.0840224027633667,36.7156005,3.1847,26.47,-1.96,-3.29,0.0,93,232,3.832801103591919,3.8327982425689697
8,-0.07023406773805618,-1.3889707326889038,0.2575693130493164,36.7155884,3.1846475,26.46,0.58,-2.83,0.0,93,280,2.8972740173339844,2.897261381149292
9,-0.44468387961387634,-0.6463285684585571,0.08113580197095871,36.7156328,3.1845887,26.46,4.89,-3.48,0.0,92,322,6.0108747482299805,6.0108747482299805
10,-0.4922083020210266,-0.6256875395774841,-0.011638274416327477,36.7157161,3.1845167,26.47,7.15,-4.94,0.0,92,324,8.69611930847168,8.696115493774414
11,-0.5083661675453186,-0.618144154548645,0.02209475450217724,36.7158373,3.1844119,26.49,7.9,-5.54,0.0,91,324,9.654153823852539,9.654153823852539
12,-0.310250461101532,-0.6200298070907593,0.0010912211146205664,36.7159422,3.1843196,26.52,7.31,-5.19,-0.01,91,324,8.973934173583984,8.973912239074707
13,-0.03779670596122742,-0.6302329301834106,-0.06372618675231934,36.7160281,3.1842437,26.53,4.95,-3.63,0.05,91,323,6.142488956451416,6.142270088195801
14,-0.11574305593967438,-1.52028226852417,-0.30999934673309326,36.7160711,3.1841832,26.76,0.12,-2.98,-0.37,90,272,3.0076680183410645,2.9839463233947754
15,-0.4468191862106323,-2.1418027877807617,-0.02076159231364727,36.7160472,3.1841203,27.84,-3.38,-4.84,-1.01,90,237,5.990890979766846,5.904245376586914
16,-0.46199485659599304,-2.162734270095825,-0.025892261415719986,36.7159769,3.1839965,30.18,-5.15,-7.46,-1.53,89,236,9.196724891662598,9.067598342895508
17,-0.4937231242656708,-2.1646716594696045,-0.018120234832167625,36.715903,3.1838633,32.63,-5.54,-8.03,-1.59,89,235,9.88827133178711,9.75949478149414
18,-0.46234050393104553,-2.1646318435668945,0.04180144518613815,36.7158277,3.1837251,35.09,-5.53,-8.23,-1.58,88,235,10.046327590942383,9.920790672302246
19,-0.4508754014968872,-2.163287401199341,-0.03275681287050247,36.7157401,3.1835619,37.97,-5.54,-8.25,-1.59,88,236,10.06741714477539,9.940850257873535
20,-0.4903204143047333,-2.1676645278930664,0.00768028711900115,36.7156651,3.1834228,40.45,-5.52,-8.23,-1.59,87,235,10.037328720092773,9.910333633422852
21,-0.4279163181781769,-2.164401054382324,0.003421141766011715,36.7155783,3.1832606,43.34,-5.51,-8.32,-1.61,87,235,10.122313499450684,9.992185592651367
22,-0.4589292109012604,-2.1635637283325195,-0.027234019711613655,36.7155034,3.1831203,45.85,-5.52,-8.27,-1.61,87,236,10.083490371704102,9.95285701751709
23,-0.49138158559799194,-2.164539337158203,0.023733440786600113,36.7154285,3.1829807,48.35,-5.5,-8.28,-1.61,86,235,10.076055526733398,9.945098876953125
24,-0.428853839635849,-2.1628222465515137,-0.012976809404790401,36.7153414,3.1828177,51.26,-5.5,-8.28,-1.62,86,236,10.08540153503418,9.952869415283203
25,-0.48332497477531433,-2.165235757827759,-0.019626157358288765,36.7152669,3.1826783,53.76,-5.53,-8.29,-1.63,85,235,10.10302734375,9.970227241516113
26,-0.4483485817909241,-2.1644251346588135,0.04270320013165474,36.7151794,3.1825147,56.69,-5.52,-8.3,-1.63,85,235,10.102665901184082,9.9695405960083
27,-0.43526723980903625,-2.1646621227264404,-0.02437303401529789,36.7151048,3.1823749,59.19,-5.51,-8.28,-1.63,84,235,10.083001136779785,9.949700355529785
28,-0.46465057134628296,-2.165133476257324,-0.015503446571528912,36.7150301,3.1822355,61.68,-5.5,-8.26,-1.63,84,235,10.066752433776855,9.93317699432373
29,-0.15556852519512177,-2.167668581008911,0.007259535137563944,36.7149492,3.1820855,64.4,-4.41,-6.57,-1.31,83,235,8.027103424072266,7.9189229011535645
30,-0.08175486326217651,-2.157755136489868,-0.010424594394862652,36.714901,3.1819948,65.89,-2.8,-4.32,-0.6,83,236,5.188581943511963,5.152776718139648
31,-0.11781968176364899,-2.110553503036499,-0.0027322941459715366,36.714864,3.1819196,66.43,-2.14,-3.69,-0.09,83,239,4.270899772644043,4.269924163818359
32,-0.18825988471508026,-2.1018404960632324,0.003745947265997529,36.7148358,3.1818583,66.44,-2.09,-3.71,-0.01,82,239,4.26047420501709,4.2604498863220215
33,0.03212352469563484,-2.1153156757354736,-0.04510512575507164,36.7148057,3.1817929,66.37,-1.54,-2.63,0.2,82,238,3.0628597736358643,3.0562405586242676
34,0.0072277323342859745,-2.3868908882141113,-0.013706180267035961,36.7147879,3.1817623,65.21,-1.17,-1.19,1.33,82,223,2.1427717208862305,1.6729567050933838
35,-0.024022655561566353,-2.4689316749572754,-0.022788358852267265,36.7147734,3.1817475,62.92,-1.03,-0.8,1.43,81,218,1.9462993144989014,1.3133320808410645
36,-0.011943005956709385,-2.4688546657562256,0.015745002776384354,36.7147569,3.181732,60.31,-1.06,-0.84,1.42,81,218,1.9675954580307007,1.3584938049316406
37,-0.05852271988987923,-2.469897508621216,-0.014711594209074974,36.7147426,3.1817177,58.07,-1.06,-0.87,1.43,81,218,1.9899957180023193,1.3785862922668457
38,-0.01566391810774803,-2.4706168174743652,-0.015216536819934845,36.7147256,3.1817008,55.46,-1.07,-0.88,1.45,80,218,2.0089058876037598,1.3895843029022217
39,-0.06213906407356262,-2.4697580337524414,0.00963537860661745,36.7147111,3.1816861,53.21,-1.06,-0.88,1.45,80,218,2.005013942718506,1.3829667568206787
40,-0.012146019376814365,-2.4700326919555664,-0.012670393101871014,36.7146965,3.1816715,50.97,-1.07,-0.88,1.45,79,218,2.016845226287842,1.3933632373809814
41,-0.03604886308312416,-2.4696388244628906,0.027346093207597733,36.7146795,3.1816543,48.35,-1.07,-0.88,1.47,79,218,2.0252742767333984,1.3911302089691162
42,-0.03885747492313385,-2.4700374603271484,-0.02285710535943508,36.7146649,3.1816396,46.11,-1.07,-0.89,1.47,79,218,2.028538227081299,1.394897222518921
43,-0.009253013879060745,-2.4694855213165283,0.009482425637543201,36.7146479,3.1816226,43.49,-1.06,-0.88,1.47,78,218,2.019219398498535,1.3814880847930908
44,-0.06261248886585236,-2.469972610473633,-0.0013254062505438924,36.7146333,3.1816079,41.24,-1.06,-0.88,1.47,78,218,2.029515504837036,1.3908934593200684
45,-0.026605576276779175,-2.4697070121765137,-0.022562481462955475,36.7146163,3.1815906,38.61,-1.07,-0.89,1.47,78,218,2.0343971252441406,1.3991472721099854
46,-0.04730912297964096,-2.4702200889587402,0.02430819347500801,36.7146017,3.1815758,36.36,-1.05,-0.88,1.47,77,218,2.0176565647125244,1.380318284034729
47,-0.019818469882011414,-2.469841241836548,-0.015853973105549812,36.7145872,3.1815613,34.12,-1.07,-0.88,1.47,77,218,2.028282880783081,1.3880842924118042
48,-0.01728874258697033,-2.469576597213745,0.02687167562544346,36.7145701,3.1815441,31.48,-1.05,-0.88,1.47,76,218,2.0180764198303223,1.377260446548462
49,-0.05485965311527252,-2.4706575870513916,-0.02225843258202076,36.7145555,3.1815293,29.23,-1.06,-0.88,1.46,76,218,2.01965069770813,1.3856741189956665
50,-0.14502310752868652,2.989492416381836,-0.1175917312502861,36.7145322,3.1815187,26.87,-2.14,0.21,0.85,76,171,2.322697401046753,2.157874584197998
51,-0.24445639550685883,2.6696107387542725,0.009610232897102833,36.7144922,3.1815378,26.47,-3.64,1.82,-0.06,75,152,4.074068069458008,4.073562145233154
52,-0.13132433593273163,2.6759307384490967,0.0030398534145206213,36.7144296,3.1815771,26.55,-3.97,1.98,0.05,75,153,4.44094181060791,4.440593719482422
53,-0.045159269124269485,-3.106679677963257,0.27344459295272827,36.7143789,3.1815974,26.49,-3.32,-0.11,0.04,75,182,3.3284080028533936,3.328104019165039
54,-0.38840731978416443,-2.1948275566101074,0.07292687892913818,36.7143375,3.1815627,26.48,-3.08,-4.09,0.01,74,234,5.130125999450684,5.130099296569824
55,-0.47649651765823364,-2.160857915878296,0.03678247705101967,36.714278,3.1814493,26.48,-4.47,-7.05,0.0,74,236,8.358051300048828,8.358049392700195
56,-0.42842885851860046,-2.1556599140167236,-0.017349978908896446,36.7142131,3.1813231,26.5,-4.98,-7.7,0.0,73,236,9.174613952636719,9.174613952636719
57,-0.3177245855331421,-2.1576716899871826,0.026648016646504402,36.714136,3.1811759,26.52,-4.53,-6.92,0.0,73,236,8.2720365524292,8.272034645080566
58,-0.22347070276737213,-2.1433329582214355,-0.00204590056091547,36.7140804,3.1810686,26.5,-3.66,-5.81,0.03,73,237,6.877940654754639,6.877845764160156
59,-0.29717883467674255,-2.1137850284576416,0.017214976251125336,36.7140336,3.1809725,26.48,-3.3,-5.64,0.01,72,238,6.54202127456665,6.54200553894043
60,-0.26913902163505554,-2.099398374557495,-0.01966945081949234,36.7139826,3.1808621,26.49,-3.22,-5.67,0.01,72,239,6.527242660522461,6.527234077453613
61,-0.15678265690803528,-2.1000239849090576,0.009526985697448254,36.7139399,3.1807687,26.49,-2.91,-5.11,0.0,71,239,5.889487266540527,5.889487266540527
62,0.15650521218776703,-2.1009368896484375,-0.027864163741469383,36.7139052,3.1806933,26.45,-1.21,-2.12,0.01,71,239,2.4503676891326904,2.4503064155578613
63,0.08354873955249786,-2.1005043983459473,0.027692371979355812,36.7138979,3.180677,26.48,-0.03,-0.08,-0.01,71,239,0.09362515062093735,0.09273196011781693
64,-0.007266026455909014,-2.101275682449341,0.04082726687192917,36.7138992,3.1806789,26.44,0.25,0.02,0.03,70,239,0.2557298243045807,0.25308758020401
