timestamp,pitch,yaw,roll,lat,lon,alt,velocity_x,velocity_y,velocity_z,battery,heading,airspeed,groundspeed
0,-0.0233530942350626,0.007510060910135508,0.009535813704133034,36.7156065,3.18463,25.03,-0.01,0.02,-0.06,96,0,0.0718957856297493,0.02969842217862606
1,-0.016278769820928574,0.012266221456229687,0.11087314784526825,36.7156073,3.1846327,25.11,0.17,0.63,-0.04,95,0,0.6573073267936707,0.6558385491371155
2,-0.15091338753700256,1.8247158527374268,-0.1043463796377182,36.7156165,3.1846684,25.1,1.01,3.12,-0.04,95,104,3.288604736328125,3.28834867477417
3,-0.1697334349155426,1.0623396635055542,0.031120803207159042,36.7156328,3.1847296,25.13,1.27,3.92,-0.03,95,60,4.130640029907227,4.130512237548828
4,0.13252180814743042,1.2564194202423096,0.0014348129043355584,36.7156517,3.184801,25.13,0.77,2.68,0.0,94,71,2.794771671295166,2.794759511947632
5,0.022842280566692352,2.5976057052612305,0.3575340807437897,36.7156495,3.184812,25.11,-1.32,-1.59,-0.01,94,148,2.0776355266571045,2.0775816440582275
6,-0.1565014272928238,-2.174638032913208,-0.030053503811359406,36.7156234,3.184766,25.16,-2.25,-3.33,-0.02,93,235,4.029468536376953,4.029397964477539
7,-0.04146091267466545,-2.1655189990997314,0.05729736015200615,36.7155887,3.1846997,25.15,-1.84,-3.3,0.01,93,235,3.7890353202819824,3.7890212535858154
8,-0.17703405022621155,-1.2625353336334229,0.2833145558834076,36.7155798,3.1846474,25.13,0.96,-2.79,0.01,93,287,2.958491802215576,2.9584739208221436
9,-0.4762939512729645,-0.6348965764045715,0.0009651866275817156,36.7156296,3.1845875,25.13,5.18,-3.66,0.0,92,323,6.351459503173828,6.351455211639404
10,-0.5408808588981628,-0.6294580101966858,-0.006212327163666487,36.7156994,3.1845266,25.14,7.07,-4.89,0.0,92,323,8.598822593688965,8.598821640014648
11,-0.45596975088119507,-0.6187119483947754,0.0006669745780527592,36.71582,3.1844218,25.15,7.88,-5.53,0.0,91,324,9.63417911529541,9.634178161621094
12,-0.3375302851200104,-0.623508870601654,0.007557783741503954,36.7159413,3.1843145,25.19,7.09,-5.07,-0.01,91,324,8.723836898803711,8.72382926940918
13,0.031453561037778854,-0.6505367159843445,-0.05628066509962082,36.7160227,3.1842419,25.19,4.55,-3.48,0.03,91,322,5.741540908813477,5.741443634033203
14,-0.21299824118614197,-1.7028765678405762,-0.22409602999687195,36.7160581,3.1841818,25.51,-0.38,-3.11,-0.45,90,262,3.176020383834839,3.143630027770996
15,-0.40797996520996094,-2.1551365852355957,-0.05086742714047432,36.7160288,3.1841145,26.7,-3.65,-5.12,-1.08,90,236,6.386533260345459,6.292985439300537
16,-0.5224082469940186,-2.16344952583313,-0.0012771738693118095,36.7159676,3.1840075,28.73,-5.14,-7.36,-1.52,89,236,9.112828254699707,8.984562873840332
17,-0.42656973004341125,-2.1659274101257324,0.038653694093227386,36.715881,3.1838516,31.58,-5.52,-8.08,-1.6,89,235,9.922314643859863,9.791828155517578
18,-0.45143604278564453,-2.1641807556152344,-0.03330704942345619,36.7158059,3.1837129,34.05,-5.52,-8.21,-1.58,88,236,10.024358749389648,9.898959159851074
19,-0.4693860113620758,-2.164656162261963,0.036100685596466064,36.7157185,3.1835507,36.93,-5.55,-8.25,-1.6,88,235,10.080398559570312,9.952406883239746
20,-0.4222952425479889,-2.1651880741119385,0.008307748474180698,36.7156434,3.1834108,39.41,-5.53,-8.28,-1.61,87,235,10.09406852722168,9.964540481567383
21,-0.48911577463150024,-2.1629693508148193,-0.0031996655743569136,36.7155563,3.1832478,42.32,-5.47,-8.25,-1.6,87,236,10.036131858825684,9.90621280670166
22,-0.46182626485824585,-2.1632206439971924,0.038948435336351395,36.7154819,3.1831088,44.81,-5.51,-8.28,-1.62,87,236,10.086491584777832,9.954480171203613
23,-0.4260426461696625,-2.1638219356536865,0.0009737147483974695,36.7154069,3.182969,47.31,-5.54,-8.3,-1.63,86,236,10.11413860321045,9.981178283691406
24,-0.4893404543399811,-2.1638927459716797,0.004493852611631155,36.7153196,3.1828054,50.23,-5.49,-8.27,-1.62,86,236,10.069708824157715,9.937640190124512
25,-0.45103195309638977,-2.1635231971740723,0.037287306040525436,36.715245,3.1826657,52.73,-5.49,-8.26,-1.63,85,236,10.06025505065918,9.926541328430176
26,-0.4521338939666748,-2.163215160369873,-0.03833415359258652,36.715158,3.182503,55.64,-5.54,-8.29,-1.64,85,236,10.1102876663208,9.975926399230957
27,-0.491762638092041,-2.1650779247283936,0.0199715755879879,36.7150829,3.182363,58.16,-5.52,-8.29,-1.63,84,235,10.102988243103027,9.969664573669434
28,-0.36526697874069214,-2.1641268730163574,-0.007800883147865534,36.714996,3.1822002,61.07,-5.39,-8.05,-1.6,84,236,9.828879356384277,9.697563171386719
29,-0.1665906012058258,-2.1680424213409424,-0.012702819891273975,36.7149296,3.1820772,63.29,-4.23,-6.28,-1.24,83,235,7.677837371826172,7.575649261474609
30,-0.06089194118976593,-2.1511809825897217,0.046199943870306015,36.7148839,3.181991,64.66,-2.64,-4.13,-0.54,83,236,4.938810348510742,4.908592224121094
31,-0.1687362939119339,-2.0951457023620605,0.009974079206585884,36.7148485,3.181917,65.11,-2.04,-3.67,-0.06,83,239,4.208820819854736,4.208323955535889
32,-0.12108731269836426,-2.0870437622070312,0.016998428851366043,36.7148214,3.1818556,65.11,-2.01,-3.7,-0.01,82,240,4.217981338500977,4.217938423156738
33,0.031334053725004196,-2.1152918338775635,-0.00584533391520381,36.7147933,3.1817925,64.99,-1.41,-2.42,0.29,82,238,2.8291049003601074,2.813202142715454
34,0.033414699137210846,-2.420509099960327,-0.04875985160470009,36.7147763,3.1817647,63.6,-1.15,-1.08,1.42,82,221,2.1310346126556396,1.5840284824371338
35,-0.05766039341688156,-2.463686227798462,0.01563817448914051,36.714762,3.1817506,61.31,-1.03,-0.79,1.43,81,218,1.9398854970932007,1.3053829669952393
36,-0.045674458146095276,-2.4682583808898926,-0.021971050649881363,36.7147455,3.181735,58.7,-1.06,-0.85,1.43,81,218,1.987323522567749,1.3701390027999878
37,-0.03323451802134514,-2.469489097595215,0.029083769768476486,36.7147311,3.1817206,56.45,-1.06,-0.87,1.43,80,218,1.9917188882827759,1.3768470287322998
38,-0.05891938880085945,-2.4698336124420166,0.000552796816918999,36.7147141,3.1817035,53.84,-1.06,-0.89,1.44,80,218,2.010869026184082,1.3937519788742065
39,-0.010400951839983463,-2.469057321548462,0.013369858264923096,36.7146996,3.181689,51.6,-1.07,-0.87,1.46,80,218,2.014573335647583,1.384545922279358
40,-0.05920860543847084,-2.469477891921997,-0.007043554447591305,36.714685,3.1816743,49.35,-1.07,-0.89,1.46,79,218,2.021181344985962,1.3925622701644897
41,-0.014663548208773136,-2.4698057174682617,-0.020108485594391823,36.714668,3.1816571,46.73,-1.07,-0.88,1.46,79,218,2.018857002258301,1.386368751525879
42,-0.051937591284513474,-2.470099687576294,0.021527286618947983,36.7146535,3.1816424,44.49,-1.06,-0.89,1.47,79,218,2.029529094696045,1.391624093055725
43,-0.047618087381124496,-2.4691171646118164,-0.026876287534832954,36.7146364,3.1816252,41.87,-1.07,-0.88,1.47,78,218,2.030529260635376,1.3921209573745728
44,-0.02455293759703636,-2.4693198204040527,0.026654960587620735,36.7146218,3.1816105,39.61,-1.05,-0.87,1.47,78,218,2.0151422023773193,1.3737659454345703
45,-0.0631973147392273,-2.4694488048553467,0.008008383214473724,36.7146048,3.1815934,36.99,-1.06,-0.89,1.48,78,218,2.032440185546875,1.3912341594696045
46,-0.008531762287020683,-2.4695677757263184,0.0021296204067766666,36.7145902,3.1815786,34.74,-1.06,-0.87,1.47,77,218,2.023888111114502,1.3808130025863647
47,-0.059630680829286575,-2.469618558883667,-0.0006915366975590587,36.7145756,3.1815639,32.49,-1.05,-0.88,1.47,77,218,2.0200250148773193,1.3819546699523926
48,-0.019500218331813812,-2.46946120262146,-0.02443552017211914,36.7145586,3.1815467,29.87,-1.06,-0.87,1.47,76,218,2.0246849060058594,1.3830252885818481
49,-0.059639014303684235,-2.47759747505188,0.0008298403117805719,36.714544,3.181532,27.62,-1.08,-0.87,1.47,76,218,2.0331339836120605,1.3954589366912842
50,-0.22170454263687134,2.8944506645202637,-0.12369659543037415,36.7145185,3.181524,25.38,-2.34,0.47,0.66,76,165,2.488070011138916,2.3970742225646973
51,-0.19826096296310425,2.6780097484588623,0.02149239555001259,36.7144758,3.181546,25.15,-3.77,1.86,-0.05,75,153,4.214749813079834,4.214401721954346
52,-0.14699053764343262,2.680513381958008,-0.006987646222114563,36.7144213,3.1815796,25.22,-4.06,2.01,0.05,75,153,4.535210132598877,4.534933567047119
53,-0.041187774389982224,-2.984203338623047,0.25682833790779114,36.7143618,3.1816016,25.16,-3.24,-0.48,0.03,75,189,3.2779247760772705,3.277688503265381
54,-0.45012009143829346,-2.1928586959838867,0.08458371460437775,36.7143207,3.1815603,25.15,-3.13,-4.44,0.01,74,234,5.438765048980713,5.438730239868164
55,-0.46323153376579285,-2.1579952239990234,-0.004476581234484911,36.71426,3.1814423,25.15,-4.52,-7.19,0.0,74,236,8.502546310424805,8.502543449401855
56,-0.4811651110649109,-2.1508522033691406,-0.026235809549689293,36.7141949,3.1813145,25.17,-4.95,-7.71,0.0,73,236,9.169732093811035,9.169732093811035
57,-0.27635541558265686,-2.152001142501831,0.01451040804386139,36.7141195,3.1811688,25.19,-4.39,-6.79,0.01,73,236,8.091080665588379,8.091071128845215
58,-0.27629268169403076,-2.1375677585601807,-0.005968666635453701,36.7140657,3.1810635,25.17,-3.6,-5.77,0.03,73,237,6.8108978271484375,6.8108229637146
59,-0.268595427274704,-2.109189033508301,0.03974269703030586,36.7140194,3.1809672,25.15,-3.28,-5.65,0.0,72,239,6.544951915740967,6.544947147369385
60,-0.3073756694793701,-2.0997560024261475,-0.012948906980454922,36.7139682,3.1808562,25.15,-3.23,-5.65,0.01,72,239,6.518937587738037,6.5189290046691895
61,-0.096556656062603,-2.099891185760498,0.029061367735266685,36.7139261,3.1807646,25.16,-2.81,-4.93,0.0,71,239,5.681522369384766,5.681521892547607
62,0.13048745691776276,-2.1010165214538574,0.005522616673260927,36.7138941,3.1806948,25.12,-1.04,-1.83,0.0,71,239,2.1152048110961914,2.1152031421661377
63,0.0954771339893341,-2.1002416610717773,0.0029745602514594793,36.7138882,3.1806817,25.14,0.01,0.0,0.0,71,239,0.02160819247364998,0.019307266920804977
64,-0.019219767302274704,-2.1017956733703613,0.14776287972927094,36.7138909,3.1806834,25.1,0.53,-0.21,0.0,70,239,0.5773784518241882,0.5773783922195435
