timestamp,pitch,yaw,roll,lat,lon,alt,velocity_x,velocity_y,velocity_z,battery,heading,airspeed,groundspeed
0,0.02562682330608368,-0.050477780401706696,-0.0022182187531143427,36.7156067,3.1846299,27.73,-0.02,0.02,0.11,96,357,0.12577907741069794,0.03784217685461044
1,-0.07269418239593506,-0.05829840525984764,0.09497750550508499,36.7156075,3.1846318,27.59,0.27,0.47,0.0,95,356,0.548127293586731,0.5481254458427429
2,-0.24017639458179474,1.4942100048065186,-0.13394112884998322,36.7156213,3.1846578,27.57,1.63,2.46,-0.04,95,85,2.9644832611083984,2.9640631675720215
3,-0.17454153299331665,0.8340538740158081,0.01872824691236019,36.71565,3.1847107,27.62,2.44,3.65,-0.07,95,47,4.4007391929626465,4.400161266326904
4,-0.08225539326667786,0.9527623653411865,0.02910505421459675,36.71569,3.1847841,27.69,2.4,3.53,-0.05,94,54,4.277388572692871,4.277087688446045
5,0.3349224328994751,0.9624263644218445,-0.025200383737683296,36.7157131,3.1848252,27.71,0.5,0.72,0.0,94,55,0.8860642910003662,0.8860579133033752
6,0.11571058630943298,-0.11780638247728348,-0.1794201135635376,36.7157023,3.1848048,27.73,-1.88,-2.71,-0.04,93,353,3.304917097091675,3.3046114444732666
7,-0.16124896705150604,-1.9909532070159912,-0.01269425917416811,36.7156681,3.184743,27.76,-2.28,-3.26,0.01,93,245,3.98654842376709,3.9865238666534424
8,0.004448476247489452,-1.9250352382659912,0.1113659143447876,36.7156426,3.1846879,27.74,-1.18,-3.11,0.01,93,249,3.332843780517578,3.332815647125244
9,-0.33968856930732727,-0.6785351037979126,0.13384675979614258,36.7156541,3.184631,27.72,2.94,-2.87,0.0,92,321,4.11135196685791,4.11135196685791
10,-0.4922325313091278,-0.6076998114585876,-0.028576258569955826,36.7157161,3.1845729,27.73,6.03,-4.21,0.0,92,325,7.359580039978027,7.359580039978027
11,-0.49384281039237976,-0.6156479120254517,0.024153605103492737,36.7158273,3.1844764,27.74,7.73,-5.4,0.0,91,324,9.44176197052002,9.441758155822754
12,-0.42228519916534424,-0.6213085651397705,-0.021726807579398155,36.7159334,3.184383,27.76,7.82,-5.54,0.0,91,324,9.588736534118652,9.588732719421387
13,-0.2285824865102768,-0.6247764825820923,-0.006703059189021587,36.7160323,3.184295,27.8,6.47,-4.62,0.0,91,324,7.959585189819336,7.959583759307861
14,0.09247677773237228,-0.8548542261123657,-0.21187761425971985,36.7161082,3.1842225,27.82,2.64,-2.97,-0.1,90,311,3.9801087379455566,3.9788506031036377
15,-0.34476688504219055,-2.061755418777466,-0.10712485015392303,36.7161144,3.1841712,28.39,-1.67,-3.61,-0.66,90,241,4.042098045349121,3.9873502254486084
16,-0.4863601326942444,-2.173328161239624,-0.025078285485506058,36.716062,3.1840743,30.23,-4.54,-6.45,-1.34,89,235,8.00469970703125,7.891483306884766
17,-0.5050428509712219,-2.1651604175567627,0.007872316054999828,36.7159925,3.1839508,32.52,-5.45,-7.87,-1.59,89,235,9.715621948242188,9.582998275756836
18,-0.43460386991500854,-2.165468454360962,0.03260184824466705,36.7159173,3.1838142,35.0,-5.52,-8.13,-1.58,88,235,9.959662437438965,9.832393646240234
19,-0.4829551875591278,-2.1623928546905518,-0.02422584407031536,36.7158299,3.183652,37.87,-5.54,-8.25,-1.58,88,236,10.06995677947998,9.944321632385254
20,-0.4758158028125763,-2.166781187057495,0.03330077603459358,36.7157548,3.1835126,40.33,-5.54,-8.24,-1.6,87,235,10.062028884887695,9.932963371276855
21,-0.4343917667865753,-2.1668202877044678,-0.014416106976568699,36.7156673,3.1833498,43.24,-5.52,-8.28,-1.61,87,235,10.083333015441895,9.953431129455566
22,-0.48967328667640686,-2.164379119873047,-0.01623949594795704,36.7155928,3.1832103,45.74,-5.5,-8.27,-1.6,87,236,10.06927490234375,9.939970970153809
23,-0.4268479645252228,-2.1633834838867188,0.01975647360086441,36.7155058,3.1830472,48.64,-5.52,-8.28,-1.62,86,236,10.091299057006836,9.958942413330078
24,-0.44107988476753235,-2.166374921798706,-0.021369805559515953,36.7154307,3.1829076,51.14,-5.52,-8.28,-1.63,86,235,10.093996047973633,9.960529327392578
25,-0.49580541253089905,-2.165998697280884,-0.0016223202692344785,36.7153561,3.1827681,53.65,-5.51,-8.32,-1.62,85,235,10.110970497131348,9.979432106018066
26,-0.426794171333313,-2.1628613471984863,0.02886619232594967,36.7152689,3.1826046,56.57,-5.5,-8.29,-1.63,85,236,10.09096908569336,9.957999229431152
27,-0.4525386691093445,-2.1648497581481934,-0.030940935015678406,36.7151942,3.1824647,59.06,-5.52,-8.28,-1.63,84,235,10.09022331237793,9.956392288208008
28,-0.47176072001457214,-2.165235996246338,0.035072069615125656,36.7151068,3.1823017,61.99,-5.52,-8.28,-1.64,84,235,10.087169647216797,9.952627182006836
29,-0.29916688799858093,-2.166252851486206,-0.0001481322688050568,36.7150335,3.1821651,64.45,-5.14,-7.67,-1.52,83,235,9.365943908691406,9.240869522094727
30,-0.09189195185899734,-2.1666817665100098,-0.018792355433106422,36.714973,3.1820525,66.47,-3.62,-5.42,-1.0,83,235,6.598068714141846,6.5209245681762695
31,-0.1063719391822815,-2.123775005340576,0.011061925441026688,36.7149287,3.1819663,67.56,-2.24,-3.71,-0.28,83,238,4.35266637802124,4.343419551849365
32,-0.1757935881614685,-2.088183641433716,0.0009426709730178118,36.7149005,3.1819046,67.72,-2.01,-3.66,-0.01,82,240,4.180112838745117,4.1800737380981445
33,-0.040970493108034134,-2.087385416030884,-0.02290748991072178,36.714869,3.1818335,67.71,-1.86,-3.42,-0.02,82,240,3.8990092277526855,3.8989243507385254
34,0.028213251382112503,-2.1858904361724854,-0.025739243254065514,36.7148481,3.1817884,67.35,-1.25,-1.85,0.67,82,234,2.3382322788238525,2.238737106323242
35,0.015842841938138008,-2.4778645038604736,-0.03404628857970238,36.7148322,3.181767,65.44,-1.06,-0.86,1.5,81,218,2.0360517501831055,1.3749535083770752
36,-0.01969200186431408,-2.4714419841766357,0.023297922685742378,36.7148158,3.1817516,62.81,-1.04,-0.8,1.42,81,218,1.9425994157791138,1.3183271884918213
37,-0.04926962032914162,-2.4699625968933105,-0.02040586806833744,36.7148015,3.1817379,60.57,-1.05,-0.86,1.44,80,218,1.985809564590454,1.3626595735549927
38,-0.010220494121313095,-2.4704995155334473,-0.003928007557988167,36.7147847,3.1817211,57.94,-1.06,-0.87,1.44,80,218,2.000499725341797,1.3837311267852783
39,-0.06262362003326416,-2.4696238040924072,-0.003121863352134824,36.7147702,3.1817065,55.7,-1.06,-0.88,1.45,80,218,2.0079543590545654,1.3875627517700195
40,-0.007226107642054558,-2.469940423965454,0.0043480065651237965,36.7147556,3.1816919,53.47,-1.07,-0.88,1.46,79,218,2.023087501525879,1.3962740898132324
41,-0.04521149396896362,-2.4698455333709717,0.021721158176660538,36.7147386,3.1816747,50.85,-1.06,-0.88,1.47,79,218,2.0215752124786377,1.3852508068084717
42,-0.023176811635494232,-2.470367431640625,-0.022605881094932556,36.714724,3.1816601,48.6,-1.07,-0.89,1.47,79,218,2.0297698974609375,1.397951602935791
43,-0.015536300837993622,-2.469479560852051,0.019383223727345467,36.714707,3.1816429,45.98,-1.06,-0.88,1.47,78,218,2.0258944034576416,1.384681224822998
44,-0.05451264604926109,-2.469586133956909,-0.016236839815974236,36.7146924,3.1816282,43.73,-1.06,-0.88,1.48,78,218,2.0282957553863525,1.3854477405548096
45,-0.015586921013891697,-2.469966173171997,-0.013150605373084545,36.7146755,3.1816111,41.1,-1.07,-0.88,1.47,78,218,2.0266401767730713,1.3876739740371704
46,-0.05913517251610756,-2.4702255725860596,0.013579964637756348,36.7146608,3.1815963,38.86,-1.06,-0.89,1.48,77,218,2.032487630844116,1.3906047344207764
47,-0.011526974849402905,-2.469881772994995,-0.0036588693037629128,36.7146463,3.1815816,36.61,-1.06,-0.88,1.48,77,218,2.0290846824645996,1.3866509199142456
48,-0.04317769035696983,-2.469813823699951,0.02809460461139679,36.7146293,3.1815644,33.98,-1.06,-0.88,1.47,76,218,2.0232813358306885,1.3838740587234497
49,-0.02892601490020752,-2.470045566558838,-0.02486877515912056,36.7146147,3.1815498,31.73,-1.06,-0.89,1.47,76,218,2.029083490371704,1.3926310539245605
50,-0.05491958186030388,-2.749957799911499,-0.0749252438545227,36.7145965,3.1815334,29.12,-1.46,-0.61,1.4,76,202,2.1200053691864014,1.5888519287109375
51,-0.271707147359848,2.7119293212890625,-0.06236795708537102,36.7145677,3.1815361,27.76,-2.95,1.15,0.22,75,155,3.175525665283203,3.167675495147705
52,-0.15369915962219238,2.6793880462646484,-0.025576967746019363,36.71451,3.1815701,27.81,-4.06,2.02,-0.04,75,153,4.48067045211792,4.480185508728027
53,-0.08054932951927185,2.7724506855010986,0.1253042072057724,36.7144552,3.1816025,27.79,-3.84,1.43,0.06,75,158,4.10690975189209,4.106407165527344
54,-0.21749889850616455,-2.553378105163574,0.23491887748241425,36.7144088,3.1816033,27.75,-2.94,-1.81,0.03,74,213,3.463770866394043,3.4636311531066895
55,-0.47720277309417725,-2.147123336791992,0.04323137179017067,36.7143587,3.1815247,27.75,-3.74,-5.96,0.02,74,236,7.046140193939209,7.046103477478027
56,-0.44575566053390503,-2.149477958679199,-0.014002829790115356,36.7143002,3.181409,27.76,-4.75,-7.51,0.0,73,236,8.893821716308594,8.893819808959961
57,-0.4068089723587036,-2.1502785682678223,0.014113008044660091,36.7142227,3.1812579,27.77,-4.86,-7.54,0.0,73,236,8.977794647216797,8.977791786193848
58,-0.2339983433485031,-2.1492316722869873,0.010066323913633823,36.7141614,3.1811398,27.78,-4.13,-6.4,0.02,73,236,7.626461982727051,7.626419544219971
59,-0.29764896631240845,-2.127781391143799,-0.0016238458920270205,36.7141108,3.1810393,27.76,-3.46,-5.71,0.02,72,238,6.6871018409729,6.687052249908447
60,-0.2485918551683426,-2.10250186920166,0.006243730895221233,36.7140584,3.1809279,27.75,-3.23,-5.63,0.0,72,239,6.498472690582275,6.498468399047852
61,-0.276024729013443,-2.099966287612915,-0.011464154347777367,36.7140147,3.1808327,27.75,-3.2,-5.63,0.0,71,239,6.487502574920654,6.487501621246338
62,0.06941331177949905,-2.101104736328125,-0.02015766315162182,36.7139698,3.180735,27.75,-2.2,-3.86,0.03,71,239,4.453261852264404,4.453132152557373
63,0.11968065798282623,-2.1006739139556885,0.012115881778299809,36.7139513,3.1806944,27.73,-0.57,-1.02,-0.02,71,239,1.1767672300338745,1.1765846014022827
64,0.043757613748311996,-2.100581169128418,-0.00919079314917326,36.7139494,3.1806898,27.74,0.11,0.16,0.0,70,239,0.1997464895248413,0.19958214461803436
