timestamp,pitch,yaw,roll,lat,lon,alt,velocity_x,velocity_y,velocity_z,battery,heading,airspeed,groundspeed
0,-0.022043827921152115,0.03961674124002457,-0.006482664495706558,36.7156066,3.18463,25.77,-0.01,0.02,0.03,96,2,0.04560316354036331,0.03252474218606949
1,-0.07095462083816528,0.04627807065844536,0.049796853214502335,36.7156086,3.1846323,25.79,0.47,0.47,0.0,95,2,0.6712515950202942,0.6711981296539307
2,-0.23640839755535126,1.0471323728561401,-0.0372498519718647,36.7156246,3.1846515,25.75,2.03,2.0,-0.03,95,59,2.854052782058716,2.853839874267578
3,-0.22244203090667725,0.7875800132751465,-0.03825945779681206,36.7156609,3.1846959,25.79,3.18,3.06,-0.05,95,45,4.422303199768066,4.421921730041504
4,-0.06966374814510345,0.7618486285209656,0.01346966065466404,36.715713,3.1847576,25.83,3.19,3.0,-0.03,94,43,4.385652542114258,4.385500431060791
5,0.27537772059440613,0.6074652671813965,-0.08526799827814102,36.7157457,3.1847934,25.85,1.08,0.69,0.0,94,34,1.2884422540664673,1.288438081741333
6,-0.12757566571235657,-1.2861560583114624,-0.2157321721315384,36.7157349,3.1847659,25.87,-2.05,-2.97,-0.04,93,286,3.610059976577759,3.6098270416259766
7,-0.13076163828372955,-2.424396276473999,0.061957720667123795,36.7157043,3.1847112,25.89,-2.29,-3.3,0.01,93,221,4.026607036590576,4.026590824127197
8,-0.034314170479774475,-1.8656030893325806,0.1762564331293106,36.7156757,3.1846469,25.87,-0.78,-3.04,0.01,93,253,3.144725799560547,3.1446852684020996
9,-0.32944783568382263,-0.6917798519134521,0.1294986754655838,36.7156893,3.1845986,25.86,2.97,-2.89,0.0,92,320,4.153357028961182,4.153356075286865
10,-0.5033902525901794,-0.6102415323257446,-0.024210326373577118,36.7157516,3.1845401,25.86,6.05,-4.22,0.01,92,325,7.3887786865234375,7.388770580291748
11,-0.4887648820877075,-0.6181995272636414,0.02732161059975624,36.7158632,3.1844431,25.88,7.75,-5.41,0.0,91,324,9.460644721984863,9.460644721984863
12,-0.4303991496562958,-0.6209368705749512,-0.025793468579649925,36.7159693,3.1843501,25.9,7.83,-5.55,0.0,91,324,9.597749710083008,9.597749710083008
13,-0.15934695303440094,-0.6250647902488708,0.023626023903489113,36.7160826,3.1842494,25.93,6.06,-4.34,0.02,91,324,7.460789203643799,7.46075439453125
14,0.10293999314308167,-0.8627961874008179,-0.2076829969882965,36.7161437,3.1841895,25.95,2.58,-2.97,-0.1,90,310,3.9489364624023438,3.9476327896118164
15,-0.33743730187416077,-2.121194839477539,-0.07440753281116486,36.7161449,3.1841277,26.72,-2.28,-3.95,-0.77,90,238,4.632286071777344,4.566944122314453
16,-0.4679689109325409,-2.1726555824279785,-0.026707980781793594,36.7160966,3.184041,28.37,-4.54,-6.47,-1.34,89,235,8.02486801147461,7.910706520080566
17,-0.5059181451797485,-2.1648521423339844,-0.003557405900210142,36.7160274,3.1839174,30.68,-5.45,-7.9,-1.59,89,235,9.742363929748535,9.610754013061523
18,-0.43638890981674194,-2.16475248336792,0.018162138760089874,36.7159398,3.183758,33.56,-5.55,-8.15,-1.57,88,235,9.989903450012207,9.864622116088867
19,-0.45045992732048035,-2.1638894081115723,-0.03342722728848457,36.7158646,3.1836187,36.01,-5.56,-8.26,-1.58,88,236,10.087747573852539,9.962458610534668
20,-0.4657154083251953,-2.1647684574127197,0.03756481036543846,36.7157768,3.1834557,38.89,-5.52,-8.24,-1.6,87,235,10.055755615234375,9.926342010498047
21,-0.4284936487674713,-2.1625585556030273,0.015202336944639683,36.7157024,3.1833167,41.38,-5.5,-8.27,-1.61,87,236,10.067176818847656,9.937564849853516
22,-0.4485633373260498,-2.1662919521331787,-0.0192573182284832,36.7156276,3.1831771,43.88,-5.54,-8.28,-1.61,87,235,10.101110458374023,9.971234321594238
23,-0.4733125567436218,-2.164837598800659,0.04030292481184006,36.7155402,3.1830138,46.78,-5.51,-8.28,-1.63,86,235,10.08057689666748,9.947648048400879
24,-0.425220787525177,-2.1647350788116455,0.02133239060640335,36.7154654,3.1828741,49.28,-5.5,-8.27,-1.63,86,235,10.068739891052246,9.935035705566406
25,-0.4929896891117096,-2.164247989654541,-0.011530502699315548,36.7153787,3.1827117,52.21,-5.51,-8.32,-1.62,85,236,10.119433403015137,9.988142013549805
26,-0.48050159215927124,-2.1641902923583984,0.020791059359908104,36.7153038,3.1825712,54.71,-5.52,-8.3,-1.63,85,236,10.112698554992676,9.979283332824707
27,-0.42920297384262085,-2.165036916732788,0.03393091261386871,36.7152287,3.1824314,57.21,-5.51,-8.27,-1.64,84,235,10.076876640319824,9.941893577575684
28,-0.48144280910491943,-2.1633710861206055,-0.03270716965198517,36.7151418,3.1822685,60.14,-5.51,-8.3,-1.63,84,236,10.099371910095215,9.966743469238281
29,-0.34663957357406616,-2.1678707599639893,0.0282464399933815,36.7150684,3.1821318,62.59,-5.16,-7.65,-1.52,83,235,9.357955932617188,9.233078956604004
30,-0.06897883862257004,-2.16597843170166,-0.018054325133562088,36.7150002,3.1820046,64.85,-3.34,-5.03,-0.87,83,235,6.108358860015869,6.045515537261963
31,-0.15146653354167938,-2.1249771118164062,0.043029651045799255,36.7149636,3.1819334,65.7,-2.23,-3.7,-0.27,83,238,4.3388991355896,4.330148696899414
32,-0.11673077195882797,-2.088444232940674,-0.0003359108231961727,36.7149353,3.1818718,65.85,-2.0,-3.67,-0.01,82,240,4.180901050567627,4.180874824523926
33,-0.05114060640335083,-2.087761163711548,0.0293255802243948,36.7149041,3.1818007,65.84,-1.84,-3.41,-0.02,82,240,3.8801887035369873,3.8801167011260986
34,0.05242510885000229,-2.1891582012176514,-0.06616243720054626,36.7148832,3.1817559,65.47,-1.25,-1.85,0.68,82,234,2.3377633094787598,2.236304759979248
35,-0.005500426050275564,-2.4864821434020996,0.020128801465034485,36.714865,3.1817323,63.17,-1.03,-0.81,1.48,81,217,1.9851828813552856,1.3210690021514893
36,-0.048811957240104675,-2.471409320831299,-0.017934905365109444,36.7148509,3.1817192,60.92,-1.04,-0.81,1.42,81,218,1.9440449476242065,1.322460651397705
37,-0.010473694652318954,-2.4697105884552,0.004880745429545641,36.7148344,3.1817031,58.31,-1.05,-0.87,1.44,80,218,1.9885766506195068,1.3705133199691772
38,-0.06049852445721626,-2.4699790477752686,-0.0007404822972603142,36.71482,3.1816885,56.06,-1.08,-0.89,1.44,80,218,2.013953447341919,1.404416799545288
39,-0.014033257029950619,-2.4690728187561035,0.022821901366114616,36.7148052,3.1816739,53.82,-1.08,-0.87,1.45,80,218,2.012000799179077,1.3929901123046875
40,-0.055340640246868134,-2.4700536727905273,0.023214424028992653,36.7147883,3.1816568,51.21,-1.06,-0.87,1.46,79,218,2.0138585567474365,1.3817543983459473
41,-0.01325947418808937,-2.4693870544433594,-0.00903136283159256,36.7147738,3.1816421,48.96,-1.07,-0.88,1.46,79,218,2.021348476409912,1.3907437324523926
42,-0.028998902067542076,-2.469822883605957,0.029481641948223114,36.7147567,3.1816249,46.34,-1.06,-0.88,1.47,79,218,2.023423194885254,1.3859573602676392
43,-0.03000740520656109,-2.4696197509765625,-0.022954102605581284,36.7147421,3.1816103,44.1,-1.07,-0.88,1.47,78,218,2.0303449630737305,1.3933347463607788
44,-0.01575743965804577,-2.4692025184631348,0.022716538980603218,36.714725,3.1815931,41.46,-1.06,-0.88,1.47,78,218,2.0202248096466064,1.3817696571350098
45,-0.05135319009423256,-2.4691474437713623,-0.01893567107617855,36.7147105,3.1815784,39.21,-1.05,-0.87,1.47,78,218,2.0110998153686523,1.3714998960494995
46,-0.023218121379613876,-2.4695746898651123,0.024934733286499977,36.714696,3.1815637,36.97,-1.05,-0.88,1.48,77,218,2.025804042816162,1.3823415040969849
47,-0.06228074058890343,-2.4696595668792725,0.0054170601069927216,36.7146789,3.1815464,34.34,-1.07,-0.87,1.47,77,218,2.0244271755218506,1.3852843046188354
48,-0.010030739940702915,-2.469179153442383,0.011025764979422092,36.7146643,3.1815318,32.09,-1.06,-0.87,1.47,76,218,2.0154833793640137,1.3747106790542603
49,-0.05191647261381149,-2.4694182872772217,0.024547245353460312,36.7146473,3.1815146,29.47,-1.04,-0.88,1.47,76,218,2.0180437564849854,1.3723618984222412
50,-0.06004761531949043,-2.755552053451538,-0.10263050347566605,36.7146315,3.1815008,27.24,-1.47,-0.61,1.39,76,202,2.121558427810669,1.5952491760253906
51,-0.26621636748313904,2.709115743637085,-0.029778078198432922,36.7146026,3.1815036,25.89,-2.94,1.16,0.21,75,155,3.17097806930542,3.1636645793914795
52,-0.1780579835176468,2.6792104244232178,-0.02939772419631481,36.7145448,3.1815379,25.94,-4.05,2.02,-0.04,75,153,4.536777019500732,4.5365753173828125
53,-0.07105250656604767,2.7762842178344727,0.1374683529138565,36.7144902,3.1815701,25.92,-3.82,1.41,0.06,75,159,4.082010746002197,4.081483364105225
54,-0.34281226992607117,-2.3619112968444824,0.1694696992635727,36.7144371,3.1815645,25.88,-2.94,-2.55,0.02,74,224,3.8951518535614014,3.89506459236145
55,-0.463186115026474,-2.147041082382202,0.041635431349277496,36.7143934,3.1814912,25.88,-3.76,-5.98,0.02,74,236,7.068521499633789,7.068492889404297
56,-0.4553702473640442,-2.1505041122436523,-0.00867445394396782,36.7143348,3.1813755,25.89,-4.77,-7.54,0.0,73,236,8.926918029785156,8.92691707611084
57,-0.41202065348625183,-2.1515891551971436,0.013845250010490417,36.7142574,3.1812246,25.9,-4.86,-7.54,0.0,73,236,8.976495742797852,8.976495742797852
58,-0.24069975316524506,-2.1497273445129395,0.015883363783359528,36.7141961,3.1811062,25.91,-4.15,-6.43,0.02,73,236,7.662039279937744,7.662003517150879
59,-0.2972753942012787,-2.1278982162475586,0.031591352075338364,36.7141372,3.1809896,25.88,-3.44,-5.68,0.02,72,238,6.644070148468018,6.644032955169678
60,-0.2519954741001129,-2.1103808879852295,0.013524981215596199,36.7140921,3.1808946,25.88,-3.27,-5.63,0.0,72,239,6.514357566833496,6.514352798461914
61,-0.26619845628738403,-2.108226776123047,-0.022556614130735397,36.7140477,3.1807994,25.88,-3.27,-5.63,0.0,71,239,6.51510763168335,6.515105247497559
62,-0.0011388363782316446,-2.1089067459106445,0.030732352286577225,36.7140073,3.1807133,25.88,-2.48,-4.25,0.02,71,239,4.922797679901123,4.922735691070557
63,0.1161702573299408,-2.1085705757141113,-0.003771948628127575,36.7139832,3.1806619,25.86,-0.57,-1.0,-0.02,71,239,1.1584783792495728,1.1582872867584229
64,0.017316261306405067,-2.1094086170196533,-0.01969960331916809,36.7139815,3.1806579,25.87,0.11,0.15,0.02,70,239,0.19234812259674072,0.19062817096710205
