timestamp,pitch,yaw,roll,lat,lon,alt,velocity_x,velocity_y,velocity_z,battery,heading,airspeed,groundspeed
0,0.030415767803788185,-0.02404850721359253,-0.0013913027942180634,36.7156067,3.1846299,17.96,-0.03,0.02,0.0,96,358,0.04218439385294914,0.04218074679374695
1,-0.09771529585123062,0.06094648689031601,0.1354895979166031,36.7156092,3.1846335,17.99,0.61,0.7,0.0,95,3,0.9322561025619507,0.9322270154953003
2,-0.2376731038093567,1.1664540767669678,-0.09150459617376328,36.7156281,3.1846593,17.95,2.23,2.4,-0.02,95,66,3.2853169441223145,3.285191774368286
3,-0.12878818809986115,0.8411159515380859,-0.002086277585476637,36.7156643,3.1847072,17.99,2.92,3.07,-0.03,95,48,4.2469611167907715,4.246842384338379
4,0.06573018431663513,0.8040050864219666,0.01150148268789053,36.7157085,3.1847646,18.01,2.26,2.31,0.0,94,46,3.234982490539551,3.2349698543548584
5,0.2010216861963272,-0.10897885262966156,-0.3247484266757965,36.7157215,3.1847759,18.0,-0.7,-1.32,0.0,94,353,1.5013986825942993,1.5013906955718994
6,-0.1572841852903366,-1.670418620109558,-0.05674557015299797,36.715699,3.1847332,18.04,-2.3,-3.24,-0.02,93,264,3.9767866134643555,3.9767274856567383
7,-0.11971434950828552,-2.0800957679748535,0.049316711723804474,36.7156635,3.184668,18.03,-2.08,-3.29,0.01,93,240,3.899481773376465,3.899447202682495
8,-0.04988422617316246,-1.4340097904205322,0.26393604278564453,36.715649,3.1846149,18.01,0.39,-2.83,0.01,93,277,2.8673255443573,2.8673064708709717
9,-0.44772106409072876,-0.6475042104721069,0.08222801238298416,36.7156907,3.1845567,18.01,4.74,-3.39,0.0,92,322,5.8380022048950195,5.838001728057861
10,-0.48280394077301025,-0.6247884035110474,0.0016551063163205981,36.715772,3.1844862,18.02,7.08,-4.85,0.0,92,324,8.59057903289795,8.590575218200684
11,-0.513495683670044,-0.616635262966156,0.007554098032414913,36.7158925,3.1843822,18.03,7.91,-5.53,0.0,91,324,9.655853271484375,9.655853271484375
12,-0.3222912549972534,-0.6192488670349121,0.01665665954351425,36.715998,3.1842894,18.06,7.37,-5.2,-0.02,91,324,9.029976844787598,9.02994155883789
13,-0.038997333496809006,-0.6270378232002258,-0.058030325919389725,36.716085,3.1842125,18.07,5.12,-3.69,0.04,91,324,6.315237998962402,6.315073013305664
14,-0.06183712184429169,-1.4380284547805786,-0.29871049523353577,36.7161314,3.1841514,18.28,0.41,-2.94,-0.35,90,277,2.9900102615356445,2.9694364070892334
15,-0.43902525305747986,-2.1338210105895996,-0.058160241693258286,36.7161104,3.1840899,19.31,-3.22,-4.68,-0.97,90,237,5.77056884765625,5.686829090118408
16,-0.4523887634277344,-2.1630473136901855,-0.008807424455881119,36.7160418,3.183969,21.61,-5.14,-7.36,-1.51,89,236,9.108814239501953,8.982073783874512
17,-0.4657136797904968,-2.1625826358795166,-0.030663341283798218,36.7159683,3.1838367,24.05,-5.54,-8.07,-1.59,89,236,9.92212200164795,9.793715476989746
18,-0.4842813014984131,-2.1648192405700684,0.026330342516303062,36.7158929,3.1836984,26.49,-5.55,-8.21,-1.58,88,235,10.045472145080566,9.919612884521484
19,-0.42978066205978394,-2.1641011238098145,-0.015043163672089577,36.7158049,3.1835356,29.36,-5.52,-8.25,-1.6,88,236,10.063764572143555,9.934828758239746
20,-0.4851020574569702,-2.1637470722198486,-0.017965059727430344,36.7157303,3.1833964,31.85,-5.5,-8.27,-1.59,88,236,10.066654205322266,9.93875503540039
21,-0.433292418718338,-2.162705183029175,0.02773132547736168,36.7156434,3.1832337,34.75,-5.51,-8.25,-1.61,87,236,10.052499771118164,9.921686172485352
22,-0.4332708716392517,-2.163874864578247,-0.02226088009774685,36.7155685,3.1830939,37.24,-5.52,-8.27,-1.62,87,236,10.083235740661621,9.95063591003418
23,-0.48370879888534546,-2.1663269996643066,0.03566534072160721,36.7154812,3.1829312,40.16,-5.5,-8.27,-1.63,86,235,10.072306632995605,9.939220428466797
24,-0.43269073963165283,-2.1628313064575195,0.021138643845915794,36.7154067,3.1827915,42.66,-5.5,-8.3,-1.63,86,236,10.102768898010254,9.969833374023438
25,-0.4455311596393585,-2.1648120880126953,-0.024568282067775726,36.715332,3.1826515,45.16,-5.51,-8.26,-1.63,85,235,10.076129913330078,9.942214012145996
26,-0.48825815320014954,-2.165552854537964,0.029389560222625732,36.7152446,3.1824884,48.08,-5.53,-8.28,-1.64,85,235,10.096312522888184,9.962167739868164
27,-0.4271811246871948,-2.164778709411621,0.01792779564857483,36.7151699,3.1823487,50.59,-5.51,-8.3,-1.64,84,235,10.10628890991211,9.971973419189453
28,-0.44847941398620605,-2.1628425121307373,-0.01446673832833767,36.7150829,3.1821855,53.51,-5.46,-8.19,-1.62,84,236,9.98629379272461,9.852703094482422
29,-0.19932787120342255,-2.1687891483306885,0.03595314547419548,36.7150137,3.1820577,55.83,-4.53,-6.71,-1.34,83,235,8.213129997253418,8.102011680603027
30,-0.09087512642145157,-2.1552295684814453,0.00038685742765665054,36.714958,3.1819527,57.53,-2.68,-4.18,-0.54,83,236,5.001963138580322,4.9723405838012695
31,-0.12169738113880157,-2.112208604812622,0.035769786685705185,36.7149264,3.1818884,57.97,-2.16,-3.68,-0.1,83,238,4.272420406341553,4.271147727966309
32,-0.16445648670196533,-2.1018638610839844,-0.01948436349630356,36.714898,3.1818269,57.99,-2.06,-3.68,0.0,82,239,4.224730968475342,4.224719524383545
33,0.04557643458247185,-2.1111061573028564,-0.015959706157445908,36.7148678,3.1817611,57.94,-1.58,-2.72,0.16,82,239,3.155597448348999,3.151301622390747
34,-0.0064425114542245865,-2.367750883102417,-0.04107259586453438,36.7148496,3.181729,56.87,-1.17,-1.26,1.28,82,224,2.1538400650024414,1.7268458604812622
35,-0.016588088124990463,-2.464437246322632,-0.02063518762588501,36.7148326,3.1817115,54.24,-1.03,-0.79,1.43,81,218,1.940770149230957,1.3049839735031128
36,-0.0503578819334507,-2.470080852508545,0.02889627404510975,36.7148185,3.1816982,52.0,-1.04,-0.83,1.43,81,218,1.9597749710083008,1.3345381021499634
37,-0.020516131073236465,-2.4704678058624268,-0.019382795318961143,36.7148042,3.1816841,49.76,-1.06,-0.88,1.44,81,218,1.9996412992477417,1.3860944509506226
38,-0.016956808045506477,-2.469848155975342,0.023915721103549004,36.7147873,3.181667,47.15,-1.06,-0.88,1.45,80,218,2.0105838775634766,1.3862398862838745
39,-0.041572850197553635,-2.4696145057678223,-0.022427765652537346,36.7147727,3.1816524,44.9,-1.07,-0.89,1.46,80,218,2.0198450088500977,1.3940913677215576
40,-0.01050645112991333,-2.4698455333709717,-0.0064947837963700294,36.7147558,3.1816354,42.28,-1.07,-0.89,1.46,79,218,2.022197723388672,1.3951679468154907
41,-0.05766119062900543,-2.469857931137085,0.004340653773397207,36.7147411,3.1816206,40.04,-1.06,-0.89,1.47,79,218,2.027998685836792,1.3924000263214111
42,-0.03494363650679588,-2.470249891281128,-0.02298160269856453,36.7147241,3.1816035,37.42,-1.07,-0.88,1.47,79,218,2.0300493240356445,1.3920557498931885
43,-0.04053134098649025,-2.4699549674987793,0.024744804948568344,36.7147096,3.1815888,35.17,-1.06,-0.88,1.47,78,218,2.0227627754211426,1.3850536346435547
44,-0.024740096181631088,-2.470052480697632,-0.02322557382285595,36.714695,3.1815741,32.92,-1.07,-0.88,1.48,78,218,2.032790184020996,1.3933792114257812
45,-0.012299111112952232,-2.4696097373962402,0.01850360818207264,36.7146779,3.1815568,30.3,-1.06,-0.88,1.48,78,218,2.0292999744415283,1.3871684074401855
46,-0.05527574568986893,-2.4698967933654785,-0.017686977982521057,36.7146634,3.1815422,28.04,-1.07,-0.88,1.47,77,218,2.0265231132507324,1.3911213874816895
47,-0.011020555160939693,-2.470053195953369,-0.013707078993320465,36.7146464,3.181525,25.42,-1.06,-0.88,1.47,77,218,2.0242836475372314,1.3865684270858765
48,-0.0571582168340683,-2.469740390777588,0.007368975784629583,36.7146317,3.1815103,23.17,-1.06,-0.88,1.48,77,218,2.0270187854766846,1.3841276168823242
49,-0.009046406485140324,-2.4701197147369385,-0.004662495572119951,36.7146172,3.1814956,20.92,-1.07,-0.86,1.47,76,218,2.0207910537719727,1.377711534500122
50,-0.1594454050064087,3.0468053817749023,-0.08311688899993896,36.7145946,3.181484,18.5,-2.06,0.08,0.94,76,174,2.2705800533294678,2.0636074542999268
51,-0.2257491797208786,2.6686336994171143,-0.03905613720417023,36.7145557,3.1815016,18.02,-3.57,1.77,-0.05,75,152,3.988970994949341,3.988602638244629
52,-0.11355166137218475,2.6739447116851807,0.03008863888680935,36.7144937,3.1815404,18.1,-3.97,2.01,0.04,75,153,4.460948944091797,4.460692882537842
53,-0.0603594034910202,3.109539270401001,0.20812642574310303,36.7144426,3.1815624,18.04,-3.41,0.1,0.04,75,178,3.4121205806732178,3.4118261337280273
54,-0.39624136686325073,-2.1879892349243164,0.06978396326303482,36.7143939,3.1815202,18.03,-3.14,-4.44,0.01,74,234,5.449422359466553,5.449398517608643
55,-0.5173362493515015,-2.156111240386963,0.008177387528121471,36.714343,3.1814216,18.03,-4.37,-6.97,0.01,74,236,8.23652172088623,8.236513137817383
56,-0.4537283480167389,-2.1493663787841797,0.031749654561281204,36.7142794,3.181296,18.04,-4.93,-7.73,0.0,73,236,9.171669960021973,9.171669960021973
57,-0.3335590660572052,-2.153306245803833,-0.017588797956705093,36.7142027,3.1811479,18.06,-4.55,-6.99,0.0,73,236,8.348511695861816,8.348511695861816
58,-0.2448427975177765,-2.1435184478759766,0.04416368156671524,36.7141467,3.1810394,18.05,-3.69,-5.86,0.02,73,237,6.9307637214660645,6.930709362030029
59,-0.2957632839679718,-2.116030216217041,-0.009695750661194324,36.7140919,3.1809271,18.03,-3.33,-5.65,0.0,72,238,6.563931465148926,6.563928127288818
60,-0.27836063504219055,-2.1084330081939697,0.03295690193772316,36.7140473,3.1808321,18.03,-3.28,-5.64,0.0,72,239,6.530503749847412,6.530498504638672
61,-0.13396130502223969,-2.109050750732422,-0.021532753482460976,36.7140036,3.1807387,18.03,-3.01,-5.15,0.0,71,239,5.968214988708496,5.968214511871338
62,0.18317826092243195,-2.109570026397705,0.01486427802592516,36.7139673,3.1806614,18.0,-1.33,-2.29,0.01,71,239,2.657426118850708,2.6573617458343506
63,0.07049737870693207,-2.108919620513916,-0.01654706336557865,36.7139587,3.1806429,18.02,-0.09,-0.17,-0.01,71,239,0.19888965785503387,0.19826555252075195
64,0.015466911718249321,-2.1081314086914062,0.07288726419210434,36.7139604,3.1806443,17.99,0.35,-0.05,0.02,70,239,0.3548228144645691,0.3538503050804138
