timestamp,pitch,yaw,roll,lat,lon,alt,velocity_x,velocity_y,velocity_z,battery,heading,airspeed,groundspeed
0,0.024140963330864906,0.03997694328427315,-0.015825627371668816,36.7156067,3.1846301,24.79,-0.02,0.01,-0.06,96,2,0.07021185010671616,0.033361952751874924
1,-0.07373186945915222,0.0727819949388504,0.11969467997550964,36.7156086,3.1846327,24.85,0.47,0.59,-0.06,95,4,0.7636989951133728,0.7605727910995483
2,-0.2633368968963623,1.2086118459701538,-0.0790027603507042,36.7156247,3.1846561,24.88,1.99,2.36,-0.08,95,69,3.100289821624756,3.0992259979248047
3,-0.17779703438282013,0.8928114771842957,-0.041611675173044205,36.7156653,3.1847154,24.88,2.94,3.38,-0.02,94,51,4.4886794090271,4.488584041595459
4,-0.04810075834393501,0.8536300659179688,0.027583107352256775,36.7157051,3.1847716,24.89,2.7,3.06,-0.01,94,48,4.0846266746521,4.084599018096924
5,0.35550743341445923,0.5985880494117737,-0.13625691831111908,36.7157292,3.1848029,24.91,0.33,0.07,-0.04,94,34,0.343596875667572,0.3405144512653351
6,-0.08498397469520569,-1.2361706495285034,-0.14822517335414886,36.7157109,3.1847663,24.91,-2.16,-3.12,0.05,93,289,3.8019049167633057,3.8014864921569824
7,-0.14959388971328735,-2.413633108139038,0.010782605968415737,36.7156804,3.1847111,24.93,-2.27,-3.31,-0.04,93,221,4.019809246063232,4.019559383392334
8,-0.007667303550988436,-1.7254506349563599,0.18979506194591522,36.7156553,3.1846479,24.9,-0.31,-2.96,0.03,93,261,2.9776558876037598,2.977478504180908
9,-0.40211230516433716,-0.6699665188789368,0.11875741183757782,36.7156763,3.1845999,24.89,3.48,-2.98,0.0,92,321,4.584614276885986,4.58461332321167
10,-0.465591162443161,-0.6166087985038757,0.009298891760408878,36.7157443,3.1845384,24.89,6.36,-4.44,0.0,92,324,7.767806053161621,7.767805576324463
11,-0.5314781665802002,-0.6208428740501404,0.002887204522266984,36.7158586,3.1844388,24.91,7.82,-5.47,0.0,91,324,9.550371170043945,9.550371170043945
12,-0.4048120081424713,-0.6215769052505493,0.026705484837293625,36.7159651,3.1843452,24.93,7.73,-5.47,-0.01,91,324,9.476434707641602,9.476426124572754
13,-0.11016177386045456,-0.6248219609260559,-0.027216032147407532,36.7160744,3.1842482,24.97,5.68,-4.07,0.04,91,324,6.990622520446777,6.990484237670898
14,0.09169488400220871,-0.9813396334648132,-0.20504063367843628,36.7161288,3.1841915,25.02,1.98,-2.91,-0.16,90,303,3.531243085861206,3.527575969696045
15,-0.41372495889663696,-2.1242387294769287,-0.07019811868667603,36.7161212,3.1841268,25.94,-2.72,-4.26,-0.86,90,238,5.135172367095947,5.062302589416504
16,-0.45101627707481384,-2.164064645767212,0.02256847359240055,36.7160686,3.1840342,27.7,-4.75,-6.76,-1.4,89,236,8.385810852050781,8.26776123046875
17,-0.4402801990509033,-2.1647346019744873,-0.01805347390472889,36.7159974,3.183907,30.05,-5.51,-7.98,-1.6,89,235,9.836686134338379,9.704794883728027
18,-0.4857715964317322,-2.163423776626587,0.023550141602754593,36.7159098,3.1837467,32.93,-5.52,-8.17,-1.57,88,236,9.990762710571289,9.86534595489502
19,-0.4272598326206207,-2.162853479385376,0.02530639059841633,36.7158346,3.1836073,35.39,-5.54,-8.23,-1.59,88,236,10.055750846862793,9.928972244262695
20,-0.4850579798221588,-2.1616241931915283,-0.02352466620504856,36.7157473,3.1834446,38.28,-5.52,-8.25,-1.6,87,236,10.06723690032959,9.939071655273438
21,-0.48306718468666077,-2.163684606552124,0.028339337557554245,36.7156725,3.1833052,40.77,-5.51,-8.26,-1.61,87,236,10.066637992858887,9.936594009399414
22,-0.421775758266449,-2.1636056900024414,-0.0005777216283604503,36.7155851,3.1831424,43.68,-5.5,-8.28,-1.62,87,236,10.072643280029297,9.941338539123535
23,-0.48068514466285706,-2.165168523788452,-0.01731729693710804,36.7155104,3.1830028,46.18,-5.52,-8.28,-1.61,86,235,10.0880708694458,9.957656860351562
24,-0.48621997237205505,-2.165417194366455,0.03294900804758072,36.7154359,3.1828632,48.68,-5.51,-8.3,-1.62,86,235,10.100485801696777,9.969027519226074
25,-0.43240201473236084,-2.1654052734375,-0.010572132654488087,36.7153487,3.1827001,51.6,-5.54,-8.32,-1.63,85,235,10.136638641357422,10.004630088806152
26,-0.46193960309028625,-2.1646690368652344,-0.028482507914304733,36.7152736,3.1825598,54.1,-5.5,-8.29,-1.62,85,235,10.094013214111328,9.961735725402832
27,-0.44697678089141846,-2.1647331714630127,0.03775545209646225,36.7151865,3.1823967,57.01,-5.51,-8.28,-1.64,84,235,10.085707664489746,9.951148986816406
28,-0.42475971579551697,-2.1641101837158203,-0.012908023782074451,36.7151118,3.1822569,59.52,-5.53,-8.28,-1.64,84,236,10.10083293914795,9.966099739074707
29,-0.3150944709777832,-2.1686413288116455,-0.015677236020565033,36.7150392,3.1821221,61.95,-4.99,-7.42,-1.48,83,235,9.072327613830566,8.949756622314453
30,-0.03726426884531975,-2.1631357669830322,0.018668126314878464,36.7149747,3.1820015,64.06,-3.11,-4.72,-0.77,83,236,5.710873603820801,5.658590316772461
31,-0.1584068238735199,-2.115879535675049,0.0009560271282680333,36.7149402,3.1819332,64.78,-2.19,-3.71,-0.21,83,238,4.321427345275879,4.3160080909729
32,-0.12989644706249237,-2.0858418941497803,-0.0002154859685106203,36.714908,3.1818616,64.88,-2.0,-3.69,0.0,82,240,4.205109119415283,4.205105781555176
33,-0.05172978714108467,-2.0870766639709473,-0.0010462411446496844,36.7148815,3.1818015,64.87,-1.77,-3.25,0.0,82,240,3.706597089767456,3.706594467163086
34,0.0499117411673069,-2.2378835678100586,-0.0380534827709198,36.7148616,3.1817602,64.33,-1.23,-1.64,0.88,82,231,2.239163398742676,2.058049440383911
35,-0.05421050265431404,-2.483344316482544,0.017858333885669708,36.7148437,3.1817389,61.87,-1.02,-0.79,1.45,81,217,1.9566322565078735,1.3028734922409058
36,-0.016035130247473717,-2.472388982772827,-0.009305229410529137,36.7148298,3.181726,59.63,-1.03,-0.81,1.42,81,218,1.9406437873840332,1.3189855813980103
37,-0.03774075582623482,-2.469646453857422,0.02936883457005024,36.7148131,3.1817096,57.02,-1.06,-0.87,1.44,80,218,1.9962372779846191,1.381447434425354
38,-0.033639173954725266,-2.4699301719665527,-0.02189929038286209,36.7147986,3.181695,54.77,-1.08,-0.87,1.44,80,218,2.0088088512420654,1.3933676481246948
39,-0.05357584357261658,-2.4696757793426514,0.025788653641939163,36.714784,3.1816804,52.53,-1.06,-0.87,1.45,80,218,2.003706216812134,1.3798713684082031
40,-0.055663757026195526,-2.4692959785461426,-0.01764657348394394,36.714767,3.1816633,49.91,-1.06,-0.89,1.45,79,218,2.0130555629730225,1.386297345161438
41,-0.02470771037042141,-2.4690980911254883,0.02337907813489437,36.7147525,3.1816486,47.67,-1.06,-0.88,1.46,79,218,2.015132427215576,1.3851873874664307
42,-0.06148315593600273,-2.4696993827819824,0.010594983585178852,36.7147354,3.1816315,45.05,-1.06,-0.89,1.46,79,218,2.0190682411193848,1.3871448040008545
43,-0.009615441784262657,-2.469210386276245,0.010750672779977322,36.7147209,3.1816168,42.8,-1.06,-0.88,1.47,78,218,2.021228790283203,1.386256456375122
44,-0.05382213741540909,-2.4696707725524902,0.026180660352110863,36.7147038,3.1815996,40.18,-1.06,-0.89,1.47,78,218,2.0269880294799805,1.3908277750015259
45,-0.0171864815056324,-2.469602584838867,-0.016797764226794243,36.7146893,3.1815849,37.93,-1.05,-0.88,1.47,78,218,2.021819591522217,1.3780320882797241
46,-0.0581088550388813,-2.4697155952453613,0.017397509887814522,36.7146747,3.1815702,35.69,-1.06,-0.89,1.48,77,218,2.032553195953369,1.390257716178894
47,-0.04389229416847229,-2.469822883605957,-0.023011522367596626,36.7146576,3.181553,33.06,-1.07,-0.87,1.47,77,218,2.0278544425964355,1.3880308866500854
48,-0.04366452246904373,-2.4696061611175537,0.02676725946366787,36.714643,3.1815384,30.8,-1.05,-0.88,1.47,76,218,2.016300916671753,1.37460458278656
49,-0.022763151675462723,-2.4694130420684814,-0.02202707715332508,36.7146286,3.1815236,28.55,-1.05,-0.88,1.47,76,218,2.0217270851135254,1.3831329345703125
50,-0.0780583992600441,-2.895124673843384,-0.07948557287454605,36.7146094,3.1815081,25.97,-1.63,-0.45,1.3,76,194,2.137068033218384,1.693354606628418
51,-0.2610516846179962,2.682128429412842,-0.05669416859745979,36.7145776,3.1815151,24.89,-3.18,1.4,0.08,75,153,3.478426933288574,3.477489948272705
52,-0.14082162082195282,2.6795461177825928,-0.0017318121390417218,36.7145177,3.1815513,24.98,-4.06,2.03,0.0,75,153,4.544376850128174,4.544370174407959
53,-0.06919767707586288,2.8416335582733154,0.13410530984401703,36.7144635,3.1815818,24.94,-3.73,1.12,0.06,75,162,3.9002039432525635,3.8997251987457275
54,-0.34369078278541565,-2.2509727478027344,0.1195559948682785,36.7144121,3.1815665,24.91,-2.94,-3.13,0.02,74,231,4.300044059753418,4.299983501434326
55,-0.5038833022117615,-2.141421318054199,0.018552495166659355,36.7143668,3.1814852,24.91,-3.96,-6.3,0.01,74,237,7.448414325714111,7.448390960693359
56,-0.46022099256515503,-2.1474051475524902,0.02652682550251484,36.7143064,3.1813659,24.92,-4.84,-7.62,0.0,73,236,9.032955169677734,9.032953262329102
57,-0.37795957922935486,-2.1512610912323,-0.025019336491823196,36.7142288,3.181215,24.94,-4.79,-7.4,0.0,73,236,8.821248054504395,8.821246147155762
58,-0.24678172171115875,-2.149003744125366,0.04149138554930687,36.7141689,3.1810997,24.94,-4.0,-6.24,0.02,73,236,7.420557498931885,7.420502185821533
59,-0.2950059175491333,-2.123056650161743,-0.006216318812221289,36.7141117,3.1809849,24.92,-3.41,-5.69,0.02,72,238,6.63960075378418,6.639570236206055
60,-0.27948644757270813,-2.1093244552612305,0.03399844095110893,36.7140667,3.1808897,24.92,-3.28,-5.64,0.01,72,239,6.530059337615967,6.530050277709961
61,-0.19956819713115692,-2.108757734298706,-0.01422060001641512,36.7140221,3.1807945,24.92,-3.23,-5.53,0.0,71,239,6.413087844848633,6.413087844848633
62,0.10735476762056351,-2.109236478805542,0.028412768617272377,36.7139785,3.1807018,24.9,-2.0,-3.41,0.04,71,239,3.956362009048462,3.956146478652954
63,0.12692803144454956,-2.1091275215148926,-0.028410866856575012,36.7139631,3.1806684,24.89,-0.4,-0.72,-0.02,71,239,0.827782928943634,0.8274475336074829
64,0.029473602771759033,-2.108271360397339,0.030172504484653473,36.7139626,3.1806668,24.89,0.12,0.13,0.03,70,239,0.18932123482227325,0.18580371141433716
