timestamp,pitch,yaw,roll,lat,lon,alt,velocity_x,velocity_y,velocity_z,battery,heading,airspeed,groundspeed
0,-0.025204019621014595,0.01930955797433853,0.006025206763297319,36.7156066,3.18463,15.48,-0.01,0.02,-0.05,96,1,0.06321234256029129,0.030441151931881905
1,-0.04029614478349686,0.015979968011379242,0.0738140419125557,36.7156078,3.1846318,15.51,0.34,0.43,-0.02,95,0,0.5550091862678528,0.5544227957725525
2,-0.19388514757156372,1.2007689476013184,-0.059643737971782684,36.7156253,3.1846567,15.51,1.99,2.27,-0.02,95,68,3.0259575843811035,3.0258731842041016
3,-0.20282968878746033,0.8573365807533264,-0.017707128077745438,36.7156588,3.1847041,15.52,2.82,3.15,-0.01,95,49,4.23803186416626,4.238010883331299
4,0.04495450481772423,0.8381377458572388,-0.021402457728981972,36.7157033,3.1847653,15.52,2.5,2.74,0.0,94,48,3.7132163047790527,3.7132153511047363
5,0.308467298746109,0.3566328287124634,-0.16086654365062714,36.7157228,3.1847883,15.54,-0.08,-0.51,-0.03,94,20,0.5245558023452759,0.5233782529830933
6,-0.08327669650316238,-1.2464494705200195,-0.18784138560295105,36.7157051,3.1847535,15.54,-2.14,-3.08,0.06,93,288,3.7575223445892334,3.7568869590759277
7,-0.082186758518219,-2.3017895221710205,0.04410431906580925,36.7156694,3.1846892,15.57,-2.22,-3.29,-0.01,93,228,3.9766221046447754,3.976585865020752
8,-0.0393650121986866,-1.748692274093628,0.18879328668117523,36.7156491,3.1846352,15.53,-0.38,-2.97,0.03,93,259,2.999708890914917,2.9994897842407227
9,-0.3793797791004181,-0.65793776512146,0.0525832436978817,36.7156775,3.1845786,15.51,3.99,-3.13,0.0,92,322,5.077981948852539,5.077980995178223
10,-0.5333601236343384,-0.6245232820510864,0.02351704053580761,36.7157511,3.1845134,15.51,6.68,-4.62,0.0,92,324,8.127693176269531,8.127693176269531
11,-0.4840451776981354,-0.6175015568733215,0.027643397450447083,36.7158506,3.1844275,15.53,7.84,-5.42,0.0,91,324,9.540145874023438,9.540144920349121
12,-0.4257522523403168,-0.6185721755027771,-0.0209541916847229,36.7159748,3.1843191,15.55,7.63,-5.39,-0.01,91,324,9.351906776428223,9.351892471313477
13,-0.11087917536497116,-0.6218103170394897,0.026258116587996483,36.7160681,3.1842368,15.58,5.81,-4.12,0.02,91,324,7.128697872161865,7.128634452819824
14,0.0045304917730391026,-1.1065897941589355,-0.26361754536628723,36.7161286,3.1841714,15.67,1.41,-2.88,-0.23,90,296,3.22019100189209,3.211796760559082
15,-0.34414830803871155,-2.1293907165527344,-0.08001476526260376,36.7161193,3.1841153,16.49,-2.61,-4.16,-0.84,90,238,4.989450931549072,4.917181015014648
16,-0.5161356925964355,-2.161996841430664,0.010886039584875107,36.7160569,3.1840052,18.6,-4.9,-6.98,-1.45,89,236,8.657776832580566,8.535065650939941
17,-0.45179176330566406,-2.1634676456451416,0.043673075735569,36.7159846,3.1838759,20.99,-5.5,-8.03,-1.61,89,236,9.871509552001953,9.738677978515625
18,-0.4341428875923157,-2.1640636920928955,-0.01566552370786667,36.7159096,3.1837385,23.46,-5.53,-8.19,-1.57,88,236,10.016838073730469,9.891547203063965
19,-0.48878827691078186,-2.163990020751953,0.01583017036318779,36.7158217,3.1835759,26.33,-5.55,-8.25,-1.59,88,236,10.075955390930176,9.949617385864258
20,-0.4383602440357208,-2.1643970012664795,0.034047067165374756,36.7157467,3.1834361,28.8,-5.52,-8.27,-1.6,88,235,10.073709487915039,9.945056915283203
21,-0.4714582562446594,-2.1634507179260254,-0.02763746678829193,36.7156596,3.1832734,31.7,-5.47,-8.24,-1.61,87,236,10.027817726135254,9.897382736206055
22,-0.4898803234100342,-2.1635079383850098,0.024443896487355232,36.7155853,3.1831345,34.19,-5.51,-8.29,-1.62,87,236,10.09278392791748,9.961094856262207
23,-0.436034619808197,-2.1636757850646973,0.029665743932127953,36.7155103,3.1829947,36.69,-5.54,-8.3,-1.63,86,236,10.117412567138672,9.984000205993652
24,-0.47523415088653564,-2.163374662399292,-0.025089077651500702,36.7154229,3.1828312,39.61,-5.5,-8.3,-1.63,86,236,10.093557357788086,9.960597038269043
25,-0.48236748576164246,-2.1647918224334717,0.02975083701312542,36.7153483,3.1826914,42.11,-5.48,-8.27,-1.63,85,235,10.06729793548584,9.933192253112793
26,-0.42388540506362915,-2.162980079650879,-0.016947703436017036,36.7152612,3.1825284,45.04,-5.51,-8.27,-1.63,85,236,10.076432228088379,9.942892074584961
27,-0.4873276352882385,-2.164508104324341,-0.016753513365983963,36.7151864,3.1823887,47.55,-5.52,-8.29,-1.62,84,235,10.09858226776123,9.966646194458008
28,-0.4756450057029724,-2.165867805480957,0.03366788104176521,36.7151116,3.1822489,50.05,-5.52,-8.29,-1.63,84,235,10.100289344787598,9.967074394226074
29,-0.25240445137023926,-2.1677844524383545,-0.024301784113049507,36.7150277,3.1820927,52.86,-4.82,-7.18,-1.44,84,235,8.773601531982422,8.654061317443848
30,-0.09531277418136597,-2.164649248123169,0.01283376943320036,36.7149732,3.181991,54.63,-3.18,-4.82,-0.8,83,235,5.834660053253174,5.779444217681885
31,-0.14145305752754211,-2.119875431060791,-0.012213809415698051,36.7149329,3.1819115,55.43,-2.22,-3.71,-0.17,83,238,4.334112644195557,4.330583572387695
32,-0.16115519404411316,-2.102065086364746,0.03200932964682579,36.7149043,3.1818499,55.5,-2.06,-3.66,0.0,82,239,4.206801891326904,4.206798076629639
33,-0.030659040436148643,-2.103074789047241,-0.02196984924376011,36.7148727,3.181781,55.48,-1.73,-3.06,0.04,82,239,3.5199310779571533,3.519660711288452
34,0.0332660898566246,-2.290203809738159,-0.026890581473708153,36.7148533,3.1817434,54.77,-1.23,-1.48,1.04,82,228,2.1936402320861816,1.93026864528656
35,-0.04420633614063263,-2.484804630279541,-0.024391409009695053,36.714838,3.1817259,52.61,-1.03,-0.8,1.47,81,217,1.9729851484298706,1.3122315406799316
36,-0.012892894446849823,-2.471677780151367,-0.0020166016183793545,36.7148217,3.1817105,49.99,-1.04,-0.82,1.42,81,218,1.95337975025177,1.3311740159988403
37,-0.0643295869231224,-2.470250368118286,0.004584863316267729,36.7148074,3.1816965,47.75,-1.05,-0.87,1.43,81,218,1.9901258945465088,1.3743915557861328
38,-0.03208700194954872,-2.47001576423645,-0.021909503266215324,36.7147905,3.1816796,45.13,-1.07,-0.88,1.44,80,218,2.0122320652008057,1.3962372541427612
39,-0.05234990641474724,-2.469564199447632,0.02536015212535858,36.7147759,3.1816649,42.89,-1.07,-0.88,1.45,80,218,2.012436628341675,1.388787031173706
40,-0.02310427837073803,-2.4698894023895264,-0.022049730643630028,36.7147614,3.1816503,40.65,-1.07,-0.88,1.46,79,218,2.0208818912506104,1.3894381523132324
41,-0.0208419281989336,-2.4690184593200684,0.02291209064424038,36.7147444,3.1816331,38.03,-1.07,-0.88,1.47,79,218,2.027125358581543,1.3904201984405518
42,-0.0529966726899147,-2.4695708751678467,-0.020658664405345917,36.7147297,3.1816184,35.79,-1.06,-0.88,1.47,79,218,2.0247128009796143,1.3868502378463745
43,-0.012249422259628773,-2.4694807529449463,-0.006153375841677189,36.7147127,3.1816013,33.16,-1.06,-0.87,1.47,78,218,2.0235207080841064,1.3847463130950928
44,-0.05975712463259697,-2.469430923461914,0.00919572077691555,36.7146981,3.1815866,30.91,-1.06,-0.89,1.47,78,218,2.0269598960876465,1.3879014253616333
45,-0.036307305097579956,-2.4697749614715576,-0.02522253803908825,36.7146811,3.1815694,28.29,-1.06,-0.87,1.47,78,218,2.01993989944458,1.3781384229660034
46,-0.03965004161000252,-2.4698233604431152,0.027602043002843857,36.7146666,3.1815547,26.04,-1.05,-0.88,1.47,77,218,2.019742488861084,1.3794872760772705
47,-0.02538837306201458,-2.469550132751465,-0.0265253484249115,36.714652,3.1815399,23.79,-1.07,-0.88,1.47,77,218,2.0272715091705322,1.389589548110962
48,-0.0193488672375679,-2.46891450881958,0.021866077557206154,36.714635,3.1815228,21.17,-1.06,-0.88,1.48,77,218,2.0255298614501953,1.3797404766082764
49,-0.05252418667078018,-2.4694766998291016,-0.016781333833932877,36.7146204,3.1815081,18.92,-1.06,-0.89,1.48,76,218,2.0300276279449463,1.3864374160766602
50,-0.09160155057907104,-3.020658016204834,-0.11831051856279373,36.7146003,3.1814935,16.37,-1.76,-0.28,1.2,76,186,2.155498743057251,1.7852511405944824
51,-0.25497186183929443,2.6677968502044678,-0.005431269761174917,36.714566,3.1815046,15.5,-3.31,1.56,0.01,75,152,3.6679365634918213,3.667921304702759
52,-0.14318743348121643,2.6722874641418457,-0.006735428236424923,36.7145147,3.1815363,15.6,-4.0,2.03,-0.02,75,153,4.494720458984375,4.494659423828125
53,-0.029199711978435516,2.929443359375,0.20189370214939117,36.7144529,3.1815702,15.55,-3.6,0.77,0.05,75,167,3.6830556392669678,3.68265962600708
54,-0.3404696583747864,-2.2610578536987305,0.12037024646997452,36.7144099,3.1815536,15.53,-2.94,-3.03,0.02,74,230,4.225027084350586,4.224973201751709
55,-0.4687955975532532,-2.1421146392822266,0.03033500909805298,36.7143558,3.1814558,15.53,-4.14,-6.58,0.01,74,237,7.779298305511475,7.7792887687683105
56,-0.45189157128334045,-2.1483144760131836,-0.030499255284667015,36.7142937,3.1813337,15.54,-4.89,-7.68,0.0,73,236,9.112833023071289,9.112832069396973
57,-0.35302242636680603,-2.1512770652770996,0.02352861315011978,36.7142166,3.1811839,15.56,-4.7,-7.27,0.0,73,236,8.664950370788574,8.664945602416992
58,-0.2135375440120697,-2.146477699279785,-0.005313951056450605,36.7141582,3.1810708,15.55,-3.89,-6.08,0.02,73,237,7.2233099937438965,7.223264694213867
59,-0.2990953028202057,-2.1248390674591064,0.014852996915578842,36.7141093,3.1809729,15.53,-3.42,-5.67,0.01,72,238,6.630633354187012,6.630615234375
60,-0.2594079375267029,-2.1084482669830322,-0.016951683908700943,36.7140569,3.180862,15.53,-3.26,-5.62,0.0,72,239,6.5037665367126465,6.503763198852539
61,-0.21898719668388367,-2.1084134578704834,0.006804584059864283,36.7140127,3.1807674,15.53,-3.14,-5.41,0.0,71,239,6.258876800537109,6.258874893188477
62,0.13816244900226593,-2.1094136238098145,-0.029285166412591934,36.7139718,3.1806803,15.51,-1.74,-2.98,0.03,71,239,3.452068567276001,3.4518775939941406
63,0.10987138003110886,-2.1087646484375,0.028753913938999176,36.7139592,3.1806532,15.52,-0.26,-0.48,-0.02,71,239,0.5545373558998108,0.5540491342544556
64,0.016809426248073578,-2.1087372303009033,-0.0014347037067636847,36.7139592,3.180653,15.51,0.12,0.13,0.03,70,239,0.19090279936790466,0.18726128339767456
