timestamp,pitch,yaw,roll,lat,lon,alt,velocity_x,velocity_y,velocity_z,battery,heading,airspeed,groundspeed
0,0.017071135342121124,0.019132360816001892,0.029473133385181427,36.7156066,3.18463,28.15,-0.02,0.02,0.11,96,1,0.12145628035068512,0.032921262085437775
1,-0.0841202363371849,0.04244830459356308,0.09856312721967697,36.7156079,3.1846333,28.02,0.34,0.71,0.0,95,2,0.7951087355613708,0.7950506210327148
2,-0.16477127373218536,1.6258999109268188,-0.09642356634140015,36.7156192,3.1846615,28.01,1.33,2.76,-0.06,95,93,3.070456027984619,3.0698421001434326
3,-0.13001517951488495,1.00458562374115,0.033101703971624374,36.7156451,3.184727,28.07,1.75,3.57,-0.06,94,57,3.9843597412109375,3.983877182006836
4,0.14778004586696625,1.0954444408416748,-0.016937296837568283,36.7156674,3.1847823,28.11,1.18,2.44,-0.03,94,62,2.7126963138580322,2.7124691009521484
5,0.08478263020515442,2.37275767326355,0.2955535054206848,36.7156658,3.1847861,28.12,-1.53,-2.14,-0.04,94,135,2.639294385910034,2.6389222145080566
6,-0.15962383151054382,-2.3647243976593018,0.008526486344635487,36.7156382,3.1847364,28.16,-2.24,-3.3,-0.01,93,224,3.9971437454223633,3.9971067905426025
7,-0.03441814333200455,-2.1990840435028076,0.08694043755531311,36.7156087,3.1846803,28.15,-1.89,-3.23,0.0,93,234,3.74886155128479,3.748861312866211
8,-0.2313501387834549,-1.0712462663650513,0.26802894473075867,36.715601,3.1846206,28.13,1.47,-2.75,0.0,93,298,3.1250298023223877,3.1250271797180176
9,-0.4361840486526489,-0.6401853561401367,0.022422252222895622,36.7156463,3.184569,28.14,5.04,-3.59,0.0,92,323,6.195654392242432,6.195654392242432
10,-0.529816746711731,-0.6208141446113586,0.03396467864513397,36.715747,3.1844814,28.15,7.44,-5.15,-0.01,92,324,9.059209823608398,9.059205055236816
11,-0.46064579486846924,-0.6207137107849121,0.005179873201996088,36.7158519,3.1843898,28.17,7.89,-5.6,0.0,91,324,9.684368133544922,9.684367179870605
12,-0.3220750689506531,-0.6238175630569458,-0.024370746687054634,36.7159562,3.1842973,28.2,7.17,-5.11,-0.01,91,324,8.811254501342773,8.81124496459961
13,0.05981940031051636,-0.6772563457489014,-0.07103469222784042,36.7160494,3.1842139,28.2,4.09,-3.31,0.02,91,321,5.27046537399292,5.270427227020264
14,-0.19928407669067383,-1.6231586933135986,-0.29250890016555786,36.7160775,3.1841635,28.49,-0.19,-3.07,-0.41,90,267,3.1137855052948,3.0853891372680664
15,-0.41712290048599243,-2.170724630355835,-0.0009546808432787657,36.7160414,3.1840834,29.91,-3.9,-5.48,-1.16,90,235,6.834840774536133,6.734987735748291
16,-0.49831733107566833,-2.163412094116211,-0.02778112329542637,36.715978,3.1839712,32.03,-5.18,-7.56,-1.55,89,236,9.301277160644531,9.170915603637695
17,-0.4490107297897339,-2.1667251586914062,0.04374469816684723,36.7158914,3.1838142,34.9,-5.53,-8.06,-1.58,89,235,9.909469604492188,9.7816162109375
18,-0.4278939962387085,-2.1648802757263184,-0.00044284426257945597,36.7158162,3.1836754,37.36,-5.55,-8.23,-1.57,88,235,10.058673858642578,9.933868408203125
19,-0.47066184878349304,-2.162942886352539,-0.03744078055024147,36.7157413,3.1835361,39.83,-5.56,-8.26,-1.58,88,236,10.084807395935059,9.959257125854492
20,-0.45025134086608887,-2.1653501987457275,0.040437664836645126,36.7156539,3.1833734,42.72,-5.53,-8.27,-1.6,87,235,10.086722373962402,9.958402633666992
21,-0.42594948410987854,-2.163728952407837,0.0007460327469743788,36.715579,3.1832337,45.21,-5.51,-8.26,-1.61,87,236,10.069331169128418,9.93963623046875
22,-0.48443907499313354,-2.1642653942108154,-0.010130040347576141,36.7154918,3.1830706,48.11,-5.49,-8.27,-1.62,87,236,10.063756942749023,9.931923866271973
23,-0.45964422821998596,-2.1643519401550293,0.04336582496762276,36.7154172,3.1829311,50.61,-5.51,-8.29,-1.63,86,236,10.090153694152832,9.956707954406738
24,-0.4403906762599945,-2.1639652252197266,-0.03876490518450737,36.71533,3.182768,53.54,-5.53,-8.29,-1.63,86,236,10.101245880126953,9.968626022338867
25,-0.4930501878261566,-2.1648974418640137,0.004939509555697441,36.7152553,3.1826283,56.04,-5.5,-8.29,-1.62,85,235,10.092881202697754,9.960927963256836
26,-0.46989938616752625,-2.1645123958587646,0.034520771354436874,36.7151805,3.1824883,58.55,-5.5,-8.29,-1.63,85,235,10.0890531539917,9.955699920654297
27,-0.4522593319416046,-2.1656851768493652,-0.02377977967262268,36.7150935,3.1823256,61.47,-5.53,-8.31,-1.62,84,235,10.117555618286133,9.985635757446289
28,-0.43132615089416504,-2.162811517715454,-0.02870040573179722,36.7150189,3.1821859,63.97,-5.44,-8.12,-1.6,84,236,9.909546852111816,9.77914810180664
29,-0.07547568529844284,-2.167381525039673,0.005222707986831665,36.7149418,3.1820436,66.54,-4.0,-5.96,-1.15,83,235,7.271913528442383,7.179656505584717
30,-0.0859856829047203,-2.1462113857269287,0.0019392771646380424,36.7148988,3.1819615,67.76,-2.48,-3.97,-0.46,83,237,4.7093610763549805,4.68599271774292
31,-0.12819968163967133,-2.095900058746338,0.03961583971977234,36.714869,3.1818989,68.11,-2.06,-3.67,-0.07,83,239,4.216745376586914,4.215993881225586
32,-0.15321354568004608,-2.087527275085449,0.0006331017357297242,36.7148373,3.1818273,68.11,-2.01,-3.69,-0.03,82,240,4.205798625946045,4.205689907073975
33,0.06728324294090271,-2.1095755100250244,-0.014505263417959213,36.7148134,3.1817735,68.02,-1.45,-2.51,0.25,82,239,2.9169349670410156,2.905555486679077
34,-0.006129155866801739,-2.4474289417266846,-0.007243398576974869,36.7147937,3.1817416,66.34,-1.12,-0.99,1.47,82,219,2.1032497882843018,1.4965603351593018
35,-0.008268315345048904,-2.4632649421691895,-0.0023872849997133017,36.7147794,3.181728,64.04,-1.04,-0.79,1.42,81,218,1.9340951442718506,1.310691237449646
36,-0.06373679637908936,-2.468964099884033,0.007747108116745949,36.7147654,3.1817147,61.8,-1.04,-0.85,1.42,81,218,1.9624220132827759,1.3455721139907837
37,-0.02633211389183998,-2.4698033332824707,-0.026451174169778824,36.7147486,3.1816979,59.19,-1.07,-0.88,1.43,80,218,2.000321388244629,1.3920749425888062
38,-0.04735706374049187,-2.470482587814331,0.027429603040218353,36.714734,3.1816833,56.94,-1.06,-0.87,1.44,80,218,1.9981766939163208,1.3798282146453857
39,-0.056194521486759186,-2.469806671142578,-0.01867065764963627,36.7147171,3.1816662,54.33,-1.07,-0.88,1.45,80,218,2.0139386653900146,1.3926410675048828
40,-0.023552414029836655,-2.4699974060058594,0.029927296563982964,36.7147024,3.1816516,52.09,-1.07,-0.87,1.46,79,218,2.01808762550354,1.3866994380950928
41,-0.060073371976614,-2.4698286056518555,0.005603257566690445,36.7146854,3.1816346,49.47,-1.05,-0.88,1.47,79,218,2.0163323879241943,1.3774104118347168
42,-0.008378897793591022,-2.4699156284332275,0.0066502937115728855,36.7146709,3.1816198,47.23,-1.07,-0.88,1.47,79,218,2.028806447982788,1.3947018384933472
43,-0.04948127642273903,-2.4703400135040283,0.027233870700001717,36.7146538,3.1816026,44.6,-1.07,-0.88,1.47,78,218,2.0239830017089844,1.3870853185653687
44,-0.008032996207475662,-2.469869613647461,-0.008837731555104256,36.7146393,3.1815879,42.35,-1.06,-0.87,1.47,78,218,2.018749475479126,1.37948739528656
45,-0.06153445690870285,-2.469552993774414,0.009923565201461315,36.7146247,3.1815732,40.1,-1.06,-0.88,1.47,78,218,2.025526523590088,1.3910119533538818
46,-0.03262314200401306,-2.469865083694458,-0.021194765344262123,36.7146077,3.1815561,37.48,-1.06,-0.88,1.47,77,218,2.0216124057769775,1.386014699935913
47,-0.043290313333272934,-2.470492124557495,0.02603320963680744,36.7145931,3.1815413,35.23,-1.05,-0.88,1.47,77,218,2.0202767848968506,1.382165789604187
48,-0.05221879109740257,-2.469470739364624,-0.02431466616690159,36.714576,3.1815241,32.61,-1.06,-0.87,1.48,76,218,2.0247280597686768,1.3801236152648926
49,-0.06333621591329575,-2.4731175899505615,-0.0007269841153174639,36.7145639,3.1815119,30.73,-1.07,-0.86,1.47,76,218,2.0183911323547363,1.3736246824264526
50,-0.19983915984630585,2.930765151977539,-0.13445739448070526,36.7145393,3.1815027,28.45,-2.28,0.36,0.74,76,167,2.4248502254486084,2.3088808059692383
51,-0.18308404088020325,2.679755210876465,-0.0027434092480689287,36.7144887,3.1815288,28.17,-3.9,1.92,-0.05,75,153,4.349384307861328,4.349016189575195
52,-0.14721478521823883,2.686450719833374,0.027645986527204514,36.7144338,3.1815629,28.22,-4.0,1.94,0.05,75,153,4.452719688415527,4.452338218688965
53,-0.09953785687685013,-2.8321681022644043,0.26090580224990845,36.7143759,3.1815795,28.17,-3.11,-0.96,0.03,74,197,3.262266159057617,3.2620646953582764
54,-0.4680156111717224,-2.1881656646728516,0.08486847579479218,36.7143348,3.1815301,28.16,-3.24,-4.86,0.02,74,234,5.851728439331055,5.851687431335449
55,-0.4622883200645447,-2.1567318439483643,0.026573486626148224,36.7142822,3.1814266,28.16,-4.49,-7.13,0.0,74,236,8.433897018432617,8.433897018432617
56,-0.4659540355205536,-2.1528167724609375,-0.017785409465432167,36.7142059,3.1812776,28.18,-4.96,-7.71,0.0,73,236,9.170496940612793,9.170496940612793
57,-0.3113935887813568,-2.1533939838409424,0.029266318306326866,36.7141412,3.1811528,28.2,-4.42,-6.83,0.01,73,236,8.139814376831055,8.139805793762207
58,-0.27733656764030457,-2.133666515350342,-0.010036498308181763,36.714079,3.1810304,28.18,-3.53,-5.72,0.03,72,237,6.726807594299316,6.7267165184021
59,-0.27917006611824036,-2.107614755630493,0.040135957300662994,36.7140332,3.1809349,28.17,-3.27,-5.65,0.01,72,239,6.5359110832214355,6.53590202331543
60,-0.260646253824234,-2.0993664264678955,-0.009242765605449677,36.7139894,3.1808398,28.17,-3.22,-5.68,0.01,72,239,6.535035610198975,6.535023212432861
61,-0.07970228046178818,-2.0999391078948975,0.026370085775852203,36.7139407,3.1807334,28.17,-2.69,-4.71,0.01,71,239,5.431880950927734,5.431870460510254
62,0.17495864629745483,-2.1011459827423096,-0.027704518288373947,36.7139139,3.1806751,28.13,-1.12,-1.95,0.01,71,239,2.254009485244751,2.253981828689575
63,0.06606503576040268,-2.0997700691223145,0.02266094461083412,36.7139075,3.1806608,28.15,0.06,0.1,0.0,71,239,0.1181679219007492,0.1181446835398674
64,-0.0315958671271801,-2.1032323837280273,0.08802418410778046,36.7139099,3.1806626,28.11,0.48,-0.17,0.0,70,239,0.5193577408790588,0.5193389058113098
