timestamp,pitch,yaw,roll,lat,lon,alt,velocity_x,velocity_y,velocity_z,battery,heading,airspeed,groundspeed
0,-0.02355414256453514,0.034183986485004425,0.013442098163068295,36.7156063,3.1846302,10.83,0.01,0.0,-0.46,98,1,0.4657720625400543,0.014019717462360859
1,-0.042612481862306595,0.029513686895370483,0.07254701852798462,36.7156075,3.1846319,11.1,0.34,0.42,-0.08,97,1,0.5555880665779114,0.5485984683036804
2,-0.20164427161216736,1.2621791362762451,-0.07118752598762512,36.7156245,3.1846574,11.19,1.94,2.42,-0.02,97,72,3.107897996902466,3.107832431793213
3,-0.21394239366054535,0.8931809663772583,0.0008757991017773747,36.7156568,3.1847078,11.1,2.7,3.4,0.04,97,51,4.345113754272461,4.344899654388428
4,-0.00045695301378145814,0.8856568336486816,-0.02821968123316765,36.7156999,3.1847736,10.99,2.45,2.98,0.03,96,50,3.8660778999328613,3.865888833999634
5,0.34449633955955505,0.5826723575592041,-0.09315237402915955,36.71572,3.1848017,10.96,0.0,-0.27,-0.03,96,33,0.2777402102947235,0.27600499987602234
6,-0.12590573728084564,-1.222855806350708,-0.1488642543554306,36.7156987,3.1847607,10.93,-2.18,-3.18,0.04,95,289,3.8630120754241943,3.862762212753296
7,-0.08558402955532074,-2.4164695739746094,0.02961946837604046,36.7156682,3.1847049,10.97,-2.25,-3.27,-0.04,95,221,3.970670700073242,3.9704020023345947
8,-0.032043661922216415,-1.8077313899993896,0.20407263934612274,36.7156464,3.1846505,10.94,-0.61,-2.97,0.03,95,256,3.0392582416534424,3.0390379428863525
9,-0.4033490717411041,-0.6632068157196045,0.05423935130238533,36.7156708,3.1845947,10.92,3.76,-3.04,-0.01,94,322,4.8426594734191895,4.842648506164551
10,-0.5144219994544983,-0.6183998584747314,0.03832344338297844,36.7157418,3.1845319,10.93,6.52,-4.54,0.0,94,324,7.954756736755371,7.954753398895264
11,-0.49343201518058777,-0.6177855134010315,-0.03067411668598652,36.7158581,3.1844311,10.95,7.86,-5.5,0.0,93,324,9.599137306213379,9.599136352539062
12,-0.43228471279144287,-0.6219268441200256,0.01894303970038891,36.7159646,3.1843375,10.97,7.68,-5.43,-0.01,93,324,9.410029411315918,9.41002082824707
13,-0.10266069322824478,-0.6222006678581238,0.01399003155529499,36.7160593,3.1842542,11.01,5.97,-4.24,0.03,93,324,7.335709571838379,7.335618495941162
14,0.04582007974386215,-1.0292760133743286,-0.22882534563541412,36.7161242,3.1841874,11.08,1.71,-2.89,-0.18,92,301,3.369959831237793,3.364931106567383
15,-0.3571831285953522,-2.1251962184906006,-0.12267423421144485,36.7161184,3.1841332,11.83,-2.41,-4.05,-0.79,92,238,4.785589218139648,4.7187700271606445
16,-0.4853222668170929,-2.161670207977295,0.03739802539348602,36.7160582,3.1840264,13.87,-4.79,-6.89,-1.42,91,236,8.516822814941406,8.396589279174805
17,-0.4308866858482361,-2.164116144180298,-0.010991993360221386,36.7159868,3.1838978,16.24,-5.49,-7.98,-1.6,91,236,9.82934284210205,9.697155952453613
18,-0.4971092939376831,-2.1652042865753174,0.008954385295510292,36.7158989,3.1837371,19.11,-5.55,-8.17,-1.57,90,235,9.976380348205566,9.85123062133789
19,-0.4381755292415619,-2.163623571395874,0.0308852419257164,36.715824,3.183598,21.58,-5.52,-8.23,-1.58,90,236,10.041487693786621,9.915762901306152
20,-0.4299395978450775,-2.1633687019348145,-0.01719673164188862,36.7157493,3.1834589,24.06,-5.54,-8.27,-1.59,90,236,10.088849067687988,9.96263599395752
21,-0.4812399744987488,-2.167006015777588,0.031477171927690506,36.7156616,3.1832959,26.95,-5.52,-8.27,-1.6,89,235,10.079546928405762,9.950236320495605
22,-0.43069127202033997,-2.1625945568084717,0.028208807110786438,36.715587,3.1831563,29.45,-5.48,-8.26,-1.61,89,236,10.047572135925293,9.916468620300293
23,-0.4856462776660919,-2.1644110679626465,-0.02100474201142788,36.7155001,3.1829938,32.36,-5.52,-8.3,-1.61,88,235,10.109809875488281,9.980633735656738
24,-0.47326767444610596,-2.1650357246398926,0.04075155407190323,36.715425,3.1828536,34.86,-5.51,-8.31,-1.62,88,235,10.106525421142578,9.974764823913574
25,-0.4402889609336853,-2.164811849594116,-0.022271960973739624,36.7153379,3.1826905,37.78,-5.51,-8.29,-1.62,87,235,10.079005241394043,9.946474075317383
26,-0.494764506816864,-2.1654810905456543,-0.0028312401846051216,36.7152633,3.182551,40.29,-5.52,-8.31,-1.61,87,235,10.118856430053711,9.988338470458984
27,-0.4610402286052704,-2.1641061305999756,0.039604559540748596,36.7151884,3.1824108,42.78,-5.51,-8.3,-1.63,86,236,10.1000337600708,9.966987609863281
28,-0.455619752407074,-2.1648712158203125,-0.03043505549430847,36.7151012,3.1822477,45.71,-5.51,-8.28,-1.63,86,235,10.08297348022461,9.950128555297852
29,-0.30880826711654663,-2.167874813079834,0.014874962158501148,36.7150291,3.1821138,48.13,-4.92,-7.32,-1.45,85,235,8.94626235961914,8.826996803283691
30,-0.04729429632425308,-2.1632556915283203,-0.012189056724309921,36.7149657,3.1819955,50.17,-3.05,-4.62,-0.72,85,236,5.589409828186035,5.542487621307373
31,-0.16879041492938995,-2.122912883758545,0.029581237584352493,36.7149316,3.1819282,50.83,-2.2,-3.7,-0.19,85,238,4.313928604125977,4.30947208404541
32,-0.1319425404071808,-2.102449655532837,-0.009531850926578045,36.7149033,3.1818672,50.91,-2.07,-3.68,-0.01,84,239,4.226786136627197,4.226767063140869
33,-0.013834157958626747,-2.102466344833374,0.029372425749897957,36.7148713,3.1817973,50.9,-1.8,-3.19,0.0,84,239,3.6671509742736816,3.6671414375305176
34,0.027589332312345505,-2.263723850250244,-0.06993851065635681,36.7148511,3.1817573,50.3,-1.24,-1.56,0.94,84,230,2.2105844020843506,1.9984872341156006
35,-0.0075149377807974815,-2.479959011077881,0.004636246245354414,36.7148334,3.181737,47.8,-1.03,-0.77,1.45,83,217,1.9443312883377075,1.292293667793274
36,-0.06448805332183838,-2.472055196762085,-0.0013355289120227098,36.7148196,3.181724,45.55,-1.03,-0.83,1.41,83,218,1.941104531288147,1.3317142724990845
37,-0.009774358943104744,-2.4699349403381348,0.020987670868635178,36.7148052,3.18171,43.31,-1.05,-0.87,1.43,82,218,1.9842191934585571,1.373666763305664
38,-0.04882679134607315,-2.4702441692352295,0.024935726076364517,36.7147883,3.1816928,40.7,-1.07,-0.87,1.43,82,218,1.9960241317749023,1.3832509517669678
39,-0.015121981501579285,-2.469545602798462,-0.02091202512383461,36.7147737,3.1816783,38.45,-1.07,-0.86,1.43,82,218,1.9974396228790283,1.3843320608139038
40,-0.021971143782138824,-2.4690184593200684,0.029368139803409576,36.7147567,3.1816613,35.85,-1.06,-0.88,1.45,81,218,2.0091283321380615,1.3837333917617798
41,-0.05173845961689949,-2.4693078994750977,-0.018759045749902725,36.7147422,3.1816466,33.6,-1.06,-0.88,1.46,81,218,2.0141711235046387,1.3846932649612427
42,-0.007115907967090607,-2.469372510910034,0.0027786821592599154,36.7147252,3.1816295,30.97,-1.06,-0.89,1.46,81,218,2.0194571018218994,1.3939287662506104
43,-0.06056530773639679,-2.4700727462768555,0.010546562261879444,36.7147106,3.1816147,28.73,-1.07,-0.88,1.46,80,218,2.0243918895721436,1.3955446481704712
44,-0.007002676371484995,-2.4688992500305176,0.009514178149402142,36.7146959,3.1816,26.49,-1.06,-0.88,1.47,80,218,2.0227298736572266,1.3838309049606323
45,-0.037702400237321854,-2.4695816040039062,0.030970890074968338,36.714679,3.1815829,23.86,-1.06,-0.88,1.47,80,218,2.0168559551239014,1.379250407218933
46,-0.02262009121477604,-2.469689130783081,-0.018968449905514717,36.7146644,3.1815682,21.61,-1.06,-0.89,1.47,79,218,2.025192975997925,1.3922617435455322
47,-0.009591568261384964,-2.469630718231201,0.01539347879588604,36.7146474,3.1815509,18.99,-1.06,-0.87,1.47,79,218,2.0228304862976074,1.3808594942092896
48,-0.056287992745637894,-2.469088077545166,-0.01937861181795597,36.7146328,3.1815361,16.74,-1.06,-0.88,1.47,78,218,2.0221920013427734,1.3840620517730713
49,-0.015514606609940529,-2.46932315826416,-0.013714023865759373,36.7146158,3.181519,14.11,-1.06,-0.87,1.46,78,218,2.016664743423462,1.382228136062622
50,-0.12567821145057678,-2.944714307785034,-0.07759345322847366,36.7145987,3.1815064,11.92,-1.66,-0.38,1.26,78,191,2.1319351196289062,1.7136322259902954
51,-0.2110331654548645,2.66878342628479,-0.05805718153715134,36.714566,3.181515,10.92,-3.22,1.49,0.04,77,152,3.5530285835266113,3.552774429321289
52,-0.15554088354110718,2.671732187271118,0.023166660219430923,36.7145063,3.1815519,11.02,-4.0,2.05,0.0,77,153,4.501235485076904,4.5012335777282715
53,-0.030399560928344727,2.882885217666626,0.1233733594417572,36.7144529,3.1815815,10.98,-3.64,0.96,0.05,77,165,3.7700181007385254,3.769578456878662
54,-0.34170103073120117,-2.221463203430176,0.12321388721466064,36.7144025,3.1815614,10.95,-2.95,-3.42,0.01,76,232,4.521358013153076,4.521320343017578
55,-0.5076008439064026,-2.1438345909118652,-0.023458173498511314,36.7143563,3.1814766,10.95,-4.09,-6.46,0.01,76,237,7.64992094039917,7.649911403656006
56,-0.4741714894771576,-2.1531882286071777,0.028888193890452385,36.7142945,3.1813557,10.96,-4.93,-7.64,0.0,75,236,9.097900390625,9.097900390625
57,-0.34012240171432495,-2.1569559574127197,-0.028400417417287827,36.7142158,3.1812052,10.98,-4.79,-7.3,0.0,75,236,8.735831260681152,8.735830307006836
58,-0.24723437428474426,-2.1519525051116943,0.04140260070562363,36.7141563,3.1810916,10.99,-3.94,-6.12,0.03,75,236,7.28572416305542,7.285627841949463
59,-0.28513339161872864,-2.117576837539673,-0.009769841097295284,36.7140997,3.1809778,10.96,-3.38,-5.69,0.02,74,238,6.627291202545166,6.627247333526611
60,-0.28345242142677307,-2.10101580619812,0.03683554008603096,36.7140555,3.1808825,10.96,-3.21,-5.65,0.01,74,239,6.508815288543701,6.508790969848633
61,-0.1838604360818863,-2.1001667976379395,-0.011666138656437397,36.7140119,3.1807876,10.96,-3.13,-5.51,0.0,73,239,6.343290328979492,6.343287944793701
62,0.13053859770298004,-2.100379228591919,0.02849813923239708,36.7139703,3.1806969,10.94,-1.85,-3.25,0.04,73,239,3.7438859939575195,3.7436134815216064
63,0.1169515922665596,-2.1001572608947754,-0.02524667978286743,36.7139563,3.180666,10.94,-0.32,-0.59,-0.01,73,239,0.6796279549598694,0.6793748736381531
64,0.023826153948903084,-2.0993242263793945,0.03253300115466118,36.7139564,3.1806658,10.93,0.14,0.12,0.04,72,239,0.19302217662334442,0.18874387443065643
