timestamp,pitch,yaw,roll,lat,lon,alt,velocity_x,velocity_y,velocity_z,battery,heading,airspeed,groundspeed
0,0.02998250164091587,-0.016229189932346344,0.016425957903265953,36.7156066,3.18463,17.28,-0.02,0.02,-0.02,96,359,0.043818339705467224,0.0369582362473011
1,-0.05917081609368324,0.013000337406992912,0.14682690799236298,36.7156077,3.1846335,17.34,0.27,0.73,0.0,95,0,0.7842331528663635,0.7842288017272949
2,-0.2007133960723877,1.7100037336349487,-0.14936013519763947,36.7156169,3.1846622,17.3,1.17,2.83,-0.01,95,97,3.0705294609069824,3.070476531982422
3,-0.1346220225095749,1.0158354043960571,-0.0045797331258654594,36.7156406,3.1847313,17.34,1.63,3.87,-0.02,95,56,4.1795525550842285,4.179446220397949
4,0.026147618889808655,1.1428720951080322,0.02768571302294731,36.7156624,3.1847943,17.35,1.31,3.19,0.0,94,65,3.4541282653808594,3.45412015914917
5,0.24554400146007538,1.9562488794326782,0.26291555166244507,36.7156686,3.1848198,17.33,-0.76,-0.71,0.01,94,112,1.0457301139831543,1.0456563234329224
6,-0.13541032373905182,-2.438152551651001,0.06545551866292953,36.7156417,3.1847731,17.37,-2.23,-3.27,-0.02,93,220,3.9670300483703613,3.966977596282959
7,-0.11850994825363159,-2.2202813625335693,0.03159689903259277,36.7156115,3.1847169,17.36,-2.14,-3.29,0.0,93,232,3.927834987640381,3.9278268814086914
8,-0.08344267308712006,-1.3956581354141235,0.23330026865005493,36.7155947,3.184655,17.34,0.59,-2.84,0.0,93,280,2.9058783054351807,2.9058618545532227
9,-0.44338884949684143,-0.6620272994041443,0.09079203009605408,36.7156287,3.1846057,17.34,4.35,-3.26,0.0,92,322,5.440055847167969,5.4400553703308105
10,-0.47712430357933044,-0.6277457475662231,0.02336181327700615,36.715706,3.1845379,17.34,6.84,-4.77,-0.01,92,324,8.344328880310059,8.344322204589844
11,-0.5135499238967896,-0.6194174289703369,-0.004925393499433994,36.7158246,3.184435,17.36,7.88,-5.53,0.0,91,324,9.632282257080078,9.632282257080078
12,-0.3587441146373749,-0.623670220375061,0.033154722303152084,36.7159305,3.1843414,17.39,7.47,-5.34,-0.02,91,324,9.189797401428223,9.189767837524414
13,-0.03917348384857178,-0.6338839530944824,-0.0670563280582428,36.716032,3.1842511,17.4,4.89,-3.61,0.04,91,323,6.080132007598877,6.079939842224121
14,-0.0030921241268515587,-1.2828893661499023,-0.2685937285423279,36.7160731,3.1841989,17.56,0.82,-2.91,-0.29,90,286,3.0414979457855225,3.0275747776031494
15,-0.4140457212924957,-2.1270716190338135,-0.09952843934297562,36.7160571,3.1841402,18.48,-2.95,-4.47,-0.92,90,238,5.44200325012207,5.363153457641602
16,-0.4530651867389679,-2.161663293838501,0.02587648294866085,36.7159908,3.1840239,20.69,-5.01,-7.2,-1.5,89,236,8.902693748474121,8.77513313293457
17,-0.42994311451911926,-2.164097785949707,-0.018568942323327065,36.7159179,3.1838925,23.12,-5.52,-8.05,-1.6,89,236,9.899388313293457,9.768096923828125
18,-0.48069196939468384,-2.1635217666625977,0.026956651359796524,36.7158303,3.1837311,25.99,-5.54,-8.2,-1.58,88,236,10.03219223022461,9.906329154968262
19,-0.42790478467941284,-2.163099765777588,0.028096547350287437,36.7157551,3.1835917,28.46,-5.53,-8.22,-1.59,88,236,10.04565715789795,9.91808795928955
20,-0.48807913064956665,-2.162863254547119,-0.01686329022049904,36.715668,3.1834295,31.36,-5.53,-8.27,-1.59,87,236,10.08568286895752,9.959090232849121
21,-0.48052749037742615,-2.166236162185669,0.03826725855469704,36.715593,3.18329,33.84,-5.53,-8.26,-1.6,87,235,10.074800491333008,9.945356369018555
22,-0.42531299591064453,-2.1640007495880127,0.021049242466688156,36.715518,3.1831499,36.33,-5.5,-8.29,-1.62,87,236,10.085016250610352,9.952780723571777
23,-0.48815762996673584,-2.1641831398010254,-0.017546407878398895,36.7154311,3.1829871,39.25,-5.5,-8.28,-1.62,86,236,10.075901985168457,9.944811820983887
24,-0.47565892338752747,-2.163766384124756,0.030296526849269867,36.7153565,3.1828475,41.75,-5.51,-8.3,-1.62,86,236,10.105052947998047,9.972932815551758
25,-0.43356749415397644,-2.164193868637085,-0.02456139586865902,36.7152691,3.1826839,44.66,-5.51,-8.29,-1.63,85,236,10.09329605102539,9.959450721740723
26,-0.4748355746269226,-2.163336992263794,-0.018820689991116524,36.7151944,3.1825442,47.17,-5.49,-8.27,-1.63,85,236,10.065061569213867,9.93150520324707
27,-0.47803521156311035,-2.165154218673706,0.03745662048459053,36.7151199,3.182405,49.68,-5.52,-8.3,-1.63,84,235,10.10748291015625,9.974702835083008
28,-0.40729251503944397,-2.1643340587615967,-0.027749424800276756,36.7150325,3.1822417,52.6,-5.51,-8.26,-1.63,84,236,10.073176383972168,9.939675331115723
29,-0.25443220138549805,-2.1684420108795166,0.00011706900113495067,36.7149621,3.1821109,54.96,-4.65,-6.94,-1.39,83,235,8.479439735412598,8.364457130432129
30,-0.03976481780409813,-2.155679702758789,0.004242314957082272,36.7149039,3.1820018,56.78,-2.78,-4.29,-0.59,83,236,5.154166221618652,5.119142055511475
31,-0.16576522588729858,-2.1031768321990967,0.021010225638747215,36.7148722,3.181937,57.29,-2.1,-3.7,-0.13,83,239,4.264233589172363,4.262237548828125
32,-0.1455235630273819,-2.0863101482391357,-0.02232011780142784,36.7148404,3.1818653,57.32,-2.02,-3.72,-0.01,82,240,4.23691987991333,4.236885070800781
33,-0.008404680527746677,-2.0907928943634033,0.009972691535949707,36.714815,3.1818078,57.29,-1.6,-2.9,0.1,82,240,3.314739465713501,3.313046455383301
34,0.039387285709381104,-2.3382513523101807,-0.060866694897413254,36.7147966,3.181773,56.37,-1.21,-1.35,1.19,82,226,2.1782431602478027,1.819054126739502
35,-0.026310348883271217,-2.473599433898926,0.02827865071594715,36.7147791,3.1817547,53.75,-1.04,-0.79,1.43,81,218,1.9442110061645508,1.3103030920028687
36,-0.043552152812480927,-2.476787805557251,-0.021193446591496468,36.7147649,3.1817416,51.51,-1.05,-0.84,1.42,81,218,1.962575078010559,1.3510380983352661
37,-0.00955310557037592,-2.4754016399383545,0.011211354285478592,36.7147481,3.1817251,48.89,-1.08,-0.87,1.43,81,218,1.9983046054840088,1.393393635749817
38,-0.05979323759675026,-2.4760053157806396,-0.009923454374074936,36.7147333,3.1817104,46.66,-1.08,-0.88,1.44,80,218,2.014589786529541,1.4013431072235107
39,-0.018590040504932404,-2.4760777950286865,-0.017655426636338234,36.7147161,3.1816934,44.04,-1.08,-0.87,1.45,80,218,2.017557144165039,1.3992129564285278
40,-0.056860920041799545,-2.47635817527771,0.019005103036761284,36.7147014,3.1816787,41.8,-1.07,-0.88,1.45,79,218,2.0155818462371826,1.3945798873901367
41,-0.0068403324112296104,-2.475710868835449,-0.0035990532487630844,36.7146866,3.1816641,39.56,-1.08,-0.88,1.46,79,218,2.025088310241699,1.396842122077942
42,-0.030415605753660202,-2.4760725498199463,0.028960349038243294,36.7146694,3.1816469,36.94,-1.07,-0.88,1.46,79,218,2.0264499187469482,1.394887089729309
43,-0.027718499302864075,-2.4759082794189453,-0.024089224636554718,36.7146546,3.1816322,34.68,-1.08,-0.88,1.46,78,218,2.0287933349609375,1.4011837244033813
44,-0.010599000379443169,-2.475426435470581,0.01938946731388569,36.7146373,3.181615,32.07,-1.07,-0.88,1.47,78,218,2.02889347076416,1.392462968826294
45,-0.05849263072013855,-2.4756219387054443,-0.014312917366623878,36.7146225,3.1816004,29.82,-1.08,-0.88,1.47,78,218,2.034254789352417,1.3978571891784668
46,-0.011321122758090496,-2.475785970687866,-0.00985054112970829,36.7146054,3.1815832,27.19,-1.07,-0.88,1.47,77,218,2.0256829261779785,1.3930635452270508
47,-0.0583002008497715,-2.476072311401367,0.012136866338551044,36.7145906,3.1815685,24.94,-1.07,-0.88,1.47,77,218,2.0277674198150635,1.3931618928909302
48,-0.0050761764869093895,-2.4755730628967285,0.004132573958486319,36.7145758,3.1815537,22.7,-1.07,-0.87,1.47,77,218,2.0274479389190674,1.3875812292099
49,-0.044970422983169556,-2.4773354530334473,0.025018909946084023,36.7145586,3.1815367,20.06,-1.07,-0.87,1.47,76,218,2.0249340534210205,1.3887569904327393
50,-0.12957623600959778,3.129591703414917,-0.14085973799228668,36.7145395,3.1815261,17.96,-1.94,-0.07,1.05,76,179,2.2134079933166504,1.9463410377502441
51,-0.1942298263311386,2.669743776321411,0.006225431337952614,36.7144943,3.181546,17.35,-3.64,1.83,-0.06,75,152,4.083949565887451,4.083433628082275
52,-0.16759386658668518,2.6717917919158936,-0.01761026866734028,36.7144408,3.1815797,17.43,-4.0,2.05,0.03,75,153,4.499324321746826,4.499156475067139
53,-0.01911431923508644,3.0357861518859863,0.23232540488243103,36.714389,3.1816046,17.38,-3.47,0.37,0.05,75,173,3.4988439083099365,3.4984591007232666
54,-0.4412161111831665,-2.1952056884765625,0.10267375409603119,36.7143401,3.1815689,17.36,-3.06,-4.17,0.02,74,234,5.18077278137207,5.180733680725098
55,-0.4671337902545929,-2.1504411697387695,0.034538477659225464,36.7142907,3.1814739,17.36,-4.29,-6.82,0.0,74,236,8.06358528137207,8.063582420349121
56,-0.4810583293437958,-2.152209520339966,-0.01851736754179001,36.7142164,3.1813278,17.37,-4.96,-7.72,0.0,73,236,9.188681602478027,9.188681602478027
57,-0.3325197994709015,-2.152029275894165,0.024783730506896973,36.7141504,3.1812003,17.4,-4.58,-7.08,0.0,73,236,8.442797660827637,8.44279670715332
58,-0.2618623673915863,-2.141493797302246,-0.014404592104256153,36.7140852,3.1810736,17.38,-3.64,-5.8,0.03,73,237,7.021077632904053,7.020995140075684
59,-0.2802272439002991,-2.118316888809204,0.04017336666584015,36.7140383,3.1809777,17.37,-3.36,-5.66,0.01,72,238,6.5865254402160645,6.586511135101318
60,-0.26009076833724976,-2.108308792114258,-0.009665698744356632,36.7139936,3.1808827,17.37,-3.29,-5.66,0.01,72,239,6.550265312194824,6.550251483917236
61,-0.12990769743919373,-2.1084275245666504,0.025139911100268364,36.7139427,3.1807739,17.37,-2.93,-5.04,0.0,71,239,5.83935022354126,5.839350700378418
62,0.1680375337600708,-2.109731674194336,-0.027173776179552078,36.7139113,3.180707,17.34,-1.49,-2.55,0.03,71,239,2.963435649871826,2.9632716178894043
63,0.10100529342889786,-2.1085405349731445,0.022420361638069153,36.713901,3.1806848,17.35,-0.03,-0.07,-0.01,71,239,0.0781543180346489,0.07738657295703888
64,-0.02859503962099552,-2.1109778881073,0.05285950005054474,36.7139025,3.1806868,17.32,0.26,0.0,0.03,70,239,0.2706691324710846,0.2685908377170563
