timestamp,pitch,yaw,roll,lat,lon,alt,velocity_x,velocity_y,velocity_z,battery,heading,airspeed,groundspeed
0,0.022471606731414795,-0.019676830619573593,-0.014375095255672932,36.7156067,3.1846299,16.85,-0.03,0.02,-0.04,96,358,0.05948899686336517,0.041368093341588974
1,-0.06382890790700912,-0.02594110555946827,0.11515231430530548,36.7156074,3.1846318,16.92,0.2,0.49,-0.01,95,358,0.532600462436676,0.5323168635368347
2,-0.20353685319423676,1.610067367553711,-0.10619992017745972,36.7156189,3.1846592,16.88,1.32,2.47,-0.01,95,92,2.806518316268921,2.806475877761841
3,-0.10847845673561096,0.897214949131012,-0.0020942362025380135,36.7156409,3.184709,16.9,1.76,3.25,-0.02,95,51,3.701589345932007,3.701530933380127
4,0.1534302830696106,1.057518482208252,0.04013991355895996,36.7156672,3.1847688,16.91,1.16,2.21,0.0,94,60,2.5001778602600098,2.5001776218414307
5,0.1688341498374939,1.9334787130355835,0.23074999451637268,36.7156683,3.1847749,16.89,-1.24,-1.69,0.0,94,110,2.1009743213653564,2.1009528636932373
6,-0.10326860845088959,-2.4907310009002686,0.03806513175368309,36.7156427,3.1847293,16.93,-2.25,-3.27,-0.01,93,201,3.9734020233154297,3.973378896713257
7,-0.08310145884752274,-2.169240951538086,0.10440145432949066,36.7156082,3.184664,16.92,-1.86,-3.25,0.01,93,235,3.7528696060180664,3.752854347229004
8,-0.1109224334359169,-1.2577017545700073,0.2404986172914505,36.7155989,3.184612,16.9,0.88,-2.79,0.0,93,287,2.9317052364349365,2.931697130203247
9,-0.46050626039505005,-0.6362309455871582,0.061946507543325424,36.7156474,3.1845525,16.9,5.11,-3.61,0.0,92,323,6.259894847869873,6.259894371032715
10,-0.4893728792667389,-0.625399112701416,-0.013394085690379143,36.7157326,3.1844783,16.9,7.24,-5.04,-0.01,92,324,8.825913429260254,8.825905799865723
11,-0.5053837299346924,-0.620015561580658,0.023986870422959328,36.7158544,3.1843721,16.92,7.89,-5.56,0.0,91,324,9.655049324035645,9.655047416687012
12,-0.2827127277851105,-0.6234799027442932,0.004538629669696093,36.7159582,3.1842803,16.95,7.14,-5.09,-0.02,91,324,8.776655197143555,8.776627540588379
13,-0.014244894497096539,-0.6438651084899902,-0.08282001316547394,36.7160406,3.1842069,16.96,4.62,-3.5,0.03,91,323,5.805924892425537,5.805820465087891
14,-0.17168763279914856,-1.6718404293060303,-0.2793632447719574,36.7160773,3.1841469,17.26,-0.27,-3.07,-0.44,90,264,3.117978096008301,3.0866708755493164
15,-0.45864224433898926,-2.152634859085083,-0.014615720137953758,36.716049,3.1840807,18.43,-3.59,-5.06,-1.07,90,236,6.300478458404541,6.2081098556518555
16,-0.45327892899513245,-2.1640312671661377,-0.01479770615696907,36.7159767,3.1839532,20.84,-5.23,-7.57,-1.55,89,236,9.340744972229004,9.209957122802734
17,-0.47690528631210327,-2.164412021636963,-0.03440505266189575,36.7159027,3.1838193,23.3,-5.56,-8.06,-1.58,89,235,9.9308500289917,9.80302906036377
18,-0.48312824964523315,-2.165273904800415,0.030503565445542336,36.7158271,3.1836807,25.75,-5.54,-8.23,-1.58,88,235,10.058978080749512,9.932829856872559
19,-0.428139865398407,-2.164207696914673,-0.020644087344408035,36.7157393,3.1835176,28.63,-5.53,-8.24,-1.6,88,236,10.057257652282715,9.928773880004883
20,-0.48311159014701843,-2.1630585193634033,-0.01893961988389492,36.7156648,3.1833784,31.11,-5.48,-8.24,-1.6,88,236,10.037788391113281,9.908692359924316
21,-0.4361446499824524,-2.1628916263580322,0.028208348900079727,36.7155779,3.1832159,34.0,-5.5,-8.25,-1.63,87,236,10.058972358703613,9.925951957702637
22,-0.43405720591545105,-2.1638214588165283,-0.014576029032468796,36.7155031,3.1830764,36.5,-5.52,-8.27,-1.63,87,236,10.083504676818848,9.95075798034668
23,-0.489774614572525,-2.1642110347747803,-0.01792222075164318,36.7154282,3.1829368,39.0,-5.52,-8.29,-1.63,86,236,10.099546432495117,9.966957092285156
24,-0.43129390478134155,-2.165153741836548,0.02750309556722641,36.7153409,3.1827737,41.92,-5.51,-8.3,-1.63,86,235,10.101460456848145,9.967845916748047
25,-0.4404281973838806,-2.165015697479248,-0.023458125069737434,36.7152664,3.1826336,44.43,-5.49,-8.31,-1.63,85,235,10.104013442993164,9.971067428588867
26,-0.4859682619571686,-2.1635189056396484,0.02600918710231781,36.7151794,3.1824707,47.35,-5.53,-8.29,-1.63,85,236,10.105783462524414,9.972967147827148
27,-0.42981812357902527,-2.1640968322753906,0.027751734480261803,36.7151044,3.1823308,49.85,-5.52,-8.28,-1.63,84,236,10.088085174560547,9.953985214233398
28,-0.4200485944747925,-2.164215564727783,-0.032418251037597656,36.7150173,3.1821682,52.77,-5.42,-8.08,-1.6,84,236,9.862988471984863,9.731925010681152
29,-0.1566796898841858,-2.167288064956665,0.027555322274565697,36.7149504,3.1820441,55.02,-4.25,-6.36,-1.26,83,235,7.760342597961426,7.657334804534912
30,-0.08692703396081924,-2.1449859142303467,-0.004906579852104187,36.7148984,3.1819453,56.53,-2.5,-3.95,-0.46,83,237,4.707171440124512,4.683778285980225
31,-0.13258595764636993,-2.0951223373413086,0.03805985674262047,36.7148685,3.1818824,56.88,-2.05,-3.67,-0.07,83,239,4.211125373840332,4.210460662841797
32,-0.14092124998569489,-2.087083101272583,-0.03182511404156685,36.7148412,3.181821,56.88,-2.01,-3.69,-0.02,82,240,4.210034370422363,4.209985733032227
33,0.06762183457612991,-2.11179256439209,-0.016513217240571976,36.714813,3.1817576,56.77,-1.43,-2.47,0.27,82,239,2.8792409896850586,2.865692377090454
34,-0.008597509935498238,-2.4117603302001953,-0.0483764111995697,36.714796,3.1817291,55.43,-1.14,-1.12,1.4,82,221,2.138115644454956,1.6077874898910522
35,-0.008090944960713387,-2.4630556106567383,-0.013393968343734741,36.7147792,3.1817125,52.76,-1.03,-0.8,1.42,81,218,1.9331483840942383,1.3080830574035645
36,-0.06039614602923393,-2.468773603439331,0.01945340447127819,36.7147651,3.1816991,50.53,-1.05,-0.83,1.43,81,218,1.9663643836975098,1.3458716869354248
37,-0.0099302614107728,-2.4696779251098633,-0.005683915689587593,36.7147507,3.1816849,48.29,-1.06,-0.87,1.44,81,218,1.997948169708252,1.3821685314178467
38,-0.037164583802223206,-2.469899892807007,0.028349611908197403,36.7147338,3.1816678,45.68,-1.06,-0.88,1.45,80,218,2.012779951095581,1.3867923021316528
39,-0.024534618481993675,-2.4693775177001953,-0.025034479796886444,36.7147192,3.1816531,43.43,-1.08,-0.88,1.46,80,218,2.021658182144165,1.3966102600097656
40,-0.008361134678125381,-2.469289541244507,0.014312253333628178,36.7147022,3.181636,40.81,-1.07,-0.88,1.46,79,218,2.0213122367858887,1.3917933702468872
41,-0.05413845181465149,-2.4689958095550537,-0.02446422167122364,36.7146876,3.1816214,38.56,-1.06,-0.88,1.46,79,218,2.0215847492218018,1.3892289400100708
42,-0.013077260926365852,-2.469630241394043,-0.013912301510572433,36.7146706,3.1816043,35.94,-1.07,-0.88,1.47,79,218,2.0254311561584473,1.3918235301971436
43,-0.06009113788604736,-2.4695022106170654,0.008540842682123184,36.7146561,3.1815895,33.69,-1.06,-0.89,1.46,78,218,2.0274579524993896,1.3964955806732178
44,-0.006957023870199919,-2.4695210456848145,-0.004649519454687834,36.7146415,3.1815747,31.45,-1.08,-0.88,1.47,78,218,2.031691074371338,1.398607611656189
45,-0.03540850058197975,-2.469916343688965,0.027200154960155487,36.7146243,3.1815575,28.82,-1.07,-0.87,1.47,78,218,2.0226588249206543,1.3833942413330078
46,-0.026872044429183006,-2.4698493480682373,-0.0245148204267025,36.7146098,3.1815429,26.58,-1.06,-0.88,1.47,77,218,2.0215210914611816,1.380144476890564
47,-0.010301487520337105,-2.4695310592651367,0.017232174053788185,36.7145929,3.1815257,23.96,-1.06,-0.88,1.48,77,218,2.0300369262695312,1.3838878870010376
48,-0.05268145725131035,-2.469090461730957,-0.022790130227804184,36.7145783,3.1815109,21.7,-1.07,-0.88,1.47,77,218,2.0283918380737305,1.3885130882263184
49,-0.030790813267230988,-2.5097007751464844,-0.0563020333647728,36.7145611,3.1814938,19.07,-1.15,-0.83,1.47,76,216,2.0544018745422363,1.4295216798782349
50,-0.2225898802280426,2.917363405227661,-0.09370864182710648,36.7145386,3.1814874,17.19,-2.3,0.41,0.71,76,167,2.447633743286133,2.3410141468048096
51,-0.19412823021411896,2.6779778003692627,-0.009117224253714085,36.7144965,3.181509,16.92,-3.75,1.85,-0.05,75,153,4.189909934997559,4.189483642578125
52,-0.13419531285762787,2.688000202178955,0.0639117956161499,36.714433,3.1815479,16.98,-4.01,1.93,0.05,75,154,4.456200122833252,4.455835342407227
53,-0.04280717670917511,-3.021702289581299,0.2293057143688202,36.7143822,3.1815656,16.93,-3.28,-0.37,0.03,75,186,3.303248405456543,3.3030333518981934
54,-0.4270763695240021,-2.1831254959106445,0.09557373821735382,36.714334,3.1815135,16.92,-3.26,-4.91,0.01,74,234,5.903348922729492,5.9033203125
55,-0.47660842537879944,-2.156780958175659,-0.02542332001030445,36.714281,3.1814094,16.92,-4.49,-7.15,0.0,74,236,8.453800201416016,8.453798294067383
56,-0.4815502464771271,-2.150770902633667,0.0005757021135650575,36.7142161,3.1812821,16.94,-4.92,-7.71,0.0,73,236,9.154275894165039,9.154274940490723
57,-0.27086400985717773,-2.1531543731689453,-0.004529827274382114,36.7141403,3.1811359,16.96,-4.43,-6.82,0.0,73,236,8.138213157653809,8.138209342956543
58,-0.28210923075675964,-2.138733148574829,0.012293059378862381,36.7140861,3.18103,16.94,-3.58,-5.79,0.03,73,237,6.813822269439697,6.813733100891113
59,-0.24972480535507202,-2.1061902046203613,-0.0048286281526088715,36.7140326,3.1809181,16.92,-3.27,-5.64,0.0,72,239,6.524293422698975,6.524287223815918
60,-0.3141056001186371,-2.099853515625,0.002061291830614209,36.7139888,3.180823,16.92,-3.23,-5.67,0.01,72,239,6.536724090576172,6.53671407699585
61,-0.09400753676891327,-2.099853277206421,0.021479124203324318,36.7139465,3.1807308,16.93,-2.84,-4.98,0.0,71,239,5.7426066398620605,5.742606163024902
62,0.13561753928661346,-2.1014699935913086,0.016175901517271996,36.7139137,3.1806594,16.89,-1.07,-1.91,0.0,71,239,2.1951706409454346,2.195159435272217
63,0.09739483892917633,-2.1003382205963135,-0.010201580822467804,36.7139074,3.1806454,16.91,0.0,-0.01,0.0,71,239,0.019563790410757065,0.017071593552827835
64,-0.01141758356243372,-2.1014788150787354,0.14247025549411774,36.7139099,3.1806472,16.87,0.49,-0.16,0.0,70,239,0.5183424353599548,0.5183191895484924
