timestamp,pitch,yaw,roll,lat,lon,alt,velocity_x,velocity_y,velocity_z,battery,heading,airspeed,groundspeed
0,0.020182592794299126,0.03865085169672966,0.021665498614311218,36.7156067,3.1846299,15.47,-0.03,0.02,-0.05,96,2,0.06823529303073883,0.04108676314353943
1,-0.05537406727671623,0.03174198418855667,0.07476066052913666,36.715607,3.1846321,15.5,0.14,0.53,-0.02,95,1,0.5509957075119019,0.5503466129302979
2,-0.19729222357273102,1.7869466543197632,-0.14326776564121246,36.7156148,3.1846623,15.49,0.91,2.85,-0.02,95,102,2.994971513748169,2.994851589202881
3,-0.16943995654582977,1.070013165473938,0.054032694548368454,36.7156306,3.1847229,15.51,1.3,4.13,-0.01,95,61,4.332413196563721,4.332387447357178
4,-0.09505154192447662,1.2327990531921387,-0.02872794307768345,36.715649,3.1847933,15.51,1.33,4.0,0.0,94,70,4.216206073760986,4.216203212738037
5,0.3150925636291504,1.7089478969573975,0.1867491751909256,36.7156609,3.1848449,15.52,-0.32,0.35,-0.04,94,97,0.48229947686195374,0.4806355834007263
6,-0.1811550259590149,-2.8983473777770996,0.17294125258922577,36.7156431,3.1848183,15.54,-2.07,-2.99,0.03,93,193,3.6451480388641357,3.6449310779571533
7,-0.15616680681705475,-2.150475025177002,0.0012025547912344337,36.715608,3.1847536,15.54,-2.26,-3.32,-0.04,93,236,4.025681018829346,4.02546501159668
8,0.002326816087588668,-1.7964307069778442,0.2078050673007965,36.7155855,3.1846985,15.52,-0.68,-3.07,0.03,93,257,3.1476004123687744,3.1473937034606934
9,-0.41025787591934204,-0.6586596965789795,0.11424453556537628,36.7156077,3.1846417,15.5,3.64,-3.03,0.0,92,322,4.741153717041016,4.74114990234375
10,-0.4713662266731262,-0.6155877709388733,0.006356919649988413,36.7156777,3.1845791,15.5,6.48,-4.48,0.0,92,325,7.43419885635376,7.434199333190918
11,-0.5187243223190308,-0.6160639524459839,-0.026640653610229492,36.7157759,3.1844945,15.51,7.79,-5.4,0.0,91,324,9.480728149414062,9.480725288391113
12,-0.4026866853237152,-0.6205338835716248,0.028998497873544693,36.7158997,3.1843862,15.53,7.75,-5.48,-0.01,91,324,9.495729446411133,9.495712280273438
13,-0.13392840325832367,-0.6220055818557739,-0.022249454632401466,36.7159958,3.1843016,15.57,6.09,-4.32,0.01,91,324,7.474370002746582,7.4743475914001465
14,0.09481798112392426,-1.005391240119934,-0.22673973441123962,36.7160625,3.1842338,15.63,1.85,-2.88,-0.18,90,302,3.4363179206848145,3.4314634799957275
15,-0.3914768397808075,-2.115417003631592,-0.12059987336397171,36.7160588,3.1841801,16.35,-2.27,-3.96,-0.77,90,238,4.635875701904297,4.569953441619873
16,-0.4595896303653717,-2.1739728450775146,0.044577665627002716,36.7160104,3.1840936,18.0,-4.55,-6.45,-1.35,89,235,8.016351699829102,7.900757789611816
17,-0.4685673117637634,-2.1632955074310303,-0.04153282940387726,36.7159286,3.1839475,20.71,-5.52,-7.96,-1.61,89,236,9.827497482299805,9.693597793579102
18,-0.49486684799194336,-2.166600465774536,0.02703358605504036,36.7158532,3.1838105,23.18,-5.52,-8.15,-1.58,88,235,9.978925704956055,9.852473258972168
19,-0.425309419631958,-2.163499116897583,-0.006320658139884472,36.7157656,3.1836478,26.06,-5.54,-8.27,-1.59,88,236,10.088403701782227,9.96157455444336
20,-0.4716207981109619,-2.1623921394348145,-0.027718743309378624,36.7156909,3.1835083,28.52,-5.5,-8.24,-1.6,88,236,10.041823387145996,9.912912368774414
21,-0.452944815158844,-2.164635419845581,0.04022641107439995,36.7156038,3.1833461,31.43,-5.54,-8.24,-1.61,87,235,10.066473007202148,9.935685157775879
22,-0.4275129735469818,-2.1654701232910156,-0.009813753888010979,36.7155288,3.1832064,33.92,-5.53,-8.29,-1.62,87,235,10.098265647888184,9.966970443725586
23,-0.4763488471508026,-2.1637818813323975,-0.02310098707675934,36.7154539,3.1830663,36.41,-5.5,-8.29,-1.63,86,236,10.093062400817871,9.960501670837402
24,-0.4408876597881317,-2.1633150577545166,0.030695799738168716,36.7153668,3.1829032,39.33,-5.49,-8.25,-1.63,86,236,10.052277565002441,9.917756080627441
25,-0.4385024905204773,-2.162990093231201,-0.016825184226036072,36.7152926,3.1827641,41.84,-5.52,-8.29,-1.63,85,236,10.100794792175293,9.967609405517578
26,-0.4895857870578766,-2.16352915763855,0.0031046043150126934,36.7152051,3.1826006,44.75,-5.54,-8.28,-1.63,85,236,10.107063293457031,9.973160743713379
27,-0.4356324374675751,-2.165379047393799,0.035592127591371536,36.7151299,3.1824606,47.26,-5.51,-8.27,-1.64,84,235,10.0809326171875,9.945090293884277
28,-0.4370683431625366,-2.1639649868011475,-0.021515533328056335,36.7150555,3.1823209,49.77,-5.49,-8.29,-1.64,84,236,10.08444595336914,9.950167655944824
29,-0.31001588702201843,-2.167691946029663,0.025993850082159042,36.7149709,3.1821631,52.61,-4.97,-7.36,-1.47,83,235,9.011106491088867,8.888750076293945
30,-0.0487101785838604,-2.1653389930725098,0.017130684107542038,36.7149138,3.1820572,54.48,-3.36,-5.03,-0.87,83,235,6.118468761444092,6.054877758026123
31,-0.15322627127170563,-2.1243834495544434,0.03904249146580696,36.714872,3.1819753,55.39,-2.22,-3.7,-0.2,83,238,4.3255934715271,4.320603847503662
32,-0.13598209619522095,-2.10255765914917,-0.01534118503332138,36.7148432,3.1819139,55.49,-2.07,-3.66,0.0,82,239,4.217960357666016,4.21795654296875
33,-0.009262369945645332,-2.102811574935913,0.024298904463648796,36.7148112,3.181844,55.48,-1.8,-3.2,0.0,82,239,3.6746954917907715,3.674684762954712
34,0.015504084527492523,-2.250422239303589,-0.0748187005519867,36.7147911,3.1818036,54.92,-1.24,-1.63,0.89,82,231,2.240032434463501,2.0513076782226562
35,-0.018796447664499283,-2.4864909648895264,0.022374382242560387,36.7147755,3.1817847,52.84,-1.03,-0.81,1.48,81,217,1.9870015382766724,1.3193824291229248
36,-0.06111022084951401,-2.4725654125213623,-0.0010795301059260964,36.7147592,3.1817694,50.22,-1.03,-0.83,1.42,81,218,1.9553685188293457,1.3339184522628784
37,-0.011270464397966862,-2.470301866531372,0.01378178782761097,36.7147449,3.1817555,47.98,-1.06,-0.86,1.44,81,218,1.991129755973816,1.3717119693756104
38,-0.05209769308567047,-2.4706737995147705,0.021505529060959816,36.7147281,3.1817386,45.35,-1.06,-0.89,1.44,80,218,2.003723621368408,1.3871866464614868
39,-0.009885209612548351,-2.469794273376465,-0.013456695713102818,36.7147135,3.1817239,43.12,-1.07,-0.88,1.45,80,218,2.015864849090576,1.3954874277114868
40,-0.05648539587855339,-2.470029592514038,0.017990807071328163,36.7146989,3.1817092,40.88,-1.07,-0.88,1.46,79,218,2.019680976867676,1.3908504247665405
41,-0.03896483778953552,-2.469825029373169,-0.02696685492992401,36.7146819,3.1816922,38.25,-1.06,-0.88,1.46,79,218,2.0213351249694824,1.3892639875411987
42,-0.030588338151574135,-2.4700303077697754,0.02744443528354168,36.7146674,3.1816775,36.01,-1.06,-0.88,1.47,79,218,2.024148464202881,1.3876445293426514
43,-0.06172213330864906,-2.46960186958313,-0.007375311106443405,36.7146503,3.1816603,33.39,-1.07,-0.89,1.47,78,218,2.03115177154541,1.3933908939361572
44,-0.009300753474235535,-2.4698214530944824,0.008989928290247917,36.7146357,3.1816455,31.14,-1.07,-0.88,1.47,78,218,2.0247557163238525,1.386519432067871
45,-0.06305321305990219,-2.4696109294891357,-0.011270015500485897,36.7146211,3.1816309,28.88,-1.07,-0.88,1.47,78,218,2.0261759757995605,1.3924567699432373
46,-0.017020419239997864,-2.4701731204986572,-0.020782221108675003,36.7146041,3.1816137,26.27,-1.06,-0.87,1.48,77,218,2.025733709335327,1.380605936050415
47,-0.061380766332149506,-2.469938278198242,0.015639599412679672,36.7145895,3.1815991,24.02,-1.06,-0.88,1.47,77,218,2.022697687149048,1.3798750638961792
48,-0.04032953083515167,-2.4695980548858643,-0.021306702867150307,36.7145725,3.1815819,21.39,-1.06,-0.88,1.47,76,218,2.024305820465088,1.3869801759719849
49,-0.027650272473692894,-2.469756841659546,0.028202205896377563,36.7145579,3.1815671,19.14,-1.05,-0.87,1.47,76,218,2.0210366249084473,1.3799715042114258
50,-0.08173824846744537,-2.739762544631958,-0.11222013086080551,36.7145421,3.1815532,16.91,-1.45,-0.62,1.4,76,203,2.118013381958008,1.5832738876342773
51,-0.2108081877231598,2.6798675060272217,-0.035553593188524246,36.7145068,3.1815591,15.5,-3.18,1.4,0.07,75,153,3.486614227294922,3.485849380493164
52,-0.20552071928977966,2.680413246154785,-0.01729360781610012,36.7144561,3.1815896,15.58,-4.06,2.02,-0.04,75,153,4.544027805328369,4.543794631958008
53,-0.02365983836352825,2.8530263900756836,0.11627522855997086,36.7143927,3.1816255,15.55,-3.73,1.09,0.05,75,163,3.892939805984497,3.892486333847046
54,-0.344181627035141,-2.3807764053344727,0.21213299036026,36.7143481,3.1816174,15.52,-2.92,-2.48,0.02,74,223,3.8374862670898438,3.837388753890991
55,-0.4763208031654358,-2.1418025493621826,-0.02548566274344921,36.7142959,3.181528,15.52,-3.98,-6.31,0.01,74,237,7.465698719024658,7.465677738189697
56,-0.5070774555206299,-2.148313522338867,0.013940596021711826,36.7142354,3.1814086,15.52,-4.83,-7.64,0.0,73,236,9.039106369018555,9.039106369018555
57,-0.36851102113723755,-2.151202917098999,0.019047223031520844,36.7141688,3.1812789,15.54,-4.87,-7.53,0.0,73,236,8.976519584655762,8.976516723632812
58,-0.26951509714126587,-2.1487884521484375,0.010740390978753567,36.7140982,3.1811426,15.55,-3.98,-6.24,0.02,73,236,7.4048027992248535,7.404751300811768
59,-0.24911268055438995,-2.1222457885742188,0.036236703395843506,36.714049,3.1810436,15.52,-3.41,-5.68,0.02,72,238,6.637747287750244,6.637712478637695
60,-0.3097951114177704,-2.1012022495269775,0.009385095909237862,36.7139971,3.1809326,15.52,-3.22,-5.64,0.01,72,239,6.49998664855957,6.499979019165039
61,-0.19512328505516052,-2.0997509956359863,0.021697398275136948,36.7139534,3.1808374,15.52,-3.16,-5.54,0.0,71,239,6.383898735046387,6.383898735046387
62,0.025204092264175415,-2.1004457473754883,-0.02177092619240284,36.7139156,3.1807551,15.52,-2.21,-3.86,0.03,71,239,4.457564353942871,4.457427501678467
63,0.15435153245925903,-2.1003613471984863,-0.01140603981912136,36.7138958,3.1807118,15.5,-0.39,-0.69,-0.02,71,239,0.7976304888725281,0.7972732782363892
64,-0.02438691258430481,-2.100677013397217,0.01309718657284975,36.713895,3.18071,15.51,0.1,0.15,0.02,70,239,0.18802645802497864,0.18676955997943878
