timestamp,pitch,yaw,roll,lat,lon,alt,velocity_x,velocity_y,velocity_z,battery,heading,airspeed,groundspeed
0,-0.016223689541220665,0.038623105734586716,0.0216994546353817,36.7156066,3.1846299,23.91,-0.02,0.02,-0.15,96,2,0.1634223759174347,0.03575005754828453
1,-0.1180226132273674,0.0817025825381279,0.07998330891132355,36.7156088,3.1846331,23.99,0.52,0.63,-0.06,95,4,0.8294796943664551,0.8267900943756104
2,-0.21015435457229614,1.1870296001434326,-0.07818391919136047,36.7156258,3.1846574,24.04,2.09,2.43,-0.09,95,68,3.211644411087036,3.210249900817871
3,-0.22540050745010376,0.872273325920105,-0.003784132655709982,36.7156613,3.1847088,24.01,3.0,3.41,0.0,95,49,4.5487213134765625,4.548718452453613
4,-0.031813882291316986,0.8478240370750427,-0.031535666435956955,36.7157095,3.1847758,24.0,2.83,3.16,0.0,94,48,4.254281520843506,4.254280090332031
5,0.33344030380249023,0.6352900266647339,-0.06750717014074326,36.7157354,3.1848095,24.0,0.47,0.24,-0.04,94,36,0.5414018630981445,0.5395804643630981
6,-0.06258487701416016,-0.9532014727592468,-0.25280600786209106,36.715723,3.1847833,24.01,-1.98,-2.87,0.02,93,305,3.489772319793701,3.4896492958068848
7,-0.10551267117261887,-2.417266845703125,0.03005782701075077,36.7156879,3.18472,24.02,-2.26,-3.25,-0.05,93,221,3.969904661178589,3.9695167541503906
8,-0.039625588804483414,-1.9107307195663452,0.15866917371749878,36.7156637,3.1846654,24.0,-0.95,-3.06,0.04,93,250,3.210613965988159,3.2102909088134766
9,-0.361286997795105,-0.6694192290306091,0.07384954392910004,36.7156808,3.1846089,23.98,3.32,-2.94,0.0,92,321,4.439274311065674,4.43927001953125
10,-0.5213479399681091,-0.6123374104499817,0.03426230326294899,36.7157465,3.1845491,23.98,6.26,-4.35,0.0,92,324,7.630286693572998,7.630282878875732
11,-0.49194300174713135,-0.6150325536727905,-0.023061886429786682,36.7158601,3.1844508,24.0,7.82,-5.42,0.0,91,324,9.517096519470215,9.517096519470215
12,-0.45949786901474,-0.620638370513916,0.0026624510064721107,36.7159671,3.1843573,24.02,7.8,-5.52,0.0,91,324,9.565417289733887,9.565412521362305
13,-0.1652485877275467,-0.6217542886734009,0.02817653678357601,36.7160647,3.1842712,24.06,6.31,-4.47,0.01,91,324,7.743290424346924,7.743266582489014
14,0.05164279043674469,-0.9045804142951965,-0.19858421385288239,36.7161364,3.1842014,24.09,2.3,-2.93,-0.13,90,308,3.7350869178771973,3.7327191829681396
15,-0.3224531412124634,-2.1020188331604004,-0.12542518973350525,36.7161383,3.184149,24.73,-1.96,-3.76,-0.71,90,239,4.306577682495117,4.247278690338135
16,-0.494072824716568,-2.1705844402313232,0.0368918739259243,36.7160824,3.1840483,26.64,-4.63,-6.58,-1.37,89,235,8.171355247497559,8.054357528686523
17,-0.4477103352546692,-2.1654410362243652,0.026943683624267578,36.7160122,3.1839235,28.96,-5.51,-7.93,-1.6,89,235,9.794439315795898,9.661775588989258
18,-0.4853241741657257,-2.166074752807617,-0.017518682405352592,36.7159243,3.1837637,31.84,-5.55,-8.2,-1.57,88,235,10.032151222229004,9.9079008102417
19,-0.4760856032371521,-2.1655995845794678,0.03504437953233719,36.7158492,3.1836244,34.3,-5.52,-8.22,-1.58,88,235,10.039446830749512,9.913841247558594
20,-0.4235572814941406,-2.163774013519287,0.01607772521674633,36.7157741,3.1834849,36.77,-5.51,-8.2,-1.59,88,236,10.01425552368164,9.88711929321289
21,-0.48845750093460083,-2.1664249897003174,-0.007233059499412775,36.7156868,3.1833229,39.65,-5.56,-8.24,-1.61,87,235,10.078153610229492,9.94843578338623
22,-0.46558278799057007,-2.1660239696502686,0.03083205595612526,36.7156116,3.1831832,42.15,-5.53,-8.29,-1.62,87,235,10.097379684448242,9.96629524230957
23,-0.4472988247871399,-2.166949987411499,-0.024345528334379196,36.7155245,3.1830207,45.07,-5.52,-8.29,-1.61,86,235,10.100775718688965,9.970868110656738
24,-0.4935425817966461,-2.164341449737549,-0.0076843928545713425,36.7154497,3.1828806,47.56,-5.49,-8.24,-1.61,86,236,10.038107872009277,9.907022476196289
25,-0.46161773800849915,-2.165621757507324,0.037617649883031845,36.7153749,3.1827411,50.05,-5.54,-8.25,-1.64,85,235,10.084100723266602,9.949481010437012
26,-0.4370049834251404,-2.165907382965088,-0.027182739228010178,36.7152872,3.1825781,52.98,-5.55,-8.29,-1.63,85,235,10.120055198669434,9.987208366394043
27,-0.49656951427459717,-2.1653528213500977,-0.0014630951918661594,36.7152126,3.1824388,55.48,-5.52,-8.32,-1.62,84,235,10.127323150634766,9.995879173278809
28,-0.42843395471572876,-2.164245367050171,0.016558820381760597,36.7151252,3.1822753,58.4,-5.52,-8.27,-1.63,84,236,10.085124015808105,9.950980186462402
29,-0.3133608400821686,-2.1683804988861084,-0.026680361479520798,36.7150518,3.1821391,60.84,-5.08,-7.52,-1.51,83,235,9.20375919342041,9.07894515991211
30,-0.05076385289430618,-2.1660072803497314,0.03580765426158905,36.7149849,3.1820153,63.04,-3.26,-4.91,-0.83,83,235,5.95993709564209,5.901384353637695
31,-0.14231891930103302,-2.1214706897735596,-0.004726129118353128,36.7149492,3.1819451,63.84,-2.21,-3.72,-0.25,83,238,4.347040176391602,4.339771270751953
32,-0.15950286388397217,-2.088062286376953,0.033746834844350815,36.7149212,3.1818835,63.97,-2.0,-3.67,-0.01,82,240,4.180351734161377,4.180337905883789
33,-0.06582806259393692,-2.0871756076812744,-0.010875949636101723,36.7148899,3.1818126,63.96,-1.81,-3.34,-0.01,82,240,3.8063454627990723,3.806312322616577
34,0.05349711701273918,-2.207223415374756,-0.031070079654455185,36.7148696,3.1817693,63.53,-1.25,-1.77,0.75,82,233,2.301612138748169,2.173207998275757
35,-0.05156799405813217,-2.4866819381713867,0.005019905511289835,36.7148514,3.1817465,61.16,-1.03,-0.8,1.47,81,217,1.9786144495010376,1.3142467737197876
36,-0.01243736781179905,-2.472599983215332,-0.006312723737210035,36.7148374,3.1817335,58.91,-1.04,-0.81,1.41,81,218,1.9415032863616943,1.3240631818771362
37,-0.03825772926211357,-2.470137119293213,0.02804885059595108,36.7148207,3.1817172,56.3,-1.05,-0.86,1.43,80,218,1.981091856956482,1.3651118278503418
38,-0.03549754619598389,-2.4703752994537354,-0.02262752503156662,36.7148062,3.1817027,54.06,-1.07,-0.87,1.45,80,218,2.0077569484710693,1.3868308067321777
39,-0.04610629752278328,-2.4698257446289062,0.028943749144673347,36.7147917,3.1816882,51.81,-1.06,-0.88,1.45,80,218,2.005570888519287,1.384320616722107
40,-0.06177289038896561,-2.4696967601776123,-0.010756466537714005,36.7147748,3.1816711,49.2,-1.06,-0.89,1.45,79,218,2.017247438430786,1.3924529552459717
41,-0.01583334617316723,-2.4693288803100586,0.025728024542331696,36.7147602,3.1816564,46.95,-1.06,-0.88,1.46,79,218,2.0193588733673096,1.3857507705688477
42,-0.057652052491903305,-2.4701688289642334,0.01953149400651455,36.7147431,3.1816392,44.33,-1.06,-0.88,1.47,79,218,2.0177950859069824,1.3811711072921753
43,-0.010503747500479221,-2.469973087310791,-0.006137729622423649,36.7147285,3.1816246,42.09,-1.07,-0.88,1.47,78,218,2.0254290103912354,1.3909780979156494
44,-0.0595557801425457,-2.4701988697052,0.010319191962480545,36.7147139,3.1816099,39.84,-1.06,-0.88,1.47,78,218,2.0261149406433105,1.3863933086395264
45,-0.038232188671827316,-2.4699032306671143,-0.024475587531924248,36.7146969,3.1815928,37.21,-1.06,-0.87,1.47,78,218,2.0195651054382324,1.3779336214065552
46,-0.04077579826116562,-2.470198392868042,0.030048904940485954,36.7146823,3.181578,34.96,-1.06,-0.88,1.47,77,218,2.0186736583709717,1.3808178901672363
47,-0.05811035633087158,-2.4699394702911377,-0.007076677400618792,36.7146653,3.1815608,32.35,-1.07,-0.89,1.48,77,218,2.0354580879211426,1.3953797817230225
48,-0.016959546133875847,-2.469451904296875,0.019748393446207047,36.7146507,3.1815461,30.09,-1.06,-0.87,1.47,76,218,2.020209789276123,1.379163146018982
49,-0.05435014143586159,-2.4698166847229004,-0.018162311986088753,36.7146362,3.1815315,27.83,-1.06,-0.88,1.46,76,218,2.021695613861084,1.3881052732467651
50,-0.06498011946678162,-2.807157278060913,-0.10253403335809708,36.7146176,3.1815154,25.24,-1.51,-0.56,1.36,76,199,2.115415573120117,1.6189314126968384
51,-0.26204007863998413,2.6960716247558594,-0.031425587832927704,36.7145875,3.1815199,24.0,-3.02,1.26,0.16,75,154,3.286473512649536,3.2824246883392334
52,-0.17017652094364166,2.6806704998016357,-0.03259384632110596,36.7145289,3.1815547,24.06,-4.06,2.03,-0.03,75,153,4.550271034240723,4.550150394439697
53,-0.05946085974574089,2.8015758991241455,0.1470368355512619,36.7144746,3.1815863,24.03,-3.8,1.31,0.06,75,160,4.0258259773254395,4.025356292724609
54,-0.26586005091667175,-2.478304147720337,0.20046427845954895,36.7144288,3.1815839,24.0,-2.94,-2.08,0.02,74,218,3.614109754562378,3.613997220993042
55,-0.4629407823085785,-2.140016794204712,0.027854181826114655,36.7143779,3.1815006,24.0,-3.82,-6.1,0.01,74,237,7.204986095428467,7.204963207244873
56,-0.4568460285663605,-2.1485023498535156,-0.0306402500718832,36.7143185,3.1813835,24.01,-4.82,-7.58,0.0,73,236,8.986881256103516,8.9868803024292
57,-0.38359352946281433,-2.1508755683898926,0.022359782829880714,36.7142408,3.1812324,24.03,-4.83,-7.5,0.0,73,236,8.930283546447754,8.930281639099121
58,-0.23037128150463104,-2.148754596710205,-0.002264387207105756,36.7141802,3.1811154,24.03,-4.07,-6.33,0.02,73,236,7.53603982925415,7.535981178283691
59,-0.28770047426223755,-2.1202633380889893,0.04313710704445839,36.7141225,3.1809995,24.0,-3.38,-5.65,0.02,72,238,6.5948052406311035,6.5947699546813965
60,-0.25301483273506165,-2.101505994796753,-0.0060646445490419865,36.714078,3.1809044,24.0,-3.23,-5.64,0.0,72,239,6.502941131591797,6.5029377937316895
61,-0.2617778182029724,-2.100059986114502,-0.003941576927900314,36.7140342,3.1808091,24.0,-3.19,-5.61,0.0,71,239,6.4646897315979,6.4646897315979
62,0.08132246881723404,-2.100849151611328,-0.025436239317059517,36.7139904,3.1807135,24.0,-2.11,-3.69,0.03,71,239,4.256259441375732,4.2560882568359375
63,0.12252014130353928,-2.10048770904541,0.02208724431693554,36.7139731,3.1806759,23.98,-0.49,-0.88,-0.02,71,239,1.0179651975631714,1.0177431106567383
64,-0.015757758170366287,-2.1006505489349365,-0.011915459297597408,36.713972,3.1806731,23.98,0.11,0.14,0.03,70,239,0.19195802509784698,0.1895795613527298
