timestamp,pitch,yaw,roll,lat,lon,alt,velocity_x,velocity_y,velocity_z,battery,heading,airspeed,groundspeed
0,0.024497633799910545,0.003927741665393114,0.010012977756559849,36.7156066,3.18463,21.85,-0.03,0.02,-0.06,96,0,0.07972406595945358,0.03899551182985306
1,-0.08943482488393784,0.0180683396756649,0.11300209909677505,36.7156085,3.1846325,21.82,0.47,0.53,-0.04,95,1,0.7150202989578247,0.7136322855949402
2,-0.1942523717880249,1.1168299913406372,-0.08519008010625839,36.7156243,3.1846522,21.85,1.91,1.93,-0.04,95,63,2.7247941493988037,2.724473476409912
3,-0.10229460895061493,0.8162695169448853,-0.027108291164040565,36.7156617,3.1846989,21.86,2.58,2.57,-0.01,95,46,3.648002862930298,3.647965431213379
4,0.11449480056762695,0.7428933382034302,-0.020310746505856514,36.7156943,3.1847378,21.85,1.77,1.59,0.0,94,42,2.388169050216675,2.3881590366363525
5,0.04523860290646553,-0.6101487278938293,-0.34279540181159973,36.7156998,3.184736,21.88,-1.2,-1.97,-0.01,94,325,2.3131682872772217,2.313143730163574
6,-0.13076342642307281,-2.3325371742248535,0.05401327461004257,36.7156685,3.1846782,21.85,-2.34,-3.34,-0.05,93,226,4.083191394805908,4.082854747772217
7,-0.08171536773443222,-2.0296943187713623,0.07619468867778778,36.7156386,3.1846214,21.9,-1.8,-3.23,0.03,93,243,3.7028064727783203,3.7026500701904297
8,-0.27078327536582947,-0.8857433795928955,0.1677435040473938,36.7156357,3.1845623,21.85,1.96,-2.77,0.0,93,309,3.4007833003997803,3.400777578353882
9,-0.504498302936554,-0.6207264065742493,0.023021472617983818,36.7156865,3.1845088,21.85,5.43,-3.77,0.0,92,324,6.619923114776611,6.619919776916504
10,-0.4885726571083069,-0.6179882884025574,0.027545969933271408,36.715775,3.1844324,21.86,7.4,-5.08,0.0,92,324,8.982987403869629,8.98298454284668
11,-0.5045652389526367,-0.6160777807235718,-0.018894847482442856,36.7158979,3.1843259,21.88,7.94,-5.55,0.0,91,324,9.688522338867188,9.688521385192871
12,-0.29613351821899414,-0.6215376257896423,0.03259456902742386,36.7160009,3.1842352,21.91,7.04,-4.99,-0.01,91,324,8.637667655944824,8.637660026550293
13,0.03552575036883354,-0.7034374475479126,-0.14052020013332367,36.7160899,3.184155,21.91,3.75,-3.19,0.0,91,319,4.926485538482666,4.926480770111084
14,-0.1585744023323059,-1.5291109085083008,-0.26003435254096985,36.7161125,3.1841134,22.16,0.1,-3.0,-0.38,90,272,3.0310261249542236,3.0061397552490234
15,-0.4557783901691437,-2.1610007286071777,-0.05020870268344879,36.7160804,3.1840357,23.53,-3.8,-5.28,-1.11,90,236,6.606261253356934,6.510931491851807
16,-0.4686298370361328,-2.16756010055542,0.036768507212400436,36.7160059,3.1839048,26.0,-5.33,-7.65,-1.56,89,235,9.457633972167969,9.32650089263916
17,-0.42687544226646423,-2.166517972946167,0.0018316946225240827,36.715931,3.1837698,28.46,-5.54,-8.07,-1.58,89,235,9.926864624023438,9.799199104309082
18,-0.4914436936378479,-2.1665780544281006,0.010709504596889019,36.7158434,3.1836082,31.32,-5.53,-8.25,-1.58,88,235,10.063145637512207,9.936946868896484
19,-0.45003774762153625,-2.163633108139038,0.038638826459646225,36.7157683,3.1834684,33.79,-5.52,-8.27,-1.6,88,236,10.076888084411621,9.948565483093262
20,-0.4653589427471161,-2.161813497543335,-0.03333720564842224,36.7156811,3.1833053,36.69,-5.5,-8.24,-1.6,87,236,10.043145179748535,9.914678573608398
21,-0.4920237958431244,-2.1631526947021484,0.01461466308683157,36.7156065,3.1831661,39.18,-5.49,-8.24,-1.61,87,236,10.0389986038208,9.908441543579102
22,-0.44906777143478394,-2.1636455059051514,0.038427140563726425,36.7155318,3.1830269,41.66,-5.53,-8.29,-1.63,87,236,10.101561546325684,9.968379020690918
23,-0.46773192286491394,-2.1652050018310547,-0.02390465885400772,36.7154444,3.1828637,44.59,-5.51,-8.28,-1.62,86,235,10.083905220031738,9.951752662658691
24,-0.4885408878326416,-2.16618013381958,0.021735988557338715,36.7153698,3.1827239,47.09,-5.51,-8.3,-1.62,86,235,10.100113868713379,9.967822074890137
25,-0.42468133568763733,-2.1668052673339844,-0.0028283880092203617,36.7152826,3.1825607,50.0,-5.53,-8.31,-1.64,85,235,10.125235557556152,9.990323066711426
26,-0.4601799547672272,-2.1646904945373535,-0.02500728704035282,36.7152077,3.1824206,52.51,-5.52,-8.29,-1.64,85,235,10.099824905395508,9.965654373168945
27,-0.4520527720451355,-2.1637730598449707,0.03425193205475807,36.7151207,3.1822576,55.44,-5.5,-8.27,-1.63,84,236,10.075353622436523,9.941655158996582
28,-0.3498334586620331,-2.1641993522644043,-0.0068111359141767025,36.7150465,3.182119,57.93,-5.38,-7.99,-1.59,84,236,9.765157699584961,9.633705139160156
29,-0.1471998691558838,-2.1681106090545654,-0.010723277926445007,36.7149808,3.1819974,60.13,-4.13,-6.14,-1.2,83,235,7.504400730133057,7.4068450927734375
30,-0.050536323338747025,-2.144970178604126,0.013519338332116604,36.7149304,3.1819018,61.54,-2.44,-3.86,-0.41,83,237,4.589548587799072,4.570981979370117
31,-0.17047546803951263,-2.108232021331787,0.004090934991836548,36.7149004,3.1818395,61.83,-2.09,-3.66,-0.05,83,239,4.223669528961182,4.22332763671875
32,-0.11939474195241928,-2.102776050567627,0.028332484886050224,36.7148723,3.1817782,61.83,-2.07,-3.69,-0.02,82,239,4.235936641693115,4.235884666442871
33,0.03222908079624176,-2.136605739593506,-0.011883812956511974,36.7148437,3.1817165,61.69,-1.42,-2.31,0.34,82,237,2.7423501014709473,2.7207672595977783
34,0.03174621984362602,-2.4336822032928467,-0.038565441966056824,36.7148267,3.1816901,60.21,-1.14,-1.03,1.44,82,220,2.119769811630249,1.5472486019134521
35,-0.04242105409502983,-2.4648029804229736,0.029282113537192345,36.7148101,3.181674,57.55,-1.02,-0.8,1.43,81,218,1.9400992393493652,1.3087663650512695
36,-0.033599335700273514,-2.468731641769409,-0.023482177406549454,36.714796,3.1816604,55.31,-1.05,-0.86,1.44,81,218,1.9846738576889038,1.3645015954971313
37,-0.0174770075827837,-2.468900203704834,0.01856544427573681,36.7147792,3.1816437,52.69,-1.07,-0.87,1.44,81,218,2.001878023147583,1.3843166828155518
38,-0.056821491569280624,-2.469493865966797,-0.014598753303289413,36.7147646,3.1816291,50.46,-1.07,-0.88,1.45,80,218,2.018040895462036,1.3933316469192505
39,-0.02588609978556633,-2.4691836833953857,0.030565738677978516,36.7147501,3.1816145,48.21,-1.06,-0.88,1.46,80,218,2.016037702560425,1.3857182264328003
40,-0.06366045027971268,-2.4696273803710938,0.010225942358374596,36.7147332,3.1815973,45.59,-1.06,-0.88,1.46,79,218,2.015803337097168,1.384035348892212
41,-0.012370853684842587,-2.469031572341919,0.006477355491369963,36.7147186,3.1815826,43.35,-1.08,-0.88,1.47,79,218,2.0336484909057617,1.3987833261489868
42,-0.03568872809410095,-2.4697909355163574,0.027023369446396828,36.7147014,3.1815653,40.73,-1.06,-0.88,1.47,79,218,2.024060010910034,1.3825207948684692
43,-0.023916063830256462,-2.4697372913360596,-0.025236288085579872,36.7146868,3.1815507,38.47,-1.06,-0.87,1.47,78,218,2.0206899642944336,1.3815720081329346
44,-0.05460447445511818,-2.4698033332824707,0.02404187247157097,36.7146723,3.1815361,36.23,-1.05,-0.88,1.47,78,218,2.0186750888824463,1.3734312057495117
45,-0.05315811559557915,-2.4693424701690674,-0.01777578331530094,36.7146553,3.1815189,33.61,-1.06,-0.9,1.48,78,218,2.038226842880249,1.3996055126190186
46,-0.022481687366962433,-2.4695630073547363,0.02659706398844719,36.7146407,3.181504,31.35,-1.06,-0.87,1.47,77,218,2.0182862281799316,1.377197504043579
47,-0.06181086227297783,-2.4696366786956787,0.0068025547079741955,36.7146236,3.181487,28.73,-1.05,-0.87,1.47,77,218,2.016378164291382,1.3739726543426514
48,-0.014008106663823128,-2.469066858291626,0.012168332934379578,36.7146091,3.1814724,26.48,-1.06,-0.87,1.48,77,218,2.0232253074645996,1.3772574663162231
49,-0.07457051426172256,-2.5421440601348877,-0.02890550158917904,36.7145919,3.1814552,23.85,-1.19,-0.82,1.47,76,214,2.066525459289551,1.4476802349090576
50,-0.19397853314876556,2.8459789752960205,-0.11934691667556763,36.7145681,3.1814506,22.06,-2.43,0.59,0.59,76,163,2.5799782276153564,2.509836196899414
51,-0.2306046485900879,2.670457601547241,0.024247808381915092,36.7145247,3.1814743,21.88,-3.79,1.88,-0.04,75,153,4.243748188018799,4.24350118637085
52,-0.10511397570371628,2.6959030628204346,0.029270969331264496,36.7144617,3.1815137,21.93,-3.92,1.82,0.06,75,154,4.3318586349487305,4.331367015838623
53,-0.09995581954717636,-2.892206907272339,0.3024861216545105,36.7144127,3.1815269,21.88,-3.13,-0.79,0.03,75,194,3.2346901893615723,3.2344701290130615
54,-0.4941616356372833,-2.1781654357910156,0.044752784073352814,36.7143642,3.1814663,21.87,-3.41,-5.27,0.02,74,235,6.282505989074707,6.2824578285217285
55,-0.48289912939071655,-2.1575098037719727,0.040390096604824066,36.7143093,3.1813584,21.87,-4.58,-7.3,0.0,74,236,8.619956016540527,8.619955062866211
56,-0.4234805703163147,-2.1517014503479004,-0.018035415560007095,36.714244,3.18123,21.89,-4.95,-7.7,0.0,73,236,9.16364574432373,9.16364574432373
57,-0.3181971609592438,-2.1521108150482178,0.022217098623514175,36.7141693,3.1810859,21.9,-4.35,-6.73,0.01,73,236,8.017189979553223,8.017175674438477
58,-0.23554810881614685,-2.1369941234588623,0.006444310303777456,36.7141159,3.1809814,21.88,-3.6,-5.74,0.02,73,237,6.784687042236328,6.784635543823242
59,-0.2882736027240753,-2.1140072345733643,0.03403187170624733,36.7140617,3.1808695,21.87,-3.29,-5.62,0.0,72,238,6.517477512359619,6.517475605010986
60,-0.25517117977142334,-2.1079628467559814,-0.004829465877264738,36.7140173,3.1807746,21.87,-3.26,-5.64,0.0,72,239,6.523401260375977,6.523398399353027
61,-0.05528270825743675,-2.1087863445281982,0.0246963482350111,36.7139689,3.1806713,21.87,-2.6,-4.45,0.01,71,239,5.1598124504089355,5.159799098968506
62,0.1703038215637207,-2.1093082427978516,-0.025393826887011528,36.7139443,3.1806187,21.84,-0.95,-1.63,0.0,71,239,1.8915714025497437,1.891565203666687
63,0.03986996039748192,-2.108889102935791,0.022700034081935883,36.7139394,3.1806079,21.87,0.05,0.05,0.0,71,239,0.07498108595609665,0.07480015605688095
64,-0.03792491555213928,-2.099923610687256,0.10512522608041763,36.7139427,3.1806092,21.82,0.63,-0.27,0.0,70,239,0.6933444142341614,0.6932821869850159
