timestamp,pitch,yaw,roll,lat,lon,alt,velocity_x,velocity_y,velocity_z,battery,heading,airspeed,groundspeed
0,0.030378825962543488,0.0007341934251599014,0.014276144094765186,36.7156066,3.1846299,19.32,-0.03,0.03,0.05,96,0,0.07087186723947525,0.045883357524871826
1,-0.10933765769004822,-0.005342849995940924,0.05621927231550217,36.7156081,3.1846314,19.29,0.42,0.37,0.0,95,359,0.5637794733047485,0.5637707114219666
2,-0.23452645540237427,0.789699137210846,-0.06113286316394806,36.7156293,3.1846519,19.25,2.45,1.82,-0.03,95,45,3.060255765914917,3.060084819793701
3,-0.16711688041687012,0.6640613079071045,0.013791946694254875,36.7156702,3.1846897,19.3,3.41,2.49,-0.04,95,38,4.225520133972168,4.225278854370117
4,-0.006277770269662142,0.6268391013145447,-0.016882935538887978,36.7157238,3.184738,19.34,2.98,2.13,-0.02,94,35,3.668327808380127,3.668252944946289
5,0.22040681540966034,-0.19724737107753754,-0.326139897108078,36.7157475,3.1847528,19.34,0.01,-0.82,0.01,94,348,0.8287834525108337,0.8287006616592407
6,-0.20881997048854828,-1.7874928712844849,-0.0707688257098198,36.7157296,3.1847145,19.37,-2.28,-3.18,-0.03,93,257,3.9196393489837646,3.919492483139038
7,-0.12670347094535828,-2.077133893966675,0.016957242041826248,36.7156928,3.1846485,19.37,-2.24,-3.32,0.01,93,240,4.016824245452881,4.016798496246338
8,-0.02303599938750267,-1.574951171875,0.27243489027023315,36.7156743,3.1845944,19.35,-0.01,-2.94,0.01,93,269,2.9463717937469482,2.9463484287261963
9,-0.4459022283554077,-0.6578797101974487,0.08909809589385986,36.7157095,3.1845364,19.35,4.42,-3.29,0.0,92,322,5.511974334716797,5.511974334716797
10,-0.4775519073009491,-0.6280120015144348,0.02026405744254589,36.7157876,3.1844676,19.36,6.91,-4.77,0.0,92,324,8.400693893432617,8.400691986083984
11,-0.5136902332305908,-0.6196908950805664,-0.007864491082727909,36.7159069,3.1843642,19.37,7.89,-5.53,0.0,91,324,9.645709991455078,9.645710945129395
12,-0.3532373309135437,-0.6219877600669861,0.02457212284207344,36.7160126,3.1842707,19.4,7.47,-5.3,-0.02,91,324,9.16933536529541,9.169310569763184
13,-0.048951342701911926,-0.6273447275161743,-0.04315222054719925,36.7161017,3.1841915,19.42,5.37,-3.86,0.04,91,324,6.6201558113098145,6.6199870109558105
14,-0.014238225296139717,-1.3236175775527954,-0.28318631649017334,36.7161531,3.1841288,19.58,0.74,-2.91,-0.3,90,284,3.0205330848693848,3.0051357746124268
15,-0.4245957136154175,-2.1262261867523193,-0.09023381024599075,36.7161362,3.1840692,20.54,-3.02,-4.52,-0.93,90,238,5.520247936248779,5.441246032714844
16,-0.44981861114501953,-2.161597490310669,0.008362378925085068,36.7160694,3.1839519,22.78,-5.08,-7.25,-1.49,89,236,8.981618881225586,8.856623649597168
17,-0.44375917315483093,-2.163581609725952,-0.03860105946660042,36.715996,3.1838202,25.19,-5.53,-8.04,-1.6,89,236,9.89216423034668,9.760551452636719
18,-0.49413323402404785,-2.164372444152832,0.016542859375476837,36.7159207,3.1836824,27.65,-5.54,-8.22,-1.58,88,236,10.045405387878418,9.919587135314941
19,-0.4217502772808075,-2.1646084785461426,-0.0021735457703471184,36.7158327,3.1835194,30.53,-5.53,-8.24,-1.6,88,235,10.062383651733398,9.934104919433594
20,-0.4728403091430664,-2.1624085903167725,-0.02978619560599327,36.7157582,3.1833801,33.01,-5.48,-8.25,-1.59,88,236,10.039387702941895,9.911173820495605
21,-0.4431937336921692,-2.165919542312622,0.03884110227227211,36.7156711,3.1832177,35.91,-5.54,-8.26,-1.61,87,235,10.084152221679688,9.95387077331543
22,-0.4371519982814789,-2.1646289825439453,-0.014214999042451382,36.7155965,3.1830782,38.41,-5.52,-8.3,-1.61,87,235,10.10466194152832,9.974061965942383
23,-0.4831094443798065,-2.164879560470581,0.024356165900826454,36.7155092,3.1829148,41.32,-5.52,-8.29,-1.62,86,235,10.101015090942383,9.968804359436035
24,-0.43494874238967896,-2.165548324584961,0.03545932471752167,36.7154343,3.1827753,43.82,-5.51,-8.28,-1.63,86,235,10.087990760803223,9.9548978805542
25,-0.4379015266895294,-2.16618275642395,-0.022089717909693718,36.7153597,3.1826354,46.32,-5.51,-8.31,-1.63,85,235,10.110837936401367,9.9779052734375
26,-0.4813072085380554,-2.163825273513794,0.02216460555791855,36.7152725,3.1824721,49.23,-5.5,-8.27,-1.64,85,236,10.074660301208496,9.939408302307129
27,-0.42792609333992004,-2.164499282836914,0.020203011110424995,36.7151976,3.1823325,51.74,-5.51,-8.28,-1.64,84,235,10.089333534240723,9.953662872314453
28,-0.45809483528137207,-2.1629271507263184,-0.023533198982477188,36.7151104,3.1821693,54.67,-5.49,-8.24,-1.63,84,236,10.043036460876465,9.909772872924805
29,-0.23100097477436066,-2.168335199356079,0.031158950179815292,36.7150407,3.1820398,57.02,-4.62,-6.87,-1.37,83,235,8.397689819335938,8.283845901489258
30,-0.04496655613183975,-2.1601309776306152,-0.007603297475725412,36.7149896,3.1819439,58.64,-2.98,-4.54,-0.69,83,236,5.4788618087768555,5.434427738189697
31,-0.1255757063627243,-2.1012277603149414,0.0413140133023262,36.7149515,3.1818668,59.31,-2.12,-3.68,-0.12,83,239,4.259531021118164,4.257812023162842
32,-0.15399594604969025,-2.085509777069092,-0.02629687823355198,36.714924,3.1818052,59.34,-2.0,-3.68,0.0,82,240,4.1904802322387695,4.19047737121582
33,0.03807327151298523,-2.0919790267944336,-0.009707282297313213,36.7148942,3.181738,59.3,-1.56,-2.84,0.12,82,240,3.2499327659606934,3.2475228309631348
34,-0.012103631161153316,-2.3409876823425293,-0.053046371787786484,36.7148763,3.1817041,58.33,-1.18,-1.33,1.22,82,225,2.1629819869995117,1.7824233770370483
35,-0.011393052525818348,-2.466521739959717,-0.018210357055068016,36.7148614,3.1816882,56.09,-1.03,-0.8,1.45,81,218,1.9577490091323853,1.3116053342819214
36,-0.05263717845082283,-2.4706740379333496,0.028804145753383636,36.714845,3.1816728,53.48,-1.03,-0.83,1.43,81,218,1.9564063549041748,1.32907235622406
37,-0.017278427258133888,-2.4705917835235596,-0.017076797783374786,36.7148307,3.1816588,51.24,-1.06,-0.88,1.44,81,218,1.9990041255950928,1.3834375143051147
38,-0.01820182614028454,-2.4699740409851074,0.023884421214461327,36.7148138,3.1816418,48.62,-1.07,-0.88,1.45,80,218,2.008171319961548,1.3888683319091797
39,-0.04008585214614868,-2.4695823192596436,-0.022537920624017715,36.7147992,3.1816271,46.38,-1.07,-0.89,1.45,80,218,2.0213139057159424,1.4010839462280273
40,-0.010008485056459904,-2.469952344894409,-0.006869202479720116,36.7147823,3.18161,43.75,-1.07,-0.89,1.46,79,218,2.0186147689819336,1.3930871486663818
41,-0.05863302946090698,-2.4697909355163574,0.0022357902489602566,36.7147676,3.1815953,41.51,-1.06,-0.89,1.46,79,218,2.021669626235962,1.3919905424118042
42,-0.011552522890269756,-2.4703705310821533,0.00322163593955338,36.7147531,3.1815807,39.27,-1.07,-0.87,1.47,79,218,2.0212936401367188,1.384207844734192
43,-0.03996458277106285,-2.4698057174682617,0.02430996298789978,36.7147361,3.1815634,36.66,-1.06,-0.88,1.48,78,218,2.0281734466552734,1.3825266361236572
44,-0.0254463292658329,-2.4698681831359863,-0.02391737513244152,36.7147215,3.1815487,34.4,-1.07,-0.88,1.48,78,218,2.034998893737793,1.3926317691802979
45,-0.011997681111097336,-2.469788074493408,0.013625439256429672,36.7147045,3.1815316,31.77,-1.07,-0.88,1.48,78,218,2.0307576656341553,1.3898780345916748
46,-0.05563570186495781,-2.4701361656188965,-0.01602328196167946,36.7146899,3.1815169,29.52,-1.06,-0.88,1.47,77,218,2.0280709266662598,1.3880783319473267
47,-0.013926326297223568,-2.4701452255249023,-0.014020963571965694,36.7146729,3.1814997,26.9,-1.06,-0.88,1.47,77,218,2.026153087615967,1.3867567777633667
48,-0.061589110642671585,-2.4696154594421387,0.006570833269506693,36.7146584,3.181485,24.64,-1.06,-0.88,1.47,76,218,2.0262696743011475,1.3904979228973389
49,-0.00975142139941454,-2.4699323177337646,-0.005212633870542049,36.7146437,3.1814703,22.39,-1.08,-0.88,1.47,76,218,2.0315232276916504,1.3992716073989868
50,-0.14186972379684448,3.1108555793762207,-0.07695552706718445,36.7146218,3.1814577,19.94,-1.97,-0.03,1.02,76,178,2.2238807678222656,1.9713863134384155
51,-0.23395302891731262,2.6747665405273438,-0.04171420633792877,36.7145842,3.1814732,19.35,-3.53,1.72,-0.04,75,153,3.928959369659424,3.9286766052246094
52,-0.12814471125602722,2.6798696517944336,0.017746569588780403,36.7145218,3.1815114,19.44,-4.05,2.03,0.04,75,153,4.54064416885376,4.540441989898682
53,-0.055145908147096634,3.030050754547119,0.19192780554294586,36.7144693,3.1815361,19.39,-3.51,0.38,0.04,75,173,3.5339531898498535,3.5336101055145264
54,-0.3530016839504242,-2.2076125144958496,0.13833844661712646,36.7144271,3.1815111,19.37,-2.98,-3.52,0.01,74,233,4.613340377807617,4.613306045532227
55,-0.5189385414123535,-2.150550603866577,0.012913412414491177,36.7143708,3.1814059,19.37,-4.28,-6.81,0.01,74,236,8.0513916015625,8.051382064819336
56,-0.44853103160858154,-2.148181676864624,0.021591808646917343,36.7143076,3.1812815,19.38,-4.91,-7.7,0.0,73,236,9.137306213378906,9.137306213378906
57,-0.3526029586791992,-2.1515703201293945,-0.01835056208074093,36.7142309,3.1811328,19.4,-4.61,-7.12,0.0,73,236,8.487297058105469,8.48729419708252
58,-0.23090201616287231,-2.14444637298584,0.0392426960170269,36.7141738,3.1810223,19.39,-3.77,-5.94,0.02,73,237,7.037153244018555,7.03710412979126
59,-0.2971957325935364,-2.118253469467163,7.036221359157935e-05,36.7141182,3.1809094,19.37,-3.35,-5.64,0.0,72,238,6.563819885253906,6.563815593719482
60,-0.2688009738922119,-2.1082653999328613,0.028894148766994476,36.7140737,3.1808145,19.37,-3.26,-5.63,0.0,72,239,6.5092902183532715,6.509287357330322
61,-0.1677526831626892,-2.1091065406799316,-0.02556251920759678,36.7140297,3.1807206,19.37,-3.08,-5.27,0.0,71,239,6.111130714416504,6.111130714416504
62,0.18456706404685974,-2.109498977661133,0.004443054087460041,36.7139914,3.1806389,19.35,-1.5,-2.58,0.02,71,239,2.991020441055298,2.990872383117676
63,0.07662579417228699,-2.108750581741333,-0.008203873410820961,36.7139813,3.180617,19.36,-0.16,-0.28,-0.02,71,239,0.3303162753582001,0.32968759536743164
64,0.008008353412151337,-2.1090006828308105,0.04956815391778946,36.7139824,3.180618,19.33,0.27,0.02,0.03,70,239,0.2752155661582947,0.27271953225135803
