timestamp,pitch,yaw,roll,lat,lon,alt,velocity_x,velocity_y,velocity_z,battery,heading,airspeed,groundspeed
0,-0.003694370621815324,-0.05185110494494438,-0.027997830882668495,36.7156064,3.1846302,11.79,0.0,0.0,-0.74,98,357,0.7446529269218445,0.002536032348871231
1,-0.023238180205225945,-0.053578995168209076,0.13979469239711761,36.7156069,3.1846326,12.36,0.14,0.55,-0.14,97,356,0.5889897346496582,0.5712913870811462
2,-0.23574508726596832,1.800927996635437,-0.08860110491514206,36.7156142,3.1846654,12.48,0.84,3.06,-0.02,97,103,3.1763813495635986,3.176316738128662
3,-0.186506986618042,1.116005778312683,0.00488327769562602,36.7156287,3.1847289,12.4,1.18,4.3,0.05,97,63,4.459967136383057,4.459675312042236
4,0.00490441732108593,1.2630540132522583,0.011298646219074726,36.7156476,3.1848131,12.28,1.09,3.91,0.04,96,72,4.062749862670898,4.062515735626221
5,0.24833551049232483,1.8087964057922363,0.2217869609594345,36.7156546,3.1848542,12.23,-0.41,0.33,-0.03,96,103,0.530324399471283,0.5292403697967529
6,-0.13789209723472595,-2.798074722290039,0.1435181349515915,36.7156359,3.1848267,12.23,-2.07,-3.02,0.02,95,199,3.6704156398773193,3.670297384262085
7,-0.12120682746171951,-2.1952428817749023,0.05513712391257286,36.715601,3.1847616,12.25,-2.24,-3.33,-0.05,95,234,4.024758815765381,4.024444580078125
8,-0.0336744450032711,-1.7899487018585205,0.15733695030212402,36.7155791,3.1847065,12.22,-0.65,-3.07,0.02,95,257,3.1465325355529785,3.1464004516601562
9,-0.3472009599208832,-0.6571829319000244,0.08125373721122742,36.7156027,3.1846494,12.2,3.7,-3.06,-0.01,94,322,4.807573318481445,4.807546615600586
10,-0.5312196612358093,-0.6215381622314453,0.0033655064180493355,36.7156732,3.184586,12.2,6.51,-4.53,0.0,94,324,7.933215618133545,7.933212757110596
11,-0.5077616572380066,-0.6173068881034851,0.027044469490647316,36.7157713,3.1845012,12.22,7.79,-5.43,-0.01,93,324,9.50202751159668,9.502020835876465
12,-0.41766491532325745,-0.6206327080726624,-0.03219205141067505,36.7158954,3.1843922,12.24,7.68,-5.46,-0.02,93,324,9.426961898803711,9.426928520202637
13,-0.15006569027900696,-0.6249443888664246,0.02879256382584572,36.71599,3.184308,12.27,5.93,-4.25,0.01,93,324,7.305395126342773,7.305369853973389
14,0.03614204004406929,-1.0407285690307617,-0.26766395568847656,36.7160538,3.1842412,12.35,1.66,-2.88,-0.2,92,300,3.3355600833892822,3.32919979095459
15,-0.340928852558136,-2.1248767375946045,-0.0731881782412529,36.7160477,3.1841865,13.11,-2.4,-4.04,-0.81,92,238,4.7778401374816895,4.708593845367432
16,-0.5113120079040527,-2.1606624126434326,-0.008775702677667141,36.7159872,3.184079,15.16,-4.81,-6.86,-1.43,91,236,8.508445739746094,8.386619567871094
17,-0.4632495939731598,-2.165599822998047,0.042839109897613525,36.7159156,3.183951,17.54,-5.51,-7.98,-1.61,91,235,9.836085319519043,9.702386856079102
18,-0.4344865679740906,-2.1646342277526855,0.0027072892989963293,36.7158406,3.1838141,20.0,-5.54,-8.2,-1.58,90,235,10.026378631591797,9.90048599243164
19,-0.4890933036804199,-2.165055274963379,0.009697508998215199,36.7157528,3.183651,22.87,-5.54,-8.25,-1.59,90,235,10.075362205505371,9.94852352142334
20,-0.4497070908546448,-2.1630351543426514,0.036509864032268524,36.7156779,3.1835114,25.35,-5.51,-8.23,-1.6,89,236,10.038491249084473,9.908957481384277
21,-0.4687711000442505,-2.1671900749206543,-0.02797902189195156,36.7155907,3.1833494,28.24,-5.52,-8.26,-1.61,89,235,10.074531555175781,9.943517684936523
22,-0.4984270930290222,-2.1657466888427734,0.013898574747145176,36.7155159,3.1832097,30.74,-5.51,-8.3,-1.62,89,235,10.10152530670166,9.970355987548828
23,-0.43633729219436646,-2.1633410453796387,0.030284162610769272,36.7154413,3.1830696,33.24,-5.5,-8.28,-1.63,88,236,10.076417922973633,9.943690299987793
24,-0.4749782681465149,-2.1627395153045654,-0.0303170308470726,36.7153544,3.1829069,36.14,-5.53,-8.27,-1.63,88,236,10.089262962341309,9.95522403717041
25,-0.48586493730545044,-2.1677637100219727,0.030516192317008972,36.7152792,3.1827671,38.65,-5.53,-8.29,-1.64,87,235,10.111471176147461,9.97707462310791
26,-0.42664289474487305,-2.1636271476745605,-0.013714810833334923,36.715192,3.1826037,41.58,-5.47,-8.29,-1.63,87,236,10.069799423217773,9.936617851257324
27,-0.48126697540283203,-2.1628525257110596,-0.020892083644866943,36.7151177,3.1824642,44.08,-5.52,-8.28,-1.62,86,236,10.087641716003418,9.955194473266602
28,-0.4365310072898865,-2.1642580032348633,0.03126344084739685,36.7150303,3.1823012,47.0,-5.55,-8.31,-1.65,86,235,10.136001586914062,10.001057624816895
29,-0.2600811719894409,-2.1675074100494385,-0.01876153238117695,36.7149579,3.1821667,49.42,-4.9,-7.29,-1.46,85,235,8.910582542419434,8.788901329040527
30,-0.09978006780147552,-2.16534423828125,0.020149795338511467,36.7149023,3.182063,51.25,-3.26,-4.92,-0.84,85,235,5.971634387969971,5.911802768707275
31,-0.1325833946466446,-2.111025810241699,-0.009382135234773159,36.7148616,3.1819823,52.11,-2.18,-3.72,-0.19,85,239,4.319311141967773,4.314835548400879
32,-0.16176944971084595,-2.086719274520874,0.032480861991643906,36.7148338,3.1819206,52.2,-2.0,-3.67,0.0,84,240,4.185673236846924,4.185666561126709
33,-0.03617251291871071,-2.087045669555664,-0.020535558462142944,36.7148031,3.1818509,52.19,-1.71,-3.15,0.02,84,240,3.589167594909668,3.5890748500823975
34,0.0345475971698761,-2.2623538970947266,-0.028469249606132507,36.7147838,3.1818117,51.55,-1.23,-1.55,0.97,84,230,2.212672710418701,1.986592173576355
35,-0.030742637813091278,-2.4862985610961914,-0.027814030647277832,36.7147684,3.1817934,49.43,-1.04,-0.81,1.48,83,217,1.9867990016937256,1.323668360710144
36,-0.01049270760267973,-2.472264528274536,-0.0032519386149942875,36.714752,3.1817779,46.8,-1.05,-0.82,1.42,83,218,1.9558464288711548,1.337114930152893
37,-0.0655098408460617,-2.469907522201538,0.00296129216440022,36.7147378,3.181764,44.57,-1.06,-0.87,1.44,82,218,1.9947311878204346,1.3749128580093384
38,-0.03272630274295807,-2.46995210647583,-0.025029752403497696,36.7147208,3.1817471,41.95,-1.07,-0.88,1.45,82,218,2.0121750831604004,1.3935810327529907
39,-0.044358983635902405,-2.469636917114258,0.030703229829669,36.7147063,3.1817325,39.7,-1.06,-0.88,1.45,82,218,2.003516435623169,1.38005530834198
40,-0.024693496525287628,-2.469417095184326,-0.02274755761027336,36.7146917,3.1817178,37.46,-1.07,-0.88,1.45,81,218,2.0159237384796143,1.3909181356430054
41,-0.013580592349171638,-2.4692344665527344,0.01775266043841839,36.7146747,3.1817007,34.85,-1.07,-0.87,1.47,81,218,2.0225729942321777,1.3842586278915405
42,-0.054669227451086044,-2.4694197177886963,-0.01882036402821541,36.7146601,3.181686,32.6,-1.06,-0.89,1.47,81,218,2.0244646072387695,1.3910490274429321
43,-0.013931449502706528,-2.4701285362243652,-0.009855398908257484,36.7146431,3.1816688,29.98,-1.07,-0.88,1.47,80,218,2.026662826538086,1.3895033597946167
44,-0.06093510612845421,-2.469317674636841,0.006882751826196909,36.7146285,3.1816541,27.74,-1.05,-0.89,1.48,80,218,2.0311026573181152,1.3877067565917969
45,-0.04088195785880089,-2.469594955444336,-0.023771174252033234,36.7146115,3.1816369,25.11,-1.07,-0.89,1.48,79,218,2.033587694168091,1.3923060894012451
46,-0.03558363765478134,-2.469606637954712,0.031155161559581757,36.7145969,3.1816222,22.85,-1.05,-0.88,1.47,79,218,2.0176546573638916,1.3769896030426025
47,-0.030176986008882523,-2.4697725772857666,-0.02252904698252678,36.7145823,3.1816075,20.61,-1.07,-0.88,1.48,79,218,2.032494306564331,1.3910975456237793
48,-0.006323494948446751,-2.4690797328948975,0.012610468082129955,36.7145653,3.1815903,17.99,-1.06,-0.87,1.48,78,218,2.0212767124176025,1.376025676727295
49,-0.0589202418923378,-2.4691503047943115,-0.013069035485386848,36.7145507,3.1815756,15.73,-1.05,-0.89,1.47,78,218,2.0222089290618896,1.3839210271835327
50,-0.0929543599486351,-2.963681936264038,-0.12522734701633453,36.7145311,3.1815607,13.17,-1.7,-0.37,1.25,78,190,2.1509451866149902,1.7455673217773438
51,-0.2497292011976242,2.676100969314575,-0.009035564959049225,36.7144978,3.1815698,12.2,-3.26,1.47,0.03,77,153,3.5866281986236572,3.586416006088257
52,-0.18846414983272552,2.679088830947876,-0.02623344212770462,36.7144373,3.1816065,12.3,-4.06,2.03,0.0,77,153,4.547521591186523,4.547520160675049
53,-0.03718103468418121,2.883653402328491,0.1801060140132904,36.7143836,3.1816359,12.26,-3.7,0.95,0.05,77,165,3.8226869106292725,3.8222694396972656
54,-0.33354833722114563,-2.321500778198242,0.14041489362716675,36.7143395,3.1816242,12.23,-2.96,-2.71,0.02,76,226,4.023338794708252,4.023256778717041
55,-0.45519888401031494,-2.140026807785034,0.02465331368148327,36.7142863,3.1815312,12.23,-4.04,-6.42,0.01,76,237,7.597407341003418,7.597396373748779
56,-0.4721239507198334,-2.148303270339966,-0.030797282233834267,36.7142252,3.1814106,12.24,-4.84,-7.66,0.0,75,236,9.066527366638184,9.06652545928955
57,-0.35337984561920166,-2.1511664390563965,0.02415580302476883,36.714148,3.1812603,12.26,-4.76,-7.35,-0.01,75,236,8.762519836425781,8.762514114379883
58,-0.2215280681848526,-2.147547721862793,-0.010705436579883099,36.7140887,3.1811458,12.26,-3.94,-6.15,0.02,75,236,7.312525272369385,7.312465667724609
59,-0.2991863787174225,-2.1207053661346436,0.02520916797220707,36.7140398,3.1810473,12.23,-3.39,-5.68,0.01,74,238,6.615569114685059,6.615545272827148
60,-0.27074161171913147,-2.1013638973236084,-0.020451728254556656,36.7139881,3.1809364,12.23,-3.22,-5.64,0.0,74,239,6.4997124671936035,6.499709129333496
61,-0.22934290766716003,-2.1000263690948486,0.016004549339413643,36.7139445,3.1808414,12.23,-3.12,-5.49,0.0,73,239,6.3187103271484375,6.318709373474121
62,0.1124877855181694,-2.10054087638855,-0.02615201473236084,36.713903,3.1807511,12.22,-1.84,-3.22,0.03,73,239,3.7151715755462646,3.714975357055664
63,0.13252423703670502,-2.1003165245056152,0.027322454378008842,36.7138891,3.1807207,12.21,-0.33,-0.59,-0.02,73,239,0.6863824129104614,0.6859618425369263
64,-0.027438024058938026,-2.1012485027313232,0.03499292582273483,36.7138891,3.1807201,12.2,0.15,0.11,0.03,72,239,0.1939706951379776,0.18990644812583923
