timestamp,pitch,yaw,roll,lat,lon,alt,velocity_x,velocity_y,velocity_z,battery,heading,airspeed,groundspeed
0,0.027369963005185127,-0.037119265645742416,0.0097158532589674,36.7156066,3.1846299,23.86,-0.02,0.02,-0.16,96,357,0.16537028551101685,0.04094734415411949
1,-0.05853796750307083,-0.04410029202699661,0.08287728577852249,36.7156072,3.1846318,23.93,0.16,0.48,-0.05,95,357,0.5127720236778259,0.5102475881576538
2,-0.21707700192928314,1.6811878681182861,-0.14288416504859924,36.7156163,3.1846593,23.97,1.12,2.62,-0.04,95,96,2.851484537124634,2.8512039184570312
3,-0.16269603371620178,0.9795138239860535,0.04447515308856964,36.7156361,3.1847157,23.96,1.67,3.88,-0.01,95,56,4.231346607208252,4.231326103210449
4,-0.061182573437690735,1.1266943216323853,0.028196949511766434,36.715663,3.1847933,23.94,1.61,3.7,0.0,94,64,4.044419288635254,4.044418811798096
5,0.32644951343536377,1.4431331157684326,0.10160230100154877,36.7156764,3.1848341,23.94,-0.07,0.47,-0.04,94,82,0.48322367668151855,0.4814179837703705
6,-0.11183695495128632,-2.8969128131866455,0.14358001947402954,36.7156561,3.1848013,23.94,-2.12,-3.07,0.05,93,194,3.7388691902160645,3.7383952140808105
7,-0.16631855070590973,-2.0014102458953857,-0.004060846753418446,36.7156263,3.1847464,23.96,-2.26,-3.3,-0.05,93,245,4.005930423736572,4.005565643310547
8,0.003929246217012405,-1.8363107442855835,0.1581420600414276,36.7156024,3.1846912,23.94,-0.89,-3.09,0.03,93,254,3.2237701416015625,3.2235522270202637
9,-0.36937233805656433,-0.6612885594367981,0.1287805736064911,36.7156201,3.1846343,23.92,3.35,-2.96,0.0,92,322,4.475767135620117,4.475763320922852
10,-0.48498398065567017,-0.6138168573379517,-0.020243318751454353,36.7156867,3.1845735,23.92,6.29,-4.38,0.0,92,324,7.673727035522461,7.673727035522461
11,-0.5101083517074585,-0.619076132774353,0.03135305643081665,36.7158006,3.1844748,23.94,7.81,-5.45,0.0,91,324,9.53110122680664,9.531098365783691
12,-0.39512765407562256,-0.623063325881958,-0.002290703123435378,36.7159073,3.1843811,23.95,7.75,-5.5,-0.01,91,324,9.510757446289062,9.510741233825684
13,-0.18638518452644348,-0.6248025298118591,-0.016536451876163483,36.7160036,3.1842955,23.99,6.21,-4.44,0.01,91,324,7.639021396636963,7.639005184173584
14,0.09988623857498169,-0.9514191746711731,-0.24045228958129883,36.7160735,3.1842259,24.03,2.15,-2.93,-0.15,90,305,3.6426925659179688,3.639514446258545
15,-0.3766655921936035,-2.1057791709899902,-0.08995341509580612,36.7160732,3.1841729,24.71,-2.08,-3.84,-0.74,90,239,4.438013553619385,4.375722885131836
16,-0.46653521060943604,-2.1643035411834717,-0.033366672694683075,36.7160162,3.1840702,26.66,-4.68,-6.68,-1.39,89,236,8.282533645629883,8.16370964050293
17,-0.5026767253875732,-2.1640775203704834,-0.0028975808527320623,36.7159457,3.1839445,29.0,-5.5,-7.99,-1.6,89,236,9.839753150939941,9.7081880569458
18,-0.45263105630874634,-2.1649043560028076,0.035414405167102814,36.7158703,3.1838071,31.46,-5.53,-8.15,-1.58,88,235,9.984601020812988,9.857221603393555
19,-0.46076515316963196,-2.16372013092041,-0.030328018590807915,36.7157824,3.1836447,34.33,-5.54,-8.24,-1.59,88,236,10.062849044799805,9.93541431427002
20,-0.4907599687576294,-2.1636736392974854,0.012472989968955517,36.7157076,3.1835053,36.81,-5.51,-8.27,-1.59,88,236,10.073838233947754,9.946090698242188
21,-0.42603275179862976,-2.1634936332702637,-0.00017022907559294254,36.7156205,3.1833426,39.71,-5.5,-8.24,-1.61,87,236,10.044906616210938,9.913484573364258
22,-0.47177016735076904,-2.1638169288635254,-0.03136914595961571,36.7155459,3.1832032,42.2,-5.51,-8.27,-1.62,87,236,10.071429252624512,9.940230369567871
23,-0.44668126106262207,-2.165379762649536,0.03965960815548897,36.7154585,3.1830401,45.12,-5.53,-8.29,-1.63,86,235,10.106215476989746,9.973633766174316
24,-0.4285307824611664,-2.1630685329437256,-0.012892136350274086,36.7153838,3.1829002,47.61,-5.51,-8.28,-1.63,86,236,10.0842924118042,9.95101261138916
25,-0.480745404958725,-2.165972948074341,-0.019138572737574577,36.7153091,3.1827605,50.11,-5.52,-8.26,-1.63,85,235,10.074365615844727,9.940250396728516
26,-0.45575588941574097,-2.164928674697876,0.042617566883563995,36.715222,3.1825979,53.04,-5.53,-8.32,-1.63,85,235,10.129693031311035,9.996397972106934
27,-0.43055030703544617,-2.163896322250366,-0.020918959751725197,36.7151472,3.1824574,55.54,-5.52,-8.31,-1.64,84,236,10.113260269165039,9.979227066040039
28,-0.4826316237449646,-2.1646838188171387,0.024915307760238647,36.7150598,3.1822943,58.46,-5.51,-8.27,-1.64,84,235,10.077509880065918,9.941893577575684
29,-0.2745671570301056,-2.1681835651397705,0.022918039932847023,36.714987,3.1821591,60.9,-5.02,-7.46,-1.5,83,235,9.12693977355957,9.002187728881836
30,-0.10181387513875961,-2.1643800735473633,0.014025638811290264,36.7149219,3.1820375,63.05,-3.18,-4.82,-0.79,83,236,5.833083152770996,5.778858184814453
31,-0.11508584022521973,-2.116312265396118,0.02275337092578411,36.7148869,3.181968,63.79,-2.21,-3.72,-0.23,83,238,4.338619232177734,4.3323588371276855
32,-0.17185328900814056,-2.086503267288208,-0.012516244314610958,36.7148588,3.1819061,63.91,-1.99,-3.66,0.0,82,240,4.1738176345825195,4.173811435699463
33,-0.008938783779740334,-2.0870931148529053,-0.01746409945189953,36.7148277,3.1818359,63.9,-1.78,-3.28,0.0,82,240,3.7380402088165283,3.738039255142212
34,0.007100434973835945,-2.2235493659973145,-0.03794921562075615,36.7148077,3.1817938,63.4,-1.22,-1.69,0.83,82,232,2.2476673126220703,2.0855329036712646
35,-0.036099135875701904,-2.485006332397461,-0.02741103619337082,36.7147898,3.1817721,60.98,-1.03,-0.8,1.47,81,217,1.9721577167510986,1.312986969947815
36,-0.031803395599126816,-2.4725894927978516,0.02763241156935692,36.7147758,3.1817589,58.73,-1.04,-0.81,1.42,81,218,1.9473286867141724,1.3260098695755005
37,-0.03746096044778824,-2.47052001953125,-0.023374872282147408,36.7147615,3.1817451,56.5,-1.05,-0.86,1.43,81,218,1.987406611442566,1.3698103427886963
38,-0.008888034150004387,-2.470040798187256,0.0061773802153766155,36.7147447,3.1817282,53.88,-1.06,-0.88,1.45,80,218,2.008338212966919,1.3849560022354126
39,-0.05816526338458061,-2.469453811645508,-0.015553326345980167,36.7147301,3.1817136,51.64,-1.07,-0.88,1.45,80,218,2.0159964561462402,1.396121859550476
40,-0.020261550322175026,-2.470165491104126,-0.02164551429450512,36.7147131,3.1816965,49.02,-1.07,-0.88,1.46,79,218,2.0213065147399902,1.3939059972763062
41,-0.05458375811576843,-2.470008373260498,0.015868347138166428,36.7146985,3.1816818,46.78,-1.06,-0.88,1.47,79,218,2.0238633155822754,1.3858658075332642
42,-0.013269564136862755,-2.4705069065093994,-0.01619645021855831,36.7146839,3.1816672,44.53,-1.06,-0.89,1.47,79,218,2.028571128845215,1.391951322555542
43,-0.026620546355843544,-2.4695615768432617,0.027402285486459732,36.714667,3.1816501,41.91,-1.06,-0.88,1.47,78,218,2.0259766578674316,1.3875422477722168
44,-0.04400559142231941,-2.4697742462158203,-0.02372628264129162,36.7146524,3.1816353,39.66,-1.06,-0.88,1.48,78,218,2.030362606048584,1.388923168182373
45,-0.01112166978418827,-2.469733953475952,-0.0014351601712405682,36.7146354,3.1816181,37.04,-1.06,-0.87,1.47,78,218,2.0259177684783936,1.3846715688705444
46,-0.06010899320244789,-2.4700565338134766,0.00046011703670956194,36.7146207,3.1816034,34.78,-1.06,-0.89,1.47,77,218,2.028635025024414,1.3935848474502563
47,-0.02794688008725643,-2.470491647720337,-0.022524317726492882,36.7146038,3.1815863,32.17,-1.07,-0.88,1.48,77,218,2.0294458866119385,1.385035753250122
48,-0.05430060625076294,-2.4699249267578125,0.02291892282664776,36.7145892,3.1815715,29.91,-1.06,-0.88,1.47,76,218,2.0269222259521484,1.385696291923523
49,-0.01772591471672058,-2.470227003097534,-0.02185005135834217,36.7145746,3.1815568,27.66,-1.06,-0.88,1.47,76,218,2.02500319480896,1.389324426651001
50,-0.07538475841283798,-2.8618991374969482,-0.0719444528222084,36.7145557,3.1815411,25.07,-1.58,-0.49,1.33,76,196,2.130335807800293,1.663632869720459
51,-0.26119381189346313,2.686084508895874,-0.05942932888865471,36.7145245,3.1815474,23.93,-3.13,1.34,0.11,75,153,3.410276412963867,3.4082398414611816
52,-0.14302930235862732,2.67970871925354,-0.011474895291030407,36.7144654,3.1815827,24.01,-4.07,2.03,-0.01,75,153,4.559943199157715,4.559904098510742
53,-0.07081310451030731,2.8236098289489746,0.13497062027454376,36.714411,3.1816138,23.97,-3.78,1.21,0.06,75,161,3.9780170917510986,3.977557897567749
54,-0.3425847589969635,-2.2722601890563965,0.11880141496658325,36.7143591,3.1816009,23.94,-2.93,-2.98,0.02,74,229,4.185606479644775,4.185549259185791
55,-0.4935457408428192,-2.141528367996216,0.030598200857639313,36.7143143,3.1815218,23.94,-3.9,-6.21,0.01,74,237,7.340553283691406,7.340527057647705
56,-0.4457055926322937,-2.14668607711792,0.008200042881071568,36.7142546,3.1814038,23.95,-4.8,-7.62,0.0,73,237,9.01740837097168,9.01740837097168
57,-0.39186525344848633,-2.1512415409088135,0.0018998492741957307,36.7141769,3.1812526,23.96,-4.82,-7.45,-0.01,73,236,8.880496978759766,8.88049030303955
58,-0.22052344679832458,-2.148287057876587,0.0292817410081625,36.7141166,3.1811364,23.97,-4.01,-6.25,0.02,73,236,7.435408592224121,7.435369968414307
59,-0.3000859022140503,-2.1190879344940186,0.020144501700997353,36.7140595,3.1810214,23.94,-3.37,-5.68,0.01,72,238,6.612046718597412,6.6120285987854
60,-0.25144943594932556,-2.1015501022338867,0.01847086474299431,36.7140151,3.1809261,23.94,-3.22,-5.62,0.0,72,239,6.485090732574463,6.485087871551514
61,-0.2227766364812851,-2.1003904342651367,0.009356416761875153,36.7139644,3.1808157,23.94,-3.09,-5.44,0.0,71,239,6.261528015136719,6.261528015136719
62,0.11010535806417465,-2.1013219356536865,-0.0075620790012180805,36.7139283,3.1807371,23.93,-2.04,-3.55,0.04,71,239,4.098020553588867,4.09782600402832
63,0.10812133550643921,-2.1007583141326904,-0.0011245458154007792,36.7139121,3.1807017,23.92,-0.45,-0.8,-0.02,71,239,0.9207165241241455,0.9204001426696777
64,0.005222164560109377,-2.1008834838867188,-0.007931365631520748,36.7139113,3.1806995,23.92,0.12,0.14,0.03,70,239,0.19467873871326447,0.19133253395557404
