timestamp,pitch,yaw,roll,lat,lon,alt,velocity_x,velocity_y,velocity_z,battery,heading,airspeed,groundspeed
0,0.027469972148537636,-0.0381578728556633,-0.01727149821817875,36.7156064,3.1846303,12.29,0.0,0.0,-0.89,98,357,0.8983319997787476,0.01145747397094965
1,-0.06861995905637741,-0.04503688961267471,0.1133618876338005,36.7156072,3.1846321,13.03,0.24,0.48,-0.17,97,357,0.5747603178024292,0.5485935807228088
2,-0.25949662923812866,1.628522276878357,-0.1318158507347107,36.7156197,3.1846613,13.17,1.48,2.79,-0.06,97,93,3.166531562805176,3.1658241748809814
3,-0.18749111890792847,0.9043906331062317,0.018150128424167633,36.7156452,3.1847209,13.1,2.13,4.11,0.04,97,51,4.641556739807129,4.641376495361328
4,-0.0714804157614708,1.0490851402282715,0.028162963688373566,36.7156804,3.1848029,13.02,2.12,3.94,0.02,96,60,4.48499059677124,4.484921932220459
5,0.31535661220550537,1.1480188369750977,0.016184598207473755,36.7157012,3.1848512,12.97,0.46,1.09,-0.03,96,65,1.1890113353729248,1.1886191368103027
6,0.004928282927721739,2.5954935550689697,0.2768882215023041,36.7156906,3.1848346,12.98,-1.82,-2.61,-0.01,95,148,3.1835858821868896,3.183544397354126
7,-0.16472092270851135,-1.9744629859924316,-0.01474075485020876,36.7156568,3.1847728,12.97,-2.22,-3.24,-0.09,95,246,3.938119888305664,3.9370639324188232
8,-0.007977068424224854,-2.0237884521484375,0.0994831994175911,36.7156306,3.184718,12.98,-1.29,-3.12,0.03,95,244,3.385061740875244,3.3849055767059326
9,-0.32203927636146545,-0.7167831659317017,0.15330064296722412,36.7156389,3.1846611,12.95,2.7,-2.82,0.0,94,318,3.9138882160186768,3.913879632949829
10,-0.4991111755371094,-0.6059238910675049,-0.0284250620752573,36.7156979,3.1846048,12.95,5.89,-4.09,0.0,94,325,7.175394058227539,7.175393581390381
11,-0.5417987108230591,-0.6161311268806458,0.021489784121513367,36.7157904,3.184525,12.97,7.59,-5.24,-0.01,93,324,9.229924201965332,9.229917526245117
12,-0.4400312304496765,-0.619758129119873,-0.01965511217713356,36.7159142,3.1844172,12.98,7.87,-5.54,0.0,93,324,9.63261604309082,9.632613182067871
13,-0.2610716223716736,-0.6210164427757263,0.002247445285320282,36.7160149,3.1843288,13.03,6.66,-4.73,0.0,93,324,8.17487621307373,8.174875259399414
14,0.08881265670061111,-0.7928370237350464,-0.18726246058940887,36.7160953,3.1842542,13.03,2.99,-3.03,-0.06,92,314,4.269985675811768,4.269454479217529
15,-0.3146735429763794,-1.9999134540557861,-0.12480014562606812,36.7161067,3.1842037,13.53,-1.36,-3.46,-0.6,92,245,3.767047882080078,3.7181084156036377
16,-0.44036009907722473,-2.179147958755493,-0.015476207248866558,36.7160672,3.1841278,14.94,-4.11,-5.79,-1.22,91,235,7.212824821472168,7.10738468170166
17,-0.49437522888183594,-2.168867826461792,0.04282768815755844,36.7159895,3.18399,17.53,-5.4,-7.82,-1.59,91,235,9.642399787902832,9.508858680725098
18,-0.43288910388946533,-2.166384696960449,0.021605415269732475,36.7159146,3.1838537,20.01,-5.52,-8.12,-1.58,90,235,9.958474159240723,9.831598281860352
19,-0.49383893609046936,-2.1625916957855225,-0.011376402340829372,36.7158272,3.1836916,22.87,-5.55,-8.25,-1.58,90,236,10.07740592956543,9.952560424804688
20,-0.4643019437789917,-2.1652934551239014,0.03409068286418915,36.7157519,3.1835521,25.34,-5.54,-8.26,-1.6,89,235,10.0834321975708,9.955381393432617
21,-0.45187586545944214,-2.163560390472412,-0.028944380581378937,36.7156645,3.1833891,28.24,-5.5,-8.28,-1.6,89,236,10.06988525390625,9.940781593322754
22,-0.49086105823516846,-2.162585496902466,-0.013822258450090885,36.7155899,3.1832497,30.72,-5.5,-8.23,-1.61,89,236,10.034317970275879,9.90278434753418
23,-0.44717755913734436,-2.16412353515625,0.039613109081983566,36.7155152,3.1831103,33.22,-5.51,-8.28,-1.63,88,236,10.08646011352539,9.953251838684082
24,-0.4700188636779785,-2.163137912750244,-0.03018694557249546,36.715428,3.1829469,36.14,-5.51,-8.3,-1.63,88,236,10.105277061462402,9.972936630249023
25,-0.48878049850463867,-2.168276309967041,0.024767519906163216,36.7153532,3.1828075,38.65,-5.51,-8.27,-1.63,87,235,10.077808380126953,9.944881439208984
26,-0.43057432770729065,-2.164644241333008,-0.011103106662631035,36.7152661,3.1826444,41.57,-5.5,-8.33,-1.63,87,235,10.11723804473877,9.984681129455566
27,-0.4790136218070984,-2.162484645843506,-0.022342819720506668,36.7151917,3.1825045,44.08,-5.53,-8.3,-1.62,86,236,10.114810943603516,9.983068466186523
28,-0.48189982771873474,-2.1648271083831787,0.037636782974004745,36.7151166,3.1823648,46.58,-5.52,-8.29,-1.63,86,235,10.103524208068848,9.970477104187012
29,-0.3297683596611023,-2.1649844646453857,-0.02814827673137188,36.7150302,3.1822034,49.47,-5.23,-7.78,-1.54,85,235,9.508358001708984,9.381476402282715
30,-0.11330028623342514,-2.1672379970550537,0.009424902498722076,36.7149679,3.1820878,51.56,-3.78,-5.62,-1.07,85,235,6.866456031799316,6.782252788543701
31,-0.10671725869178772,-2.1367859840393066,-0.0077194636687636375,36.7149215,3.181999,52.74,-2.31,-3.76,-0.33,85,237,4.428089141845703,4.415773868560791
32,-0.157606303691864,-2.1051673889160156,0.03180116415023804,36.7148923,3.181937,52.94,-2.07,-3.67,-0.03,84,239,4.224510669708252,4.224377155303955
33,-0.08443623036146164,-2.1035215854644775,-0.016896480694413185,36.7148642,3.1818758,52.94,-2.06,-3.61,-0.03,84,239,4.16540002822876,4.165265083312988
34,0.06758099049329758,-2.172405481338501,-0.016510125249624252,36.7148371,3.1818186,52.67,-1.32,-1.99,0.54,84,235,2.457054853439331,2.3968489170074463
35,-0.0008322142530232668,-2.464728593826294,-0.043678104877471924,36.7148208,3.1817955,50.91,-1.09,-0.92,1.49,83,218,2.070972204208374,1.4307712316513062
36,-0.012286784127354622,-2.469499349594116,-0.009781046770513058,36.7148045,3.18178,48.25,-1.03,-0.8,1.41,83,218,1.934396743774414,1.3163669109344482
37,-0.06499377638101578,-2.4692819118499756,0.012280779890716076,36.7147903,3.1817663,46.01,-1.05,-0.86,1.43,82,218,1.979594111442566,1.3672622442245483
38,-0.03734719380736351,-2.4696969985961914,-0.025648172944784164,36.7147734,3.1817495,43.4,-1.07,-0.88,1.44,82,218,1.9993772506713867,1.3858177661895752
39,-0.036649372428655624,-2.4695534706115723,0.028316983953118324,36.7147588,3.1817349,41.16,-1.06,-0.87,1.44,82,218,2.0027198791503906,1.3816790580749512
40,-0.03441574051976204,-2.469399929046631,-0.02425500936806202,36.7147443,3.1817203,38.92,-1.07,-0.88,1.46,81,218,2.017979383468628,1.3901610374450684
41,-0.011056470684707165,-2.4693095684051514,0.007239700760692358,36.7147273,3.1817031,36.3,-1.06,-0.88,1.46,81,218,2.0185039043426514,1.3845150470733643
42,-0.060933589935302734,-2.4693801403045654,-0.008810778148472309,36.7147127,3.1816884,34.05,-1.07,-0.89,1.46,81,218,2.0246469974517822,1.3922444581985474
43,-0.023686237633228302,-2.470078945159912,-0.02172071300446987,36.7146956,3.1816712,31.43,-1.07,-0.88,1.47,80,218,2.023873805999756,1.388802409172058
44,-0.05329069867730141,-2.469331741333008,0.01865166611969471,36.7146811,3.1816565,29.18,-1.05,-0.89,1.47,80,218,2.0182511806488037,1.3798936605453491
45,-0.018774593248963356,-2.469733953475952,-0.01892334595322609,36.7146665,3.1816419,26.93,-1.06,-0.88,1.47,80,218,2.021437883377075,1.3851423263549805
46,-0.015625786036252975,-2.469311475753784,0.023697009310126305,36.7146495,3.1816246,24.31,-1.06,-0.88,1.47,79,218,2.0198769569396973,1.3819485902786255
47,-0.04834826663136482,-2.4697461128234863,-0.01882874220609665,36.7146349,3.1816099,22.06,-1.07,-0.89,1.47,79,218,2.028074026107788,1.3928945064544678
48,-0.010471309535205364,-2.4696288108825684,-0.006164219696074724,36.7146179,3.1815928,19.44,-1.06,-0.87,1.48,78,218,2.02571439743042,1.3801716566085815
49,-0.0614217072725296,-2.4699079990386963,0.01351469662040472,36.7146033,3.1815781,17.19,-1.06,-0.87,1.48,78,218,2.0225000381469727,1.3780474662780762
50,-0.08378695696592331,-2.661466360092163,-0.10154243558645248,36.7145856,3.1815614,14.57,-1.36,-0.7,1.44,78,207,2.1072051525115967,1.5365288257598877
51,-0.23012158274650574,2.740341901779175,-0.03633086010813713,36.7145587,3.1815613,13.04,-2.74,0.98,0.34,77,157,2.9335086345672607,2.913343906402588
52,-0.19941742718219757,2.6720526218414307,-0.035807542502880096,36.7145121,3.1815884,13.01,-3.92,1.98,-0.07,77,153,4.394466876983643,4.393814563751221
53,-0.04703768342733383,2.7447140216827393,0.10280412435531616,36.7144492,3.1816272,13.03,-3.85,1.58,0.06,77,157,4.162785053253174,4.162243843078613
54,-0.22851090133190155,-2.6641268730163574,0.2590675950050354,36.714402,3.1816323,12.98,-3.0,-1.51,0.03,76,207,3.3653271198272705,3.365165948867798
55,-0.4438011646270752,-2.1572518348693848,0.004805920645594597,36.7143523,3.1815588,12.98,-3.67,-5.78,0.02,76,236,6.857855319976807,6.85781717300415
56,-0.5175006985664368,-2.1563758850097656,-0.0033375797793269157,36.7142943,3.1814453,12.98,-4.76,-7.44,0.0,75,236,8.845375061035156,8.845373153686523
57,-0.42140451073646545,-2.1555793285369873,0.024153441190719604,36.7142272,3.1813159,13.0,-4.98,-7.65,0.0,75,236,9.137629508972168,9.137627601623535
58,-0.29358452558517456,-2.155972480773926,-0.0065694390796124935,36.7141533,3.181175,13.02,-4.21,-6.48,0.02,75,236,7.7383317947387695,7.738277435302734
59,-0.2676534950733185,-2.131786823272705,0.04988003894686699,36.7141018,3.1810736,12.99,-3.49,-5.7,0.03,74,237,6.689236640930176,6.6891584396362305
60,-0.30317553877830505,-2.1042375564575195,0.002032430609688163,36.714049,3.1809623,12.99,-3.25,-5.65,0.0,74,239,6.520109176635742,6.520102500915527
61,-0.2493237853050232,-2.0995068550109863,0.027183987200260162,36.7140053,3.180867,12.98,-3.22,-5.65,0.0,73,239,6.504541397094727,6.504538536071777
62,-0.04597071185708046,-2.100391387939453,-0.025983409956097603,36.713965,3.1807793,12.99,-2.54,-4.46,0.01,73,239,5.136425018310547,5.136396408081055
63,0.18004198372364044,-2.1010074615478516,-0.00978194922208786,36.7139391,3.1807227,12.96,-0.68,-1.2,-0.01,73,239,1.381115198135376,1.3810256719589233
64,9.659163879405241e-06,-2.1008057594299316,0.00457717664539814,36.7139363,3.1807165,12.97,0.1,0.15,0.0,72,239,0.18420098721981049,0.18416088819503784
65,-0.05562721937894821,-1.970029354095459,0.12889310717582703,36.7139413,3.1807168,12.93,0.88,-0.52,-0.02,72,247,1.0252896547317505,1.024881362915039
