timestamp,pitch,yaw,roll,lat,lon,alt,velocity_x,velocity_y,velocity_z,battery,heading,airspeed,groundspeed
0,-0.01662948727607727,0.03630229830741882,0.025953248143196106,36.7156066,3.18463,15.23,-0.01,0.02,-0.05,96,2,0.06430535018444061,0.03370237722992897
1,-0.10641995072364807,0.05410129576921463,0.06920173764228821,36.7156087,3.1846328,15.26,0.48,0.56,-0.02,95,3,0.7426356673240662,0.7422564029693604
2,-0.2111167013645172,1.1350980997085571,-0.06433291733264923,36.715625,3.1846541,15.26,2.01,2.2,-0.06,95,65,2.9885613918304443,2.987799644470215
3,-0.1931152641773224,0.8536024689674377,0.013464590534567833,36.7156668,3.1847116,15.26,3.11,3.36,-0.01,95,48,4.583505630493164,4.583486080169678
4,-0.07496950775384903,0.8186806440353394,-0.02904922142624855,36.7157095,3.1847683,15.27,3.04,3.22,0.0,94,46,4.434050559997559,4.434045791625977
5,0.3020138144493103,0.6887686848640442,-0.036338064819574356,36.7157402,3.1848066,15.27,0.95,0.74,-0.03,94,39,1.2099213600158691,1.2093077898025513
6,-0.13112977147102356,-1.1301920413970947,-0.20304615795612335,36.7157283,3.184779,15.3,-2.02,-2.95,0.04,93,295,3.580601215362549,3.580293893814087
7,-0.10607384145259857,-2.426227569580078,0.03318791091442108,36.7156983,3.1847248,15.29,-2.26,-3.27,-0.06,93,220,3.9816482067108154,3.9810450077056885
8,-0.006411752197891474,-1.8855886459350586,0.20424655079841614,36.7156696,3.184661,15.28,-0.83,-3.03,0.04,93,251,3.1502482891082764,3.1499242782592773
9,-0.34255141019821167,-0.702557384967804,0.09343967586755753,36.715682,3.1846129,15.26,2.86,-2.85,0.0,92,319,4.041670322418213,4.041670799255371
10,-0.5090933442115784,-0.6079677939414978,0.030402790755033493,36.7157429,3.1845554,15.26,5.98,-4.15,0.0,92,325,7.2808918952941895,7.280885696411133
11,-0.49270808696746826,-0.6130818724632263,-0.025136137381196022,36.7158535,3.18446,15.28,7.77,-5.36,0.0,91,324,9.446913719177246,9.446913719177246
12,-0.4880669116973877,-0.6195243000984192,0.0027989831287413836,36.7159598,3.1843672,15.29,7.89,-5.57,0.0,91,324,9.668414115905762,9.668414115905762
13,-0.13013318181037903,-0.6215176582336426,-0.0005853265756741166,36.7160747,3.1842662,15.33,6.21,-4.41,0.01,91,324,7.624821186065674,7.624802112579346
14,0.05367550626397133,-0.8121069073677063,-0.16775541007518768,36.7161386,3.1842053,15.34,2.83,-3.01,-0.08,90,313,4.141949653625488,4.141045093536377
15,-0.2956511676311493,-2.0367186069488525,-0.15165142714977264,36.7161475,3.1841543,15.87,-1.53,-3.52,-0.63,90,243,3.8984577655792236,3.8470466136932373
16,-0.49309781193733215,-2.17826247215271,0.04052592068910599,36.7160966,3.1840598,17.66,-4.45,-6.32,-1.33,89,235,7.848381519317627,7.7347869873046875
17,-0.4522485136985779,-2.1648573875427246,0.024853285402059555,36.7160281,3.1839378,19.94,-5.43,-7.84,-1.6,89,235,9.681836128234863,9.548163414001465
18,-0.4854966700077057,-2.1666746139526367,-0.015552430413663387,36.7159404,3.1837786,22.82,-5.53,-8.17,-1.57,88,235,9.996991157531738,9.872208595275879
19,-0.47997280955314636,-2.1645171642303467,0.03781137987971306,36.7158654,3.1836391,25.28,-5.52,-8.26,-1.58,88,235,10.06531810760498,9.939529418945312
20,-0.42226865887641907,-2.1619341373443604,0.013555492274463177,36.7157905,3.1834994,27.75,-5.53,-8.24,-1.6,88,236,10.061596870422363,9.933401107788086
21,-0.4916907846927643,-2.1631405353546143,-0.013902518898248672,36.7157034,3.1833375,30.65,-5.52,-8.25,-1.6,87,236,10.058452606201172,9.929694175720215
22,-0.4734674096107483,-2.164341688156128,0.036688778549432755,36.7156284,3.1831977,33.14,-5.51,-8.28,-1.61,87,236,10.085023880004883,9.954490661621094
23,-0.43832722306251526,-2.165240526199341,-0.02058238536119461,36.7155411,3.1830347,36.05,-5.51,-8.27,-1.62,86,235,10.074777603149414,9.943170547485352
24,-0.4846058785915375,-2.164330005645752,-0.012769688852131367,36.7154665,3.1828948,38.54,-5.5,-8.29,-1.62,86,236,10.09142780303955,9.959157943725586
25,-0.4290417730808258,-2.1660447120666504,0.02778603881597519,36.7153792,3.1827316,41.46,-5.51,-8.28,-1.64,85,235,10.091593742370605,9.956007957458496
26,-0.43313759565353394,-2.1639554500579834,-0.011507006362080574,36.7153046,3.1825919,43.97,-5.5,-8.29,-1.63,85,236,10.09027099609375,9.95620346069336
27,-0.4875405728816986,-2.16418719291687,-0.009821570478379726,36.71523,3.1824521,46.48,-5.52,-8.29,-1.63,84,236,10.097900390625,9.965225219726562
28,-0.42682966589927673,-2.1638810634613037,0.030420444905757904,36.7151428,3.1822892,49.4,-5.52,-8.28,-1.64,84,236,10.096301078796387,9.962080955505371
29,-0.3326314389705658,-2.168609142303467,-0.025026170536875725,36.7150689,3.1821519,51.86,-5.22,-7.73,-1.54,84,235,9.464040756225586,9.337833404541016
30,-0.07328946143388748,-2.1666224002838135,0.036425527185201645,36.7149995,3.1820228,54.18,-3.43,-5.17,-0.9,83,235,6.272122383117676,6.205840110778809
31,-0.12033873796463013,-2.1352298259735107,-0.009210169315338135,36.7149619,3.1819498,55.07,-2.31,-3.75,-0.29,83,237,4.418313026428223,4.408141613006592
32,-0.12667885422706604,-2.1024694442749023,0.0245903842151165,36.7149279,3.1818777,55.25,-2.08,-3.65,-0.01,82,239,4.206272125244141,4.206259250640869
33,-0.07824356853961945,-2.1031417846679688,-0.02105432190001011,36.7149,3.1818169,55.24,-1.95,-3.45,-0.03,82,239,3.9683241844177246,3.9682092666625977
34,0.05658896639943123,-2.182529926300049,-0.0207601897418499,36.7148781,3.1817709,54.93,-1.3,-1.92,0.59,82,234,2.40324330329895,2.3285775184631348
35,-0.03698919340968132,-2.4839072227478027,-0.015885181725025177,36.7148595,3.1817462,52.72,-1.04,-0.83,1.49,81,217,2.004786491394043,1.3386083841323853
36,-0.009522688575088978,-2.4702463150024414,0.007318356540054083,36.7148454,3.1817329,50.46,-1.04,-0.8,1.42,81,218,1.9434525966644287,1.31925368309021
37,-0.05514822527766228,-2.4700088500976562,0.02484867349267006,36.7148289,3.1817169,47.85,-1.05,-0.85,1.43,81,218,1.9784492254257202,1.3574707508087158
38,-0.020303381606936455,-2.470024585723877,-0.01688687689602375,36.7148144,3.1817025,45.6,-1.07,-0.88,1.44,80,218,2.0071699619293213,1.3953356742858887
39,-0.061833880841732025,-2.4695827960968018,0.015779845416545868,36.7147998,3.1816879,43.36,-1.06,-0.88,1.45,80,218,2.0082292556762695,1.3878707885742188
40,-0.048751335591077805,-2.469494342803955,-0.02283664233982563,36.7147828,3.1816708,40.75,-1.07,-0.89,1.46,79,218,2.018390655517578,1.3933802843093872
41,-0.03829552233219147,-2.469175100326538,0.030295591801404953,36.7147683,3.181656,38.51,-1.06,-0.88,1.46,79,218,2.0202600955963135,1.3878260850906372
42,-0.061065711081027985,-2.469613790512085,0.001973300240933895,36.7147512,3.1816389,35.89,-1.06,-0.88,1.47,79,218,2.0282020568847656,1.3875658512115479
43,-0.012045221403241158,-2.4691226482391357,0.008450559340417385,36.7147366,3.1816243,33.64,-1.06,-0.88,1.47,78,218,2.023312568664551,1.381567120552063
44,-0.06224830821156502,-2.469292163848877,-0.01037045381963253,36.7147221,3.1816096,31.39,-1.05,-0.89,1.47,78,218,2.0267953872680664,1.386553406715393
45,-0.01992877386510372,-2.4697067737579346,-0.02007824368774891,36.7147051,3.1815923,28.76,-1.06,-0.89,1.47,78,218,2.0308542251586914,1.3933296203613281
46,-0.05768764764070511,-2.4700751304626465,0.019014127552509308,36.7146905,3.1815776,26.51,-1.06,-0.88,1.47,77,218,2.0224342346191406,1.3824288845062256
47,-0.044416822493076324,-2.469855785369873,-0.021262796595692635,36.7146734,3.1815605,23.89,-1.06,-0.89,1.47,77,218,2.026594638824463,1.3922829627990723
48,-0.036092355847358704,-2.4695448875427246,0.03189593553543091,36.7146589,3.1815458,21.64,-1.05,-0.88,1.47,77,218,2.0189177989959717,1.3805755376815796
49,-0.06340114027261734,-2.469569683074951,-0.0029309268575161695,36.7146419,3.1815286,19.01,-1.06,-0.89,1.47,76,218,2.0205938816070557,1.3820605278015137
50,-0.04809014871716499,-2.699066638946533,-0.07036731392145157,36.7146264,3.1815145,16.78,-1.4,-0.66,1.42,76,205,2.1109507083892822,1.5575947761535645
51,-0.26860925555229187,2.7249808311462402,-0.07074231654405594,36.7145987,3.1815156,15.32,-2.83,1.06,0.29,75,156,3.039811611175537,3.0250914096832275
52,-0.1554383486509323,2.6716222763061523,-0.022140339016914368,36.7145425,3.1815492,15.33,-3.99,2.02,-0.05,75,153,4.481013298034668,4.480699062347412
53,-0.08989803493022919,2.754028558731079,0.11735071986913681,36.7144885,3.1815819,15.32,-3.82,1.49,0.06,75,157,4.106279373168945,4.105784893035889
54,-0.31620240211486816,-2.3938777446746826,0.167496457695961,36.7144353,3.1815787,15.28,-2.92,-2.38,0.02,74,222,3.7754759788513184,3.775378704071045
55,-0.4838002324104309,-2.1508963108062744,0.0492590107023716,36.7143921,3.1815079,15.28,-3.7,-5.87,0.02,74,236,6.946342945098877,6.946302890777588
56,-0.45827504992485046,-2.1503679752349854,0.00665288046002388,36.7143343,3.1813938,15.29,-4.75,-7.53,0.0,73,236,8.91219711303711,8.912195205688477
57,-0.42479634284973145,-2.150938034057617,0.0058093806728720665,36.7142568,3.1812425,15.3,-4.89,-7.58,0.0,73,236,9.025206565856934,9.025205612182617
58,-0.23623430728912354,-2.150824546813965,0.019027987495064735,36.7141949,3.1811232,15.31,-4.17,-6.45,0.01,73,236,7.681046009063721,7.6810197830200195
59,-0.30066174268722534,-2.129110097885132,0.02850421704351902,36.714136,3.1810066,15.28,-3.45,-5.68,0.02,72,238,6.6507344245910645,6.650703430175781
60,-0.250293105840683,-2.110752820968628,0.019648337736725807,36.7140906,3.1809114,15.28,-3.28,-5.63,0.0,72,239,6.523469924926758,6.523468017578125
61,-0.24965812265872955,-2.1080145835876465,0.0069849202409386635,36.7140389,3.1808004,15.28,-3.22,-5.55,0.0,71,239,6.418719291687012,6.418719291687012
62,0.06334100663661957,-2.109130382537842,-0.00467898091301322,36.714,3.1807177,15.28,-2.31,-3.93,0.03,71,239,4.563993453979492,4.563877105712891
63,0.1174442246556282,-2.108816385269165,-0.0024141911417245865,36.7139804,3.1806758,15.26,-0.63,-1.1,-0.02,71,239,1.2783836126327515,1.2782210111618042
64,0.013045215979218483,-2.109441041946411,-0.026145799085497856,36.7139782,3.1806707,15.27,0.1,0.14,0.02,70,239,0.18598434329032898,0.18475554883480072
