timestamp,pitch,yaw,roll,lat,lon,alt,velocity_x,velocity_y,velocity_z,battery,heading,airspeed,groundspeed
0,-0.006273981183767319,0.010112554766237736,0.028225164860486984,36.7156066,3.1846299,24.66,-0.02,0.03,-0.09,96,0,0.10063277184963226,0.040514346212148666
1,-0.09099430590867996,0.038250431418418884,0.09971217066049576,36.7156081,3.1846332,24.74,0.36,0.68,-0.07,95,2,0.7758408784866333,0.7721045017242432
2,-0.1750849038362503,1.5535366535186768,-0.11690758168697357,36.7156203,3.1846599,24.76,1.48,2.65,-0.04,95,89,3.03998064994812,3.039641857147217
3,-0.12826693058013916,0.9908544421195984,0.014026239514350891,36.7156498,3.1847247,24.77,2.06,3.66,-0.01,94,56,4.203272819519043,4.203225612640381
4,0.03985225036740303,1.0273211002349854,-0.02154247835278511,36.7156773,3.1847839,24.76,1.73,2.98,0.0,94,58,3.4501283168792725,3.4501185417175293
5,0.34370261430740356,1.4697678089141846,0.19792179763317108,36.7156877,3.184807,24.79,-0.61,-0.78,-0.03,94,84,1.0023638010025024,1.0018863677978516
6,-0.1331593096256256,-2.9802491664886475,0.12448922544717789,36.7156618,3.1847608,24.76,-2.25,-3.2,0.04,93,189,3.9186758995056152,3.918433427810669
7,-0.07887895405292511,-1.9667860269546509,0.00868953112512827,36.7156316,3.1847047,24.8,-2.15,-3.24,-0.01,93,247,3.894587993621826,3.8945369720458984
8,-0.07330001145601273,-1.4023067951202393,0.27647826075553894,36.7156138,3.1846432,24.76,0.46,-2.83,0.01,93,279,2.8694839477539062,2.869436025619507
9,-0.42272958159446716,-0.6535924673080444,0.04497518390417099,36.7156459,3.1845946,24.76,4.21,-3.22,0.0,92,322,5.310208320617676,5.310207843780518
10,-0.5300357937812805,-0.6273659467697144,0.03915521129965782,36.7157217,3.1845277,24.76,6.81,-4.73,0.0,92,324,8.292966842651367,8.292963027954102
11,-0.4659433364868164,-0.6202818751335144,-0.02296891249716282,36.7158404,3.1844245,24.78,7.86,-5.53,0.0,91,324,9.615914344787598,9.615911483764648
12,-0.4104878008365631,-0.623008131980896,-0.00468987412750721,36.7159462,3.1843313,24.81,7.49,-5.35,-0.01,91,324,9.215259552001953,9.21524715423584
13,0.005647165235131979,-0.6338040828704834,-0.047390032559633255,36.7160488,3.1842401,24.83,5.02,-3.69,0.04,91,323,6.237543106079102,6.237366199493408
14,-0.03976360335946083,-1.225542426109314,-0.271515429019928,36.716092,3.1841871,24.97,0.97,-2.89,-0.27,90,289,3.0712032318115234,3.0589547157287598
15,-0.4043520390987396,-2.140598773956299,-0.07512613385915756,36.7160704,3.1841163,26.11,-3.32,-4.77,-1.0,90,237,5.905876636505127,5.819834232330322
16,-0.5121241211891174,-2.159365653991699,0.016203805804252625,36.7160123,3.1840145,28.05,-4.97,-7.19,-1.48,89,236,8.872923851013184,8.747600555419922
17,-0.42037543654441833,-2.1649491786956787,0.001380985719151795,36.7159268,3.1838606,30.88,-5.54,-8.04,-1.6,89,235,9.896300315856934,9.76545524597168
18,-0.4667324721813202,-2.164393901824951,-0.026050368323922157,36.7158516,3.1837223,33.34,-5.52,-8.21,-1.57,88,235,10.022525787353516,9.898517608642578
19,-0.4931822717189789,-2.163256883621216,0.008299234323203564,36.7157767,3.183583,35.8,-5.55,-8.27,-1.59,88,236,10.090995788574219,9.964744567871094
20,-0.4206009805202484,-2.1646568775177,-0.007036000490188599,36.715689,3.18342,38.69,-5.52,-8.26,-1.6,87,235,10.067245483398438,9.937955856323242
21,-0.4668910503387451,-2.1650052070617676,-0.028219416737556458,36.7156143,3.1832804,41.19,-5.49,-8.26,-1.6,87,235,10.055473327636719,9.926689147949219
22,-0.4674973785877228,-2.163562059402466,0.04165959730744362,36.7155276,3.1831181,44.09,-5.51,-8.27,-1.61,87,236,10.075211524963379,9.94446086883545
23,-0.42633602023124695,-2.1637442111968994,-0.0033156070858240128,36.7154528,3.1829783,46.59,-5.54,-8.3,-1.63,86,236,10.117915153503418,9.985395431518555
24,-0.4716329276561737,-2.1630477905273438,-0.025520792230963707,36.7153778,3.1828383,49.09,-5.52,-8.28,-1.62,86,236,10.08970832824707,9.958237648010254
25,-0.4485943615436554,-2.1670405864715576,0.04331276938319206,36.7152905,3.1826755,52.01,-5.51,-8.28,-1.63,85,235,10.083417892456055,9.950298309326172
26,-0.4264584183692932,-2.163785457611084,-0.0025570145808160305,36.7152159,3.1825357,54.51,-5.53,-8.3,-1.64,85,236,10.11461067199707,9.9804105758667
27,-0.4871966540813446,-2.1647608280181885,0.011416229419410229,36.7151286,3.1823721,57.44,-5.5,-8.29,-1.63,84,235,10.093681335449219,9.96028995513916
28,-0.4360208511352539,-2.1640994548797607,0.033418428152799606,36.7150538,3.1822323,59.94,-5.49,-8.25,-1.63,84,236,10.047431945800781,9.91386604309082
29,-0.21592684090137482,-2.167652130126953,-0.018585598096251488,36.7149835,3.1821016,62.31,-4.7,-7.0,-1.41,83,235,8.55922794342041,8.442207336425781
30,-0.06519927829504013,-2.156912326812744,0.03856800124049187,36.7149243,3.1819908,64.16,-2.82,-4.33,-0.62,83,236,5.208355903625488,5.170753002166748
31,-0.12164761126041412,-2.104130744934082,-0.004875668790191412,36.7148923,3.1819257,64.7,-2.12,-3.7,-0.14,83,239,4.27168083190918,4.269378185272217
32,-0.14073465764522552,-2.0857410430908203,0.025797156617045403,36.7148605,3.1818541,64.74,-2.01,-3.7,-0.01,82,240,4.217614650726318,4.217588901519775
33,-0.0022923913784325123,-2.089858293533325,-0.035958822816610336,36.7148348,3.1817961,64.72,-1.63,-2.94,0.09,82,240,3.3700246810913086,3.3687117099761963
34,0.018716631457209587,-2.3258726596832275,-0.023013921454548836,36.7148162,3.1817606,63.84,-1.2,-1.37,1.16,82,226,2.164069652557373,1.824570894241333
35,-0.05658978968858719,-2.4747729301452637,-0.017879994586110115,36.7147989,3.1817421,61.24,-1.04,-0.79,1.43,81,218,1.9494272470474243,1.3181357383728027
36,-0.016323775053024292,-2.4762461185455322,0.021576303988695145,36.7147846,3.181729,59.01,-1.06,-0.83,1.43,81,218,1.9735804796218872,1.3588342666625977
37,-0.05902085453271866,-2.4755144119262695,0.012868721969425678,36.7147676,3.1817124,56.39,-1.07,-0.87,1.43,80,218,1.9962724447250366,1.3879982233047485
38,-0.01414534356445074,-2.4761314392089844,-0.010122372768819332,36.7147529,3.1816979,54.14,-1.08,-0.87,1.44,80,218,2.0048766136169434,1.3907023668289185
39,-0.03269275277853012,-2.475419282913208,0.03261033073067665,36.7147358,3.1816808,51.54,-1.07,-0.88,1.45,80,218,2.0211076736450195,1.3985230922698975
40,-0.030243730172514915,-2.475642442703247,-0.0251256562769413,36.714721,3.1816661,49.29,-1.09,-0.88,1.46,79,218,2.0286688804626465,1.4054962396621704
41,-0.0494665801525116,-2.475350856781006,0.021481335163116455,36.7147062,3.1816514,47.04,-1.07,-0.88,1.46,79,218,2.0202999114990234,1.3935132026672363
42,-0.057437434792518616,-2.4755823612213135,-0.013975764624774456,36.714689,3.1816343,44.43,-1.07,-0.89,1.47,79,218,2.0350570678710938,1.402775764465332
43,-0.021457098424434662,-2.47511625289917,0.027886036783456802,36.7146743,3.1816196,42.18,-1.07,-0.88,1.47,78,218,2.031557321548462,1.3966773748397827
44,-0.05963464826345444,-2.4753448963165283,0.005439241416752338,36.7146571,3.1816023,39.55,-1.08,-0.89,1.47,78,218,2.0321860313415527,1.4009203910827637
45,-0.006893479730933905,-2.475125551223755,0.0009516945574432611,36.7146423,3.1815877,37.31,-1.08,-0.87,1.47,78,218,2.030541181564331,1.392118215560913
46,-0.042338620871305466,-2.4754509925842285,0.02796650119125843,36.714625,3.1815705,34.68,-1.07,-0.88,1.47,77,218,2.0310592651367188,1.394236445426941
47,-0.023890620097517967,-2.4759092330932617,-0.022192489355802536,36.7146103,3.1815558,32.43,-1.08,-0.88,1.47,77,218,2.028474807739258,1.3960274457931519
48,-0.056394316256046295,-2.4754092693328857,0.01772001013159752,36.7145955,3.181541,30.18,-1.07,-0.88,1.47,76,218,2.0282986164093018,1.3944318294525146
49,-0.010180422104895115,-2.475447177886963,-0.01251111552119255,36.7145808,3.1815263,27.93,-1.09,-0.86,1.47,76,218,2.033229112625122,1.3951022624969482
50,-0.12548032402992249,-3.1225945949554443,-0.08280403167009354,36.7145593,3.1815129,25.43,-1.89,-0.12,1.09,76,181,2.189628839492798,1.8989653587341309
51,-0.24854883551597595,2.6689417362213135,-0.00102956872433424,36.7145151,3.181532,24.77,-3.63,1.81,-0.06,75,152,4.0595011711120605,4.0589799880981445
52,-0.13586224615573883,2.672130584716797,0.012764886021614075,36.7144619,3.1815652,24.86,-4.01,2.05,0.03,75,153,4.5134429931640625,4.51332950592041
53,-0.05048404261469841,3.0011491775512695,0.1788947880268097,36.7144096,3.1815912,24.8,-3.5,0.48,0.05,75,171,3.5435097217559814,3.543119192123413
54,-0.37132275104522705,-2.1892917156219482,0.0837341919541359,36.7143606,3.181558,24.78,-3.03,-4.04,0.01,74,234,5.061078071594238,5.061059474945068
55,-0.5210695862770081,-2.148684024810791,-0.002089849906042218,36.7143119,3.1814648,24.78,-4.25,-6.77,0.01,74,236,8.006638526916504,8.006627082824707
56,-0.4243125021457672,-2.1509196758270264,0.003189371433109045,36.7142377,3.1813188,24.79,-4.94,-7.69,0.0,73,236,9.145034790039062,9.145031929016113
57,-0.32910382747650146,-2.1521356105804443,-0.025306828320026398,36.7141716,3.1811912,24.81,-4.61,-7.11,0.0,73,236,8.484710693359375,8.484708786010742
58,-0.252050518989563,-2.145721912384033,0.04269526153802872,36.7141144,3.1810807,24.81,-3.77,-5.97,0.03,73,237,7.069642543792725,7.069567680358887
59,-0.2830824553966522,-2.1178126335144043,-0.014778709970414639,36.714059,3.1809677,24.78,-3.36,-5.65,0.01,72,238,6.582579135894775,6.582564830780029
60,-0.29375576972961426,-2.1081881523132324,0.03273145481944084,36.7140142,3.1808726,24.79,-3.28,-5.64,0.01,72,239,6.529330730438232,6.529322147369385
61,-0.14126861095428467,-2.108182191848755,-0.023403406143188477,36.7139634,3.180764,24.79,-2.97,-5.1,0.0,71,239,5.911510944366455,5.9115095138549805
62,0.1638672947883606,-2.1089799404144287,0.02819512039422989,36.7139312,3.1806953,24.76,-1.57,-2.68,0.03,71,239,3.1152966022491455,3.1150996685028076
63,0.057663239538669586,-2.1082279682159424,-0.012648911215364933,36.7139202,3.1806715,24.78,-0.04,-0.09,-0.01,71,239,0.10360343009233475,0.10276611149311066
64,0.01978829689323902,-2.1073966026306152,0.08193076401948929,36.7139215,3.1806734,24.74,0.26,0.02,0.03,70,239,0.2671085298061371,0.2644052505493164
