timestamp,pitch,yaw,roll,lat,lon,alt,velocity_x,velocity_y,velocity_z,battery,heading,airspeed,groundspeed
0,-0.016414016485214233,0.02302938513457775,0.019684400409460068,36.7156066,3.18463,25.43,-0.02,0.03,0.0,96,1,0.03737449273467064,0.037363819777965546
1,-0.10720178484916687,0.0797368660569191,0.09194158017635345,36.7156086,3.1846337,25.47,0.47,0.73,0.0,95,4,0.8711488842964172,0.8711062669754028
2,-0.1664111316204071,1.437315821647644,-0.08886655420064926,36.7156233,3.1846612,25.43,1.73,2.62,-0.04,95,82,3.1430037021636963,3.1426119804382324
3,-0.17839345335960388,0.9215893149375916,0.01493595726788044,36.7156513,3.1847136,25.48,2.25,3.39,-0.05,95,52,4.0752739906311035,4.074954032897949
4,0.12101729959249496,0.968998908996582,-0.03496696799993515,36.7156855,3.184776,25.52,1.66,2.41,-0.02,94,55,2.937861680984497,2.937781572341919
5,0.3327906131744385,0.8414843678474426,-0.007864976301789284,36.7156921,3.1847866,25.51,-0.99,-1.46,-0.01,94,48,1.7678253650665283,1.7677804231643677
6,-0.10849262773990631,-1.1879576444625854,-0.11321316659450531,36.7156631,3.1847339,25.56,-2.25,-3.29,0.0,93,291,3.990278482437134,3.9902663230895996
7,-0.034072473645210266,-2.432448148727417,0.06091730296611786,36.7156332,3.1846781,25.55,-1.99,-3.28,0.01,93,220,3.8391506671905518,3.839128017425537
8,-0.1582302302122116,-1.1786125898361206,0.28094035387039185,36.7156224,3.1846175,25.53,1.18,-2.76,0.0,93,292,3.0058109760284424,3.0057950019836426
9,-0.4499123692512512,-0.6509944200515747,0.02527409791946411,36.7156641,3.184567,25.53,4.81,-3.46,0.0,92,322,5.936501979827881,5.9365010261535645
10,-0.5343427658081055,-0.6284615397453308,0.035972535610198975,36.7157465,3.1844952,25.53,7.11,-4.93,-0.01,92,324,8.659943580627441,8.65993595123291
11,-0.4680802524089813,-0.6208794116973877,-0.02223948948085308,36.7158673,3.1843897,25.56,7.87,-5.57,0.0,91,324,9.649974822998047,9.649975776672363
12,-0.36652642488479614,-0.6238723993301392,-0.002158175688236952,36.7159717,3.1842972,25.59,7.26,-5.19,-0.01,91,324,8.926904678344727,8.926895141601562
13,0.04491526260972023,-0.6610108017921448,-0.08905694633722305,36.7160675,3.1842115,25.59,4.37,-3.4,0.03,91,322,5.544071197509766,5.543985843658447
14,-0.15414360165596008,-1.5177769660949707,-0.2605987787246704,36.7160997,3.1841605,25.84,0.11,-2.99,-0.37,90,273,3.025916814804077,3.002037286758423
15,-0.3805951774120331,-2.142324686050415,-0.05532515421509743,36.7160758,3.184097,26.92,-3.38,-4.82,-1.01,90,237,5.983307838439941,5.896485805511475
16,-0.513910710811615,-2.1619668006896973,0.016709616407752037,36.7160057,3.1839737,29.26,-5.18,-7.46,-1.53,89,236,9.217159271240234,9.088804244995117
17,-0.4463790953159332,-2.1648263931274414,0.036008115857839584,36.7159314,3.1838402,31.71,-5.54,-8.02,-1.6,89,235,9.885842323303223,9.755128860473633
18,-0.46632346510887146,-2.16477370262146,-0.02597099542617798,36.7158437,3.1836788,34.58,-5.52,-8.23,-1.57,88,235,10.044194221496582,9.919635772705078
19,-0.49224790930747986,-2.1640195846557617,0.006759158335626125,36.7157686,3.1835392,37.04,-5.55,-8.26,-1.58,88,236,10.078718185424805,9.952596664428711
20,-0.43745630979537964,-2.165891647338867,0.03640865534543991,36.7156936,3.1833997,39.52,-5.51,-8.25,-1.6,87,235,10.063549995422363,9.934070587158203
21,-0.46942344307899475,-2.1651694774627686,-0.026996389031410217,36.7156066,3.1832371,42.43,-5.49,-8.27,-1.6,87,235,10.065239906311035,9.936272621154785
22,-0.4898982644081116,-2.163555383682251,0.013760466128587723,36.715532,3.1830975,44.93,-5.5,-8.27,-1.61,87,236,10.070029258728027,9.939990997314453
23,-0.4258035123348236,-2.16377854347229,-0.004317577928304672,36.7154449,3.1829346,47.84,-5.52,-8.28,-1.62,86,236,10.091879844665527,9.960116386413574
24,-0.47547033429145813,-2.163648843765259,-0.02340884879231453,36.7153702,3.182795,50.33,-5.52,-8.29,-1.63,86,236,10.104204177856445,9.97176742553711
25,-0.4510394334793091,-2.1673598289489746,0.04439591243863106,36.7152828,3.1826322,53.25,-5.53,-8.32,-1.64,85,235,10.129651069641113,9.995336532592773
26,-0.4243450462818146,-2.164344072341919,-0.00020707516523543745,36.7152079,3.1824918,55.76,-5.52,-8.28,-1.64,85,236,10.093646049499512,9.959485054016113
27,-0.4713735282421112,-2.1649672985076904,-0.02751815691590309,36.7151332,3.1823517,58.26,-5.51,-8.28,-1.63,84,235,10.086060523986816,9.952841758728027
28,-0.40877941250801086,-2.163835048675537,0.03132081404328346,36.7150462,3.182189,61.18,-5.44,-8.14,-1.62,84,236,9.930472373962402,9.797200202941895
29,-0.16330376267433167,-2.1679584980010986,-0.01631344109773636,36.714978,3.1820627,63.48,-4.41,-6.56,-1.3,83,235,8.018631935119629,7.911005973815918
30,-0.0675574466586113,-2.1491549015045166,0.04338487610220909,36.7149239,3.1819605,65.1,-2.6,-4.06,-0.5,83,236,4.856686592102051,4.830102443695068
31,-0.12933678925037384,-2.097662925720215,-0.011069968342781067,36.7148934,3.181897,65.5,-2.08,-3.69,-0.08,83,239,4.241183280944824,4.240242958068848
32,-0.17859698832035065,-2.0864553451538086,0.014984063804149628,36.7148662,3.1818356,65.51,-2.01,-3.7,-0.01,82,240,4.213399887084961,4.213374137878418
33,0.018261097371578217,-2.1012964248657227,-0.042296674102544785,36.7148372,3.1817704,65.44,-1.5,-2.64,0.2,82,239,3.051949977874756,3.0447967052459717
34,0.018986262381076813,-2.3875644207000732,-0.013145462609827518,36.7148197,3.1817396,64.25,-1.16,-1.18,1.35,82,223,2.1406524181365967,1.6592963933944702
35,-0.05756010115146637,-2.4628803730010986,-0.006259998306632042,36.7148028,3.1817227,61.59,-1.03,-0.8,1.42,81,218,1.9360651969909668,1.3091119527816772
36,-0.014384950511157513,-2.468986988067627,0.014410939998924732,36.7147887,3.1817094,59.35,-1.04,-0.83,1.43,81,218,1.95920991897583,1.338699460029602
37,-0.05648359656333923,-2.4699018001556396,0.0228409543633461,36.714772,3.1816927,56.73,-1.06,-0.88,1.43,80,218,1.9969950914382935,1.3853839635849
38,-0.013598374091088772,-2.470698833465576,-0.015312951989471912,36.7147574,3.1816781,54.49,-1.07,-0.88,1.44,80,218,2.003239393234253,1.388790249824524
39,-0.05932511389255524,-2.4699606895446777,0.0079488605260849,36.7147428,3.1816635,52.25,-1.06,-0.89,1.45,80,218,2.0102641582489014,1.3890119791030884
40,-0.03982165828347206,-2.4701051712036133,-0.023380683735013008,36.7147259,3.1816465,49.64,-1.06,-0.88,1.46,79,218,2.0168824195861816,1.3887821435928345
41,-0.04435248300433159,-2.4698855876922607,0.02940511330962181,36.7147113,3.1816317,47.4,-1.06,-0.89,1.46,79,218,2.021669387817383,1.3883161544799805
42,-0.059756968170404434,-2.4701220989227295,-0.009285642765462399,36.7146943,3.1816146,44.78,-1.07,-0.89,1.47,79,218,2.03599214553833,1.3985116481781006
43,-0.015141049399971962,-2.4695217609405518,0.019121205434203148,36.7146797,3.1815999,42.53,-1.06,-0.87,1.47,78,218,2.0213420391082764,1.3797868490219116
44,-0.0520356111228466,-2.4696648120880127,-0.018388209864497185,36.7146651,3.1815852,40.28,-1.06,-0.89,1.47,78,218,2.028956174850464,1.3920422792434692
45,-0.010218909941613674,-2.4699110984802246,-0.007242829073220491,36.7146481,3.181568,37.65,-1.06,-0.88,1.47,78,218,2.0246214866638184,1.3861664533615112
46,-0.06190572306513786,-2.4699032306671143,0.006478505674749613,36.7146335,3.1815533,35.4,-1.06,-0.88,1.47,77,218,2.0263123512268066,1.3881219625473022
47,-0.032633986324071884,-2.4704537391662598,-0.024823563173413277,36.7146165,3.1815362,32.77,-1.07,-0.87,1.47,77,218,2.0206427574157715,1.383987307548523
48,-0.0533505380153656,-2.469994068145752,0.026133336126804352,36.7146019,3.1815215,30.52,-1.06,-0.88,1.47,76,218,2.019805908203125,1.3820441961288452
49,-0.02144973911345005,-2.471078634262085,-0.02629115991294384,36.7145874,3.1815068,28.28,-1.06,-0.88,1.47,76,218,2.0237843990325928,1.3861165046691895
50,-0.15718232095241547,2.987776041030884,-0.08194021135568619,36.7145638,3.1814961,25.92,-2.16,0.21,0.84,76,171,2.335427761077881,2.1768531799316406
51,-0.2419852316379547,2.677790880203247,-0.029912762343883514,36.7145235,3.1815153,25.54,-3.69,1.81,-0.05,75,153,4.112390041351318,4.111954689025879
52,-0.09910549223423004,2.6840829849243164,0.028443962335586548,36.71446,3.1815543,25.62,-4.02,1.98,0.05,75,153,4.488583087921143,4.488221168518066
53,-0.06498177349567413,-3.1276328563690186,0.22744308412075043,36.7144085,3.1815749,25.56,-3.37,-0.07,0.04,75,180,3.3713314533233643,3.371044874191284
54,-0.40981200337409973,-2.1869494915008545,0.056568313390016556,36.7143601,3.1815291,25.55,-3.18,-4.62,0.01,74,234,5.6160993576049805,5.6160712242126465
55,-0.5171371698379517,-2.1568996906280518,0.008872116915881634,36.7143085,3.1814285,25.55,-4.42,-7.04,0.0,74,236,8.316974639892578,8.316969871520996
56,-0.44826966524124146,-2.1504955291748047,0.03421863168478012,36.7142443,3.1813022,25.56,-4.93,-7.71,0.0,73,236,9.160633087158203,9.160633087158203
57,-0.32555049657821655,-2.153897523880005,-0.015680210664868355,36.7141679,3.1811547,25.59,-4.5,-6.93,0.0,73,236,8.268304824829102,8.268302917480469
58,-0.2541188895702362,-2.1407883167266846,0.04478895291686058,36.7141128,3.1810474,25.57,-3.65,-5.83,0.03,73,237,6.8836870193481445,6.8836140632629395
59,-0.29189226031303406,-2.108536958694458,-0.010853124782443047,36.7140587,3.1809352,25.55,-3.28,-5.67,0.0,72,239,6.5567216873168945,6.5567145347595215
60,-0.2834548354148865,-2.099370241165161,0.03099495731294155,36.7140149,3.1808399,25.56,-3.21,-5.67,0.01,72,239,6.520717144012451,6.520708084106445
61,-0.1106368750333786,-2.100560188293457,-0.017879372462630272,36.713972,3.1807467,25.56,-2.92,-5.09,0.0,71,239,5.875555038452148,5.875555038452148
62,0.1817774772644043,-2.1004812717437744,0.023312829434871674,36.7139374,3.1806713,25.52,-1.22,-2.14,0.01,71,239,2.468439817428589,2.4683964252471924
63,0.07356376200914383,-2.1003026962280273,-0.02340426854789257,36.7139299,3.1806546,25.54,-0.04,-0.1,-0.01,71,239,0.11268946528434753,0.11187898367643356
64,0.016367565840482712,-2.0988099575042725,0.0946151539683342,36.7139319,3.1806564,25.5,0.39,-0.09,0.01,70,239,0.40216386318206787,0.40177297592163086
