timestamp,pitch,yaw,roll,lat,lon,alt,velocity_x,velocity_y,velocity_z,battery,heading,airspeed,groundspeed
0,-0.020094120875000954,0.03658755496144295,0.017212532460689545,36.7156064,3.1846302,10.75,-0.01,0.0,-0.4,98,2,0.40243595838546753,0.011348326690495014
1,-0.02680569514632225,0.05002801865339279,0.10996374487876892,36.7156072,3.1846331,10.97,0.23,0.65,-0.09,97,2,0.703742504119873,0.6979084610939026
2,-0.15466539561748505,1.8038051128387451,-0.10538212209939957,36.7156181,3.1846693,11.04,1.1,3.1,0.01,97,97,2.97536039352417,2.97536039352417
3,-0.1645098626613617,1.0461125373840332,0.030062682926654816,36.7156354,3.1847294,10.95,1.32,3.87,0.05,97,59,4.091080665588379,4.090737819671631
4,0.11942517757415771,1.2085492610931396,0.012247908860445023,36.7156527,3.1847906,10.85,0.98,2.94,0.03,96,69,3.1062703132629395,3.1060192584991455
5,-0.009658400900661945,2.6436374187469482,0.351034551858902,36.7156515,3.1848043,10.83,-1.4,-1.83,-0.01,96,151,2.3136937618255615,2.313660144805908
6,-0.16619005799293518,-2.1305150985717773,-0.0347258597612381,36.715625,3.1847568,10.78,-2.25,-3.32,0.0,95,237,4.012618541717529,4.012612819671631
7,-0.0341809019446373,-2.129990816116333,0.0659959688782692,36.7155907,3.1846908,10.83,-1.78,-3.28,0.02,95,237,3.7382335662841797,3.738172769546509
8,-0.1972654163837433,-1.1905701160430908,0.27798640727996826,36.7155837,3.1846389,10.79,1.15,-2.76,0.0,95,291,2.999208688735962,2.999206781387329
9,-0.41543301939964294,-0.6459125280380249,0.048529136925935745,36.7156249,3.1845884,10.8,4.79,-3.43,0.0,94,323,5.900474548339844,5.900471210479736
10,-0.5375359058380127,-0.6226338744163513,0.03210630640387535,36.7157232,3.1845033,10.8,7.37,-5.06,-0.01,94,324,8.946392059326172,8.946383476257324
11,-0.46152597665786743,-0.6176697611808777,0.010089169256389141,36.715828,3.1844128,10.82,7.91,-5.54,-0.01,93,324,9.665681838989258,9.665675163269043
12,-0.3280414640903473,-0.6195091605186462,-0.0030479973647743464,36.7159497,3.184306,10.85,7.08,-5.01,-0.02,93,324,8.685439109802246,8.685410499572754
13,0.03285103291273117,-0.6508868336677551,-0.054827980697155,36.7160304,3.1842342,10.85,4.47,-3.44,0.02,93,322,5.645933628082275,5.645885467529297
14,-0.23681966960430145,-1.7274131774902344,-0.23300816118717194,36.7160644,3.1841746,11.19,-0.44,-3.11,-0.46,92,261,3.1844091415405273,3.149773359298706
15,-0.40755391120910645,-2.16007924079895,-0.03654223307967186,36.716034,3.184107,12.4,-3.69,-5.15,-1.1,92,236,6.438962459564209,6.343535423278809
16,-0.513057291507721,-2.16202974319458,-0.019317133352160454,36.7159727,3.1839992,14.45,-5.15,-7.4,-1.51,91,236,9.153748512268066,9.026972770690918
17,-0.4310823380947113,-2.1681642532348633,0.03323320299386978,36.7158859,3.1838435,17.3,-5.54,-8.08,-1.59,91,235,9.933077812194824,9.80435848236084
18,-0.4325639009475708,-2.164577007293701,-0.015392082743346691,36.7158106,3.1837048,19.74,-5.54,-8.22,-1.59,90,235,10.046282768249512,9.918889999389648
19,-0.4849117398262024,-2.165489435195923,0.026751793920993805,36.7157231,3.1835425,22.62,-5.53,-8.23,-1.6,90,235,10.046398162841797,9.917672157287598
20,-0.4308627247810364,-2.1659810543060303,0.02863074652850628,36.715648,3.1834035,25.1,-5.54,-8.26,-1.61,89,235,10.081480979919434,9.95137882232666
21,-0.4402701258659363,-2.168299913406372,-0.022582456469535828,36.7155729,3.1832637,27.58,-5.54,-8.28,-1.62,89,235,10.09930419921875,9.96784496307373
22,-0.4816623330116272,-2.166524887084961,0.03681747987866402,36.7154856,3.1831008,30.49,-5.5,-8.26,-1.63,89,235,10.065638542175293,9.932475090026855
23,-0.42877197265625,-2.163605213165283,0.013637462630867958,36.7154111,3.1829614,32.99,-5.52,-8.27,-1.63,88,236,10.081592559814453,9.948019981384277
24,-0.4381372928619385,-2.1646852493286133,-0.025765545666217804,36.7153361,3.1828217,35.49,-5.54,-8.27,-1.63,88,235,10.096146583557129,9.962096214294434
25,-0.4778944253921509,-2.1672182083129883,0.03678093105554581,36.7152487,3.182659,38.41,-5.52,-8.28,-1.63,87,235,10.089241027832031,9.955458641052246
26,-0.43626800179481506,-2.1657752990722656,0.017981693148612976,36.7151739,3.1825194,40.92,-5.56,-8.3,-1.63,87,235,10.132149696350098,9.9990816116333
27,-0.4888031482696533,-2.1654202938079834,-0.014840206131339073,36.7150863,3.1823559,43.83,-5.52,-8.29,-1.64,86,235,10.106452941894531,9.972297668457031
28,-0.42434990406036377,-2.1654253005981445,0.026825066655874252,36.7150115,3.1822161,46.33,-5.46,-8.16,-1.63,86,235,9.962568283081055,9.827621459960938
29,-0.14530767500400543,-2.1688907146453857,-0.02058207429945469,36.7149329,3.182071,48.98,-4.24,-6.28,-1.23,85,235,7.682529449462891,7.582661151885986
30,-0.07951080054044724,-2.153395175933838,0.03994572162628174,36.7148872,3.1819848,50.33,-2.66,-4.15,-0.54,85,236,4.965978145599365,4.936314105987549
31,-0.15533210337162018,-2.0948352813720703,-0.013256826438009739,36.7148515,3.1819103,50.78,-2.05,-3.67,-0.06,85,239,4.20693302154541,4.206396102905273
32,-0.13924942910671234,-2.0873992443084717,0.03044169954955578,36.7148244,3.1818491,50.78,-2.0,-3.67,-0.02,84,240,4.190613269805908,4.190563201904297
33,0.023490995168685913,-2.097443103790283,-0.040477361530065536,36.7147997,3.1817935,50.72,-1.52,-2.71,0.18,84,239,3.123087167739868,3.1178698539733887
34,0.03406510874629021,-2.4219608306884766,-0.027713602408766747,36.7147795,3.1817584,49.26,-1.13,-1.09,1.42,84,221,2.1262753009796143,1.5751200914382935
35,-0.06128906458616257,-2.462916612625122,-0.015827465802431107,36.7147651,3.1817442,46.97,-1.03,-0.8,1.43,83,218,1.9423269033432007,1.3094178438186646
36,-0.01717561110854149,-2.4685282707214355,-0.01124737411737442,36.7147486,3.1817287,44.36,-1.05,-0.84,1.43,83,218,1.9724291563034058,1.3513213396072388
37,-0.05702930688858032,-2.469573497772217,0.017752349376678467,36.7147342,3.1817145,42.12,-1.06,-0.87,1.45,83,218,1.9989615678787231,1.3757721185684204
38,-0.011356604285538197,-2.469890832901001,-0.010994226671755314,36.7147197,3.1816999,39.88,-1.06,-0.89,1.45,82,218,2.0127315521240234,1.3897112607955933
39,-0.03320665657520294,-2.469696283340454,0.028830068185925484,36.7147029,3.1816828,37.26,-1.07,-0.88,1.45,82,218,2.0184030532836914,1.3971006870269775
40,-0.02949870005249977,-2.4694244861602783,-0.027722155675292015,36.7146882,3.181668,35.02,-1.07,-0.88,1.46,81,218,2.0272672176361084,1.3980551958084106
41,-0.008746176026761532,-2.469447135925293,0.010892744176089764,36.7146711,3.1816509,32.4,-1.07,-0.88,1.47,81,218,2.0256381034851074,1.3893522024154663
42,-0.05776500701904297,-2.469252109527588,-0.012928154319524765,36.7146566,3.1816363,30.14,-1.06,-0.89,1.47,81,218,2.024482488632202,1.3918969631195068
43,-0.015120149590075016,-2.4701168537139893,-0.020110249519348145,36.7146396,3.181619,27.53,-1.07,-0.89,1.47,80,218,2.029919385910034,1.395614743232727
44,-0.058734647929668427,-2.4692156314849854,0.006273010279983282,36.714625,3.1816042,25.28,-1.06,-0.88,1.48,80,218,2.0310349464416504,1.3882131576538086
45,-0.009574806317687035,-2.4695699214935303,-0.007734118960797787,36.7146104,3.1815896,23.03,-1.07,-0.88,1.47,80,218,2.0286688804626465,1.38996422290802
46,-0.03471028804779053,-2.469275951385498,0.030316071584820747,36.7145934,3.1815725,20.4,-1.06,-0.88,1.47,79,218,2.0273072719573975,1.3886265754699707
47,-0.032746292650699615,-2.46974515914917,-0.026473404839634895,36.7145788,3.1815576,18.16,-1.06,-0.88,1.48,79,218,2.027106285095215,1.380142331123352
48,-0.014132460579276085,-2.469282388687134,0.016345053911209106,36.7145618,3.1815405,15.53,-1.06,-0.88,1.48,78,218,2.0300111770629883,1.3878103494644165
49,-0.06879927963018417,-2.4772939682006836,-0.03689117729663849,36.7145472,3.1815258,13.28,-1.09,-0.87,1.47,78,218,2.034515380859375,1.4015504121780396
50,-0.1393805593252182,3.026909351348877,-0.0900174006819725,36.7145266,3.1815169,11.26,-2.09,0.14,0.91,78,173,2.2912144660949707,2.100029230117798
51,-0.24248236417770386,2.6777780055999756,0.018810192123055458,36.7144788,3.18154,10.83,-3.8,1.86,-0.05,77,153,4.233330726623535,4.233031272888184
52,-0.11373049020767212,2.6810128688812256,0.01570303924381733,36.7144244,3.1815734,10.89,-4.05,2.01,0.05,77,153,4.526575088500977,4.526284694671631
53,-0.07412117719650269,-2.9889254570007324,0.2881515920162201,36.7143648,3.1815952,10.83,-3.24,-0.48,0.03,77,188,3.2805440425872803,3.2803425788879395
54,-0.40888267755508423,-2.189257860183716,0.06047207489609718,36.7143236,3.1815536,10.82,-3.13,-4.44,0.01,76,234,5.437652587890625,5.437626838684082
55,-0.48943614959716797,-2.157212495803833,0.03571690618991852,36.7142629,3.1814357,10.82,-4.52,-7.19,0.0,76,236,8.504281997680664,8.504281044006348
56,-0.42869532108306885,-2.1512248516082764,-0.019160937517881393,36.7141979,3.1813079,10.83,-4.93,-7.72,0.0,75,236,9.164260864257812,9.16425895690918
57,-0.3344099223613739,-2.1522939205169678,-0.01856013759970665,36.7141325,3.1811814,10.85,-4.52,-6.97,0.0,75,236,8.317302703857422,8.317301750183105
58,-0.23188242316246033,-2.1368417739868164,0.008084508590400219,36.7140687,3.181057,10.83,-3.57,-5.77,0.02,75,237,6.792309761047363,6.792245864868164
59,-0.2962184548377991,-2.1089489459991455,9.218326886184514e-05,36.7140225,3.1809609,10.82,-3.29,-5.66,0.0,74,239,6.552314758300781,6.552310466766357
60,-0.2571488320827484,-2.099832773208618,-0.009650956839323044,36.7139713,3.1808496,10.82,-3.23,-5.66,0.0,74,239,6.5192036628723145,6.519200325012207
61,-0.12954960763454437,-2.099792718887329,-0.005979537032544613,36.7139292,3.1807579,10.83,-2.8,-4.9,0.0,73,239,5.648430347442627,5.648429870605469
62,0.18246768414974213,-2.1008646488189697,0.005895332898944616,36.7139001,3.1806946,10.79,-1.32,-2.31,0.01,73,239,2.6665050983428955,2.666438579559326
63,0.055557772517204285,-2.10097599029541,0.026595108211040497,36.7138915,3.1806754,10.81,0.01,-0.01,0.0,73,239,0.025000492110848427,0.02367543801665306
64,0.009966090321540833,-2.099890947341919,0.06606592237949371,36.7138931,3.1806771,10.78,0.34,-0.04,0.02,72,239,0.3532128632068634,0.35217952728271484
