timestamp,pitch,yaw,roll,lat,lon,alt,velocity_x,velocity_y,velocity_z,battery,heading,airspeed,groundspeed
0,-0.012197797186672688,-0.015501161105930805,-0.015608828514814377,36.7156067,3.18463,13.32,-0.02,0.02,-0.03,96,359,0.049045927822589874,0.03657272458076477
1,-0.02403428591787815,-0.01756194792687893,0.1318899542093277,36.7156074,3.1846321,13.33,0.2,0.54,-0.01,95,359,0.5882652997970581,0.5879718661308289
2,-0.14354948699474335,1.706152319908142,-0.06394367665052414,36.7156186,3.184663,13.33,1.17,2.57,-0.02,95,97,2.8279738426208496,2.827894449234009
3,-0.10840680450201035,0.9526827335357666,-0.011042064055800438,36.7156364,3.1847107,13.34,1.34,2.92,-0.01,95,54,3.2229115962982178,3.2228927612304688
4,0.3388924300670624,1.4579355716705322,0.11759558320045471,36.7156497,3.1847497,13.35,-0.21,0.12,-0.04,94,83,0.250541627407074,0.24712006747722626
5,-0.13085204362869263,3.123516321182251,0.21076156198978424,36.7156325,3.1847208,13.36,-2.07,-2.99,0.04,94,178,3.648503541946411,3.648190975189209
6,-0.11545009911060333,-1.9167704582214355,-0.04656583070755005,36.7156023,3.1846652,13.36,-2.31,-3.32,-0.06,93,250,4.051996231079102,4.051445007324219
7,0.00424729660153389,-1.7182390689849854,0.2127251774072647,36.7155754,3.1846006,13.34,-0.51,-3.04,0.03,93,261,3.0900862216949463,3.0899245738983154
8,-0.3955652415752411,-0.664070725440979,0.08549881726503372,36.7155936,3.184552,13.32,3.31,-2.95,0.0,93,321,4.4398722648620605,4.439866542816162
9,-0.4773470163345337,-0.6215935349464417,0.018086690455675125,36.7156741,3.1844791,13.33,6.62,-4.61,0.0,92,324,8.073423385620117,8.073419570922852
10,-0.5195572972297668,-0.6178155541419983,-0.02872215025126934,36.7157732,3.1843932,13.34,7.85,-5.46,0.0,92,324,9.56599235534668,9.565991401672363
11,-0.38700270652770996,-0.6227608919143677,0.026402458548545837,36.7158974,3.1842838,13.37,7.6,-5.43,-0.02,91,324,9.34972858428955,9.349701881408691
12,-0.09754550457000732,-0.6260566115379333,-0.026215577498078346,36.7159907,3.1842009,13.4,5.8,-4.16,0.03,91,324,7.146171569824219,7.146090507507324
13,0.0559287965297699,-0.9242823719978333,-0.1922779083251953,36.7160474,3.1841435,13.44,2.21,-2.94,-0.13,91,307,3.683090925216675,3.680434465408325
14,-0.4007965922355652,-2.1235578060150146,-0.1129736676812172,36.7160429,3.1840797,14.29,-2.57,-4.17,-0.83,90,238,4.975709438323975,4.904839992523193
15,-0.47615504264831543,-2.166116952896118,0.03633679077029228,36.7159916,3.183989,16.02,-4.64,-6.65,-1.39,90,235,8.234423637390137,8.115797996520996
16,-0.45611077547073364,-2.1632680892944336,-0.031448327004909515,36.7159089,3.1838408,18.77,-5.51,-8.05,-1.61,89,236,9.89841365814209,9.765589714050293
17,-0.49028080701828003,-2.1633591651916504,-0.0043456037528812885,36.7158337,3.183703,21.24,-5.52,-8.18,-1.57,89,236,9.998137474060059,9.872905731201172
18,-0.42739173769950867,-2.1624059677124023,0.01219097338616848,36.715746,3.1835405,24.12,-5.54,-8.23,-1.58,88,236,10.051307678222656,9.924957275390625
19,-0.4538242816925049,-2.1637537479400635,-0.03544856980443001,36.715671,3.1834012,26.59,-5.55,-8.26,-1.6,88,236,10.089252471923828,9.960882186889648
20,-0.49198630452156067,-2.1669719219207764,0.006870786193758249,36.7155961,3.1832617,29.08,-5.52,-8.28,-1.6,88,235,10.083329200744629,9.954126358032227
21,-0.42282772064208984,-2.1655144691467285,0.013157844543457031,36.7155088,3.1830985,32.0,-5.51,-8.28,-1.61,87,235,10.07844066619873,9.9483642578125
22,-0.45768412947654724,-2.165121555328369,-0.030400440096855164,36.7154343,3.182959,34.49,-5.5,-8.26,-1.61,87,235,10.06414794921875,9.93326187133789
23,-0.46549153327941895,-2.1637184619903564,0.03647996485233307,36.7153473,3.182796,37.4,-5.52,-8.31,-1.63,86,236,10.11597728729248,9.982378005981445
24,-0.4241434931755066,-2.162792921066284,0.0026722257025539875,36.7152724,3.1826559,39.91,-5.52,-8.27,-1.63,86,236,10.077884674072266,9.944967269897461
25,-0.46288827061653137,-2.164013147354126,-0.028044695034623146,36.7151977,3.1825165,42.41,-5.5,-8.27,-1.62,85,236,10.07083797454834,9.938421249389648
26,-0.4702434241771698,-2.1635658740997314,0.025234665721654892,36.7151106,3.1823535,45.32,-5.53,-8.3,-1.64,85,236,10.111473083496094,9.976737976074219
27,-0.42368075251579285,-2.1648638248443604,0.0065051354467868805,36.7150355,3.1822134,47.83,-5.51,-8.29,-1.64,84,235,10.098076820373535,9.963436126708984
28,-0.2965959906578064,-2.1674251556396484,0.005646392237395048,36.7149514,3.1820568,50.66,-4.82,-7.2,-1.44,84,235,8.793612480163574,8.674134254455566
29,-0.04604783281683922,-2.164379835128784,0.02349334955215454,36.7148969,3.181955,52.44,-3.19,-4.82,-0.8,84,236,5.8457441329956055,5.789957046508789
30,-0.16684523224830627,-2.1094188690185547,0.030159564688801765,36.7148569,3.1818754,53.25,-2.14,-3.71,-0.17,83,239,4.2934722900390625,4.289904594421387
31,-0.12366122007369995,-2.085956573486328,0.004336994141340256,36.7148293,3.1818139,53.31,-2.0,-3.69,0.0,83,240,4.20042610168457,4.200418949127197
32,-0.06160513684153557,-2.086972951889038,-0.009706984274089336,36.7148027,3.1817535,53.31,-1.8,-3.32,-0.01,82,240,3.7813193798065186,3.781303644180298
33,0.03437269106507301,-2.2820370197296143,-0.07262451201677322,36.7147796,3.1817064,52.59,-1.21,-1.5,1.03,82,229,2.1957693099975586,1.9348983764648438
34,-0.053496815264225006,-2.485565423965454,0.01700691320002079,36.7147645,3.1816889,50.43,-1.02,-0.79,1.46,82,217,1.957427740097046,1.2953996658325195
35,-0.04350429028272629,-2.471442937850952,-0.019498122856020927,36.7147481,3.1816736,47.81,-1.04,-0.83,1.42,81,218,1.9542094469070435,1.3403679132461548
36,-0.030318483710289,-2.4700663089752197,0.02687797136604786,36.7147339,3.1816596,45.57,-1.06,-0.87,1.44,81,218,1.9939547777175903,1.3786486387252808
37,-0.036073315888643265,-2.469872236251831,-0.02645125985145569,36.7147193,3.181645,43.32,-1.07,-0.88,1.44,81,218,2.0013747215270996,1.3894845247268677
38,-0.007612531539052725,-2.469717264175415,0.005099734291434288,36.7147024,3.1816279,40.71,-1.06,-0.87,1.45,80,218,2.003223419189453,1.3818600177764893
39,-0.05359192192554474,-2.468989849090576,-0.01770051009953022,36.7146878,3.1816133,38.47,-1.07,-0.89,1.46,80,218,2.020777463912964,1.393944263458252
40,-0.015009403228759766,-2.469449281692505,-0.01747044548392296,36.7146707,3.1815961,35.85,-1.07,-0.88,1.46,79,218,2.0238096714019775,1.3932955265045166
41,-0.05789923295378685,-2.4694266319274902,0.013784091919660568,36.7146561,3.1815815,33.6,-1.05,-0.88,1.46,79,218,2.015441417694092,1.3826617002487183
42,-0.0135597363114357,-2.4701430797576904,-0.010512946173548698,36.7146416,3.1815668,31.36,-1.06,-0.88,1.47,79,218,2.025927782058716,1.3866772651672363
43,-0.03114929609000683,-2.4694159030914307,0.03179018571972847,36.7146246,3.1815496,28.74,-1.06,-0.89,1.47,78,218,2.026973009109497,1.3873324394226074
44,-0.031863823533058167,-2.469684362411499,-0.028129542246460915,36.71461,3.1815348,26.48,-1.07,-0.89,1.47,78,218,2.028874397277832,1.3947322368621826
45,-0.051782697439193726,-2.469444513320923,0.02403159625828266,36.7145954,3.1815201,24.24,-1.07,-0.87,1.48,78,218,2.0282390117645264,1.3853987455368042
46,-0.056120071560144424,-2.469686985015869,-0.010671018622815609,36.7145783,3.181503,21.61,-1.06,-0.88,1.47,77,218,2.0262856483459473,1.3853750228881836
47,-0.014908019453287125,-2.4700353145599365,-0.018875818699598312,36.7145614,3.1814859,18.98,-1.05,-0.88,1.47,77,218,2.0146820545196533,1.3766777515411377
48,-0.06425721943378448,-2.469205141067505,0.0075743794441223145,36.714547,3.1814711,16.74,-1.06,-0.88,1.47,77,218,2.021768093109131,1.3853116035461426
49,-0.06461814045906067,-2.8447725772857666,-0.1087244376540184,36.7145305,3.1814576,14.52,-1.58,-0.52,1.34,76,197,2.1397857666015625,1.664170503616333
50,-0.22393612563610077,2.674445629119873,0.0030558237340301275,36.7144923,3.1814672,13.32,-3.33,1.55,0.0,76,153,3.680248975753784,3.6802475452423096
51,-0.16824646294116974,2.678767204284668,-0.029277998954057693,36.7144406,3.1814987,13.42,-4.06,2.03,-0.02,75,153,4.550300121307373,4.550235748291016
52,-0.0065505485981702805,2.9200479984283447,0.17776434123516083,36.7143779,3.1815329,13.37,-3.66,0.83,0.05,75,167,3.7612240314483643,3.7608113288879395
53,-0.3710647523403168,-2.286273956298828,0.14012087881565094,36.7143342,3.1815183,13.35,-2.93,-2.93,0.02,75,229,4.156102180480957,4.1560378074646
54,-0.47775670886039734,-2.1393234729766846,0.031236587092280388,36.7142896,3.1814397,13.35,-3.89,-6.19,0.01,74,237,7.318557262420654,7.318531036376953
55,-0.4814015328884125,-2.1496829986572266,-0.025467226281762123,36.7142187,3.1813003,13.36,-4.89,-7.69,0.0,74,236,9.119549751281738,9.119549751281738
56,-0.3954036235809326,-2.151494264602661,0.021319368854165077,36.7141521,3.1811706,13.38,-4.82,-7.45,0.0,73,236,8.884078979492188,8.884076118469238
57,-0.2256382256746292,-2.1481335163116455,-0.015105059370398521,36.7140826,3.1810366,13.38,-3.89,-6.07,0.03,73,236,7.21735143661499,7.217282295227051
58,-0.2943025827407837,-2.124689817428589,0.03547405079007149,36.714034,3.1809389,13.36,-3.41,-5.68,0.02,73,238,6.630804061889648,6.630768299102783
59,-0.2827398180961609,-2.108377456665039,-0.0220109224319458,36.7139815,3.180828,13.36,-3.28,-5.65,0.01,72,239,6.540363311767578,6.540351390838623
60,-0.21298003196716309,-2.1090545654296875,0.028831280767917633,36.7139371,3.180733,13.36,-3.16,-5.45,0.0,72,239,6.309587001800537,6.309586524963379
61,0.10426363348960876,-2.1090564727783203,-0.013932015746831894,36.7139001,3.1806542,13.35,-2.09,-3.56,0.04,72,239,4.137759208679199,4.137548446655273
62,0.13115951418876648,-2.108532667160034,0.026644308120012283,36.7138825,3.1806164,13.34,-0.28,-0.5,-0.02,71,239,0.5816404819488525,0.5812214612960815
63,-0.002114794682711363,-2.108747720718384,-0.01155872829258442,36.7138826,3.180616,13.33,0.11,0.13,0.03,71,239,0.1824079006910324,0.1788451075553894
