timestamp,pitch,yaw,roll,lat,lon,alt,velocity_x,velocity_y,velocity_z,battery,heading,airspeed,groundspeed
0,-0.022089455276727676,0.016818111762404442,0.01762126386165619,36.7156066,3.18463,27.03,-0.01,0.02,0.12,96,0,0.1292961984872818,0.029454289004206657
1,-0.10647069662809372,0.061199747025966644,0.07339337468147278,36.7156087,3.1846332,26.92,0.5,0.65,0.0,95,3,0.826980710029602,0.8269760012626648
2,-0.21696515381336212,1.2563592195510864,-0.08292585611343384,36.7156256,3.1846587,26.88,2.1,2.54,-0.04,95,71,3.3043038845062256,3.3039441108703613
3,-0.2111327052116394,0.9138118624687195,0.015845634043216705,36.7156686,3.1847232,26.96,3.11,3.71,-0.07,94,52,4.847959518432617,4.847425937652588
4,-0.06307467073202133,0.8720699548721313,-0.02461579628288746,36.715711,3.1847856,27.01,2.96,3.51,-0.05,94,49,4.604946613311768,4.604654312133789
5,0.29987600445747375,0.7876502871513367,-0.016128968447446823,36.7157406,3.1848276,27.04,0.87,0.87,0.0,94,45,1.238513469696045,1.238511562347412
6,-0.07563845813274384,-0.9062516689300537,-0.23695644736289978,36.7157284,3.1848015,27.07,-2.01,-2.91,-0.04,93,308,3.538994789123535,3.538717746734619
7,-0.11429090797901154,-2.374058246612549,0.05080315098166466,36.7156985,3.1847478,27.09,-2.24,-3.24,0.01,93,223,3.948356866836548,3.9483375549316406
8,-0.030381353572010994,-1.8882118463516235,0.1893225759267807,36.7156699,3.1846843,27.07,-0.9,-3.05,0.01,93,251,3.1861460208892822,3.1861047744750977
9,-0.3221814036369324,-0.7078251242637634,0.09970353543758392,36.715681,3.1846361,27.06,2.75,-2.82,0.0,92,319,3.9505374431610107,3.950536012649536
10,-0.5179587602615356,-0.6059056520462036,0.01045236736536026,36.7157407,3.1845794,27.06,5.91,-4.11,0.01,92,325,7.204831600189209,7.204819679260254
11,-0.48264479637145996,-0.6148796677589417,-0.010435893200337887,36.7158504,3.1844845,27.08,7.74,-5.34,0.0,91,324,9.416243553161621,9.416242599487305
12,-0.4842725694179535,-0.6178882122039795,-0.02122863382101059,36.7159569,3.1843919,27.09,7.86,-5.54,0.0,91,324,9.622949600219727,9.622949600219727
13,-0.15404929220676422,-0.6211870908737183,0.020332258194684982,36.716072,3.1842904,27.13,6.27,-4.46,0.01,91,324,7.7035722732543945,7.703559398651123
14,0.05590590834617615,-0.7940234541893005,-0.17632822692394257,36.7161372,3.1842288,27.14,2.96,-3.02,-0.07,90,314,4.238054275512695,4.2374444007873535
15,-0.2950650453567505,-2.0110857486724854,-0.14042744040489197,36.7161479,3.1841781,27.65,-1.39,-3.46,-0.6,90,244,3.7853758335113525,3.7364187240600586
16,-0.5014515519142151,-2.176921844482422,0.007833377458155155,36.7160986,3.1840849,29.4,-4.39,-6.24,-1.3,89,235,7.7449798583984375,7.633391857147217
17,-0.48891913890838623,-2.1669387817382812,0.047122422605752945,36.7160306,3.1839642,31.67,-5.44,-7.85,-1.58,89,235,9.691609382629395,9.560726165771484
18,-0.4594822824001312,-2.165353536605835,-0.02899869531393051,36.7159428,3.1838046,34.54,-5.53,-8.16,-1.57,88,235,9.987528800964355,9.862603187561035
19,-0.4950859248638153,-2.1637797355651855,0.0071563273668289185,36.7158677,3.1836651,36.99,-5.53,-8.24,-1.58,88,236,10.060973167419434,9.93480110168457
20,-0.4251781404018402,-2.162930965423584,0.002687126398086548,36.7157928,3.1835258,39.47,-5.52,-8.23,-1.6,88,236,10.043482780456543,9.91427993774414
21,-0.4630187749862671,-2.163830280303955,-0.028269264847040176,36.7157056,3.1833636,42.36,-5.52,-8.26,-1.61,87,236,10.07357120513916,9.943840980529785
22,-0.48759281635284424,-2.1659982204437256,0.013154176063835621,36.7156306,3.1832238,44.86,-5.51,-8.28,-1.61,87,235,10.081560134887695,9.95099925994873
23,-0.4236217439174652,-2.1636624336242676,0.006422644015401602,36.7155435,3.1830608,47.77,-5.5,-8.29,-1.62,86,236,10.085701942443848,9.953696250915527
24,-0.4608044922351837,-2.164424419403076,-0.03004489652812481,36.7154689,3.1829211,50.27,-5.52,-8.3,-1.62,86,235,10.106109619140625,9.974364280700684
25,-0.45685216784477234,-2.1658875942230225,0.04025443643331528,36.7153815,3.1827579,53.19,-5.5,-8.29,-1.64,85,235,10.088915824890137,9.954618453979492
26,-0.4298793375492096,-2.1636390686035156,0.020708240568637848,36.715307,3.1826182,55.7,-5.51,-8.28,-1.63,85,236,10.084577560424805,9.95140552520752
27,-0.46576163172721863,-2.1636240482330322,-0.028593547642230988,36.7152324,3.1824784,58.2,-5.52,-8.29,-1.62,84,236,10.102396011352539,9.970388412475586
28,-0.46358075737953186,-2.165019989013672,0.039552271366119385,36.715145,3.1823152,61.12,-5.53,-8.28,-1.63,84,235,10.094788551330566,9.960795402526855
29,-0.3140050768852234,-2.168074131011963,-0.0036251444835215807,36.7150709,3.1821776,63.59,-5.23,-7.75,-1.55,83,235,9.480488777160645,9.352112770080566
30,-0.10504953563213348,-2.167135238647461,0.023905470967292786,36.715001,3.1820474,65.93,-3.47,-5.24,-0.93,83,235,6.363576412200928,6.294726371765137
31,-0.09613997489213943,-2.1361489295959473,0.009258215315639973,36.714963,3.1819736,66.85,-2.33,-3.76,-0.31,83,237,4.4411797523498535,4.429901123046875
32,-0.1568354070186615,-2.103397846221924,0.03318988159298897,36.7149287,3.1819013,67.05,-2.07,-3.64,-0.01,82,239,4.192277431488037,4.192258834838867
33,-0.05571693181991577,-2.103631019592285,-0.019839636981487274,36.7149009,3.1818407,67.04,-1.96,-3.48,-0.03,82,239,3.9992318153381348,3.999117851257324
34,0.03018517978489399,-2.1735873222351074,-0.025735072791576385,36.7148786,3.1817938,66.76,-1.32,-1.99,0.55,82,235,2.4558522701263428,2.392300844192505
35,-0.01143635157495737,-2.4829208850860596,-0.03333256021142006,36.7148599,3.1817684,64.6,-1.05,-0.83,1.49,81,217,2.0149872303009033,1.3499541282653809
36,-0.030403297394514084,-2.470371961593628,0.028548436239361763,36.7148458,3.1817552,62.33,-1.02,-0.8,1.42,81,218,1.9320101737976074,1.302544355392456
37,-0.06423915922641754,-2.4698808193206787,-0.0067068045027554035,36.7148293,3.1817392,59.72,-1.06,-0.86,1.43,80,218,1.9854825735092163,1.3700016736984253
38,-0.011692209169268608,-2.4699790477752686,0.013810163363814354,36.7148148,3.1817248,57.48,-1.07,-0.87,1.45,80,218,2.0036041736602783,1.382145643234253
39,-0.05260683596134186,-2.469670295715332,-0.016327250748872757,36.7148003,3.1817102,55.23,-1.07,-0.89,1.45,80,218,2.0137057304382324,1.3943783044815063
40,-0.01538777258247137,-2.470094919204712,-0.015127189457416534,36.7147833,3.1816932,52.61,-1.07,-0.88,1.45,79,218,2.015559196472168,1.3933417797088623
41,-0.06264234334230423,-2.469775676727295,0.009133114479482174,36.7147687,3.1816784,50.38,-1.07,-0.89,1.46,79,218,2.0247671604156494,1.3966562747955322
42,-0.04077518358826637,-2.4701759815216064,-0.024507828056812286,36.7147517,3.1816613,47.76,-1.07,-0.88,1.47,79,218,2.0294721126556396,1.3924360275268555
43,-0.044983331114053726,-2.46984601020813,0.028935197740793228,36.7147372,3.1816467,45.51,-1.06,-0.89,1.47,78,218,2.025214910507202,1.3902337551116943
44,-0.026242591440677643,-2.469944953918457,-0.023076463490724564,36.7147226,3.1816319,43.26,-1.07,-0.88,1.47,78,218,2.0303874015808105,1.3944495916366577
45,-0.011179194785654545,-2.469670534133911,0.0176397655159235,36.7147055,3.1816147,40.64,-1.06,-0.88,1.48,78,218,2.0278396606445312,1.3835757970809937
46,-0.0538204051554203,-2.4698023796081543,-0.019511917605996132,36.714691,3.1816,38.39,-1.06,-0.89,1.47,77,218,2.0309553146362305,1.3911783695220947
47,-0.012261642143130302,-2.4700675010681152,-0.00874295923858881,36.714674,3.1815829,35.77,-1.07,-0.87,1.47,77,218,2.0302114486694336,1.390527367591858
48,-0.06372050195932388,-2.4696736335754395,0.002207478741183877,36.7146593,3.1815682,33.51,-1.06,-0.88,1.47,76,218,2.0288100242614746,1.388471245765686
49,-0.03050006739795208,-2.470013380050659,-0.02555674873292446,36.7146424,3.181551,30.88,-1.06,-0.88,1.47,76,218,2.024719715118408,1.3864771127700806
50,-0.08497296273708344,-2.6697373390197754,-0.052980173379182816,36.714627,3.1815368,28.64,-1.37,-0.69,1.43,76,207,2.1039984226226807,1.5420652627944946
51,-0.2300436794757843,2.735646963119507,-0.09276589751243591,36.7146,3.1815371,27.14,-2.76,1.0,0.33,75,156,2.9629080295562744,2.943905830383301
52,-0.1713121086359024,2.6732676029205322,0.018405679613351822,36.7145443,3.1815698,27.13,-3.98,2.01,-0.06,75,153,4.470739364624023,4.470322132110596
53,-0.08350777626037598,2.744737386703491,0.066313736140728,36.7144901,3.1816028,27.12,-3.84,1.57,0.06,75,157,4.154444217681885,4.153927326202393
54,-0.2658725678920746,-2.4228508472442627,0.20650246739387512,36.7144365,3.181602,27.08,-2.91,-2.26,0.02,74,221,3.6900269985198975,3.689929962158203
55,-0.49878716468811035,-2.1533396244049072,0.005844683386385441,36.7143937,3.1815328,27.08,-3.64,-5.8,0.02,74,236,6.8542585372924805,6.854217052459717
56,-0.4860977232456207,-2.1511127948760986,0.029063163325190544,36.7143363,3.1814195,27.09,-4.71,-7.47,0.0,73,236,8.84131145477295,8.841310501098633
57,-0.3966860771179199,-2.150592565536499,-0.027684086933732033,36.7142587,3.1812682,27.1,-4.9,-7.6,0.0,73,236,9.05189323425293,9.051889419555664
58,-0.28089532256126404,-2.1518800258636475,0.032712604850530624,36.7141966,3.1811485,27.11,-4.17,-6.46,0.02,73,236,7.696091175079346,7.696058750152588
59,-0.28223177790641785,-2.1290283203125,-0.011742772534489632,36.7141376,3.1810316,27.08,-3.47,-5.69,0.02,72,238,6.672194004058838,6.672151565551758
60,-0.2926131784915924,-2.111562490463257,0.03322552889585495,36.7140921,3.1809362,27.08,-3.29,-5.64,0.0,72,239,6.537674427032471,6.53767204284668
61,-0.22715899348258972,-2.108337879180908,-0.027219673618674278,36.7140402,3.1808251,27.08,-3.23,-5.56,0.0,71,239,6.4374260902404785,6.43742561340332
62,0.01887909322977066,-2.109184503555298,0.026048308238387108,36.7140011,3.1807416,27.08,-2.33,-4.01,0.02,71,239,4.647528648376465,4.647443771362305
63,0.15811952948570251,-2.109179973602295,-0.02677626721560955,36.7139807,3.1806981,27.06,-0.69,-1.17,-0.01,71,239,1.360526204109192,1.3604234457015991
64,0.030452638864517212,-2.1088032722473145,0.017388924956321716,36.7139781,3.1806923,27.07,0.11,0.16,0.01,70,239,0.20472463965415955,0.20393170416355133
