timestamp,pitch,yaw,roll,lat,lon,alt,velocity_x,velocity_y,velocity_z,battery,heading,airspeed,groundspeed
0,0.022036932408809662,0.03739131614565849,0.022999107837677002,36.7156067,3.1846299,13.79,-0.02,0.02,-0.03,96,2,0.05562226474285126,0.040004912763834
1,-0.09973672032356262,0.039461616426706314,0.1061934307217598,36.7156082,3.1846324,13.81,0.41,0.53,-0.01,95,2,0.6759611964225769,0.6756718158721924
2,-0.23004761338233948,1.1939376592636108,-0.10906382650136948,36.7156229,3.184653,13.81,1.89,2.16,-0.05,95,68,2.8766777515411377,2.876096248626709
3,-0.1707971692085266,0.8776273131370544,-0.01589706540107727,36.7156635,3.1847106,13.81,3.02,3.42,-0.01,95,50,4.571752071380615,4.5717387199401855
4,-0.12947937846183777,0.8396278023719788,-0.02005019597709179,36.7157054,3.1847688,13.82,2.99,3.31,0.0,94,48,4.463796138763428,4.463785171508789
5,0.32243168354034424,0.752964973449707,-0.021278221160173416,36.7157367,3.1848099,13.82,1.06,0.98,-0.02,94,43,1.4530644416809082,1.4527734518051147
6,-0.08951415121555328,-0.95827716588974,-0.19857658445835114,36.7157265,3.1847859,13.85,-1.96,-2.84,0.04,93,305,3.4623661041259766,3.4620635509490967
7,-0.11834181100130081,-2.3959429264068604,0.008731907233595848,36.7156967,3.1847322,13.84,-2.28,-3.26,-0.07,93,222,3.9845128059387207,3.9837377071380615
8,0.009475926868617535,-1.9124327898025513,0.17577451467514038,36.7156669,3.1846683,13.83,-0.99,-3.06,0.04,93,250,3.21854567527771,3.218186616897583
9,-0.36075693368911743,-0.7292097210884094,0.10873036831617355,36.7156766,3.1846202,13.81,2.67,-2.82,0.0,92,318,3.89617919921875,3.89617919921875
10,-0.48170939087867737,-0.6071627140045166,0.032034218311309814,36.7157354,3.1845638,13.81,5.86,-4.08,0.0,92,325,7.149738788604736,7.149734973907471
11,-0.5193442702293396,-0.6150816679000854,-0.02858038805425167,36.7158448,3.1844692,13.82,7.71,-5.32,0.0,91,324,9.380163192749023,9.380160331726074
12,-0.48565295338630676,-0.6177259087562561,0.014574393630027771,36.7159513,3.1843767,13.84,7.87,-5.53,0.0,91,324,9.624898910522461,9.624898910522461
13,-0.15494754910469055,-0.6220487356185913,-0.015481201931834221,36.7160668,3.1842746,13.88,6.33,-4.5,0.01,91,324,7.772935390472412,7.772925853729248
14,0.03897075727581978,-0.7043500542640686,-0.1393149495124817,36.7161252,3.1842214,13.87,3.73,-3.18,0.0,90,319,4.911892414093018,4.9118828773498535
15,-0.36352017521858215,-2.0903427600860596,-0.15408068895339966,36.7161417,3.1841521,14.54,-1.92,-3.75,-0.7,90,245,3.725626230239868,3.6780622005462646
16,-0.48580557107925415,-2.1795408725738525,0.04152216389775276,36.7160969,3.18407,16.1,-4.37,-6.18,-1.3,89,235,7.684328556060791,7.573363304138184
17,-0.4484242796897888,-2.1655209064483643,0.03408515080809593,36.7160291,3.1839497,18.36,-5.42,-7.84,-1.59,89,235,9.674915313720703,9.543326377868652
18,-0.49133798480033875,-2.1636807918548584,-0.014009891077876091,36.7159415,3.1837903,21.24,-5.54,-8.15,-1.57,88,236,9.984149932861328,9.859211921691895
19,-0.47071269154548645,-2.1641759872436523,0.03342294320464134,36.7158662,3.1836511,23.69,-5.54,-8.22,-1.58,88,236,10.046405792236328,9.919976234436035
20,-0.43886497616767883,-2.1633713245391846,-0.024371804669499397,36.7157787,3.1834883,26.58,-5.53,-8.25,-1.59,88,236,10.061920166015625,9.93359661102295
21,-0.48793208599090576,-2.1627843379974365,-0.014971470460295677,36.7157039,3.183349,29.05,-5.5,-8.24,-1.61,87,236,10.043787956237793,9.913022994995117
22,-0.4801446199417114,-2.164975881576538,0.03616997227072716,36.7156292,3.1832096,31.55,-5.5,-8.27,-1.62,87,235,10.071208000183105,9.939943313598633
23,-0.43604105710983276,-2.165353298187256,-0.01388144213706255,36.7155421,3.1830467,34.47,-5.53,-8.28,-1.62,86,235,10.097370147705078,9.966042518615723
24,-0.48681163787841797,-2.164201259613037,-0.01221658568829298,36.7154674,3.1829069,36.96,-5.51,-8.31,-1.62,86,236,10.107147216796875,9.975603103637695
25,-0.43521884083747864,-2.1665825843811035,0.037482570856809616,36.71538,3.1827438,39.88,-5.52,-8.27,-1.63,85,235,10.085145950317383,9.951199531555176
26,-0.4279954433441162,-2.164623260498047,-0.014451833441853523,36.7153055,3.1826043,42.39,-5.51,-8.32,-1.63,85,235,10.118071556091309,9.98583698272705
27,-0.4802234172821045,-2.164102554321289,-0.018784593790769577,36.7152306,3.1824639,44.9,-5.53,-8.31,-1.62,84,236,10.118284225463867,9.986437797546387
28,-0.44197985529899597,-2.1640732288360596,0.030303925275802612,36.7151434,3.1823008,47.81,-5.52,-8.27,-1.64,84,236,10.085542678833008,9.951249122619629
29,-0.32897526025772095,-2.167490243911743,-0.020059853792190552,36.7150694,3.1821631,50.29,-5.25,-7.8,-1.55,84,235,9.534666061401367,9.406816482543945
30,-0.0908491313457489,-2.1671173572540283,0.03199188411235809,36.7149987,3.1820315,52.64,-3.51,-5.26,-0.95,83,235,6.401272773742676,6.328933238983154
31,-0.09869494289159775,-2.137476682662964,7.242047558975173e-06,36.7149604,3.1819576,53.59,-2.33,-3.75,-0.33,83,237,4.436459541320801,4.4241251945495605
32,-0.17129233479499817,-2.105325937271118,0.01204797811806202,36.714931,3.1818957,53.8,-2.08,-3.66,-0.02,82,239,4.220950126647949,4.220855236053467
33,-0.06837916374206543,-2.103637933731079,-0.025061110034585,36.7148983,3.1818245,53.79,-1.99,-3.51,-0.02,82,239,4.040144443511963,4.040032863616943
34,0.040314655750989914,-2.1687872409820557,-0.01790686324238777,36.7148757,3.181777,53.53,-1.32,-2.01,0.52,82,235,2.468942403793335,2.4117989540100098
35,-0.014218087308108807,-2.4815011024475098,-0.03875992074608803,36.714857,3.1817513,51.39,-1.05,-0.84,1.49,81,217,2.016195297241211,1.3528794050216675
36,-0.02710222452878952,-2.4696528911590576,0.028281284496188164,36.714843,3.1817381,49.13,-1.03,-0.8,1.41,81,218,1.9330286979675293,1.3117367029190063
37,-0.03862448409199715,-2.4695687294006348,-0.02345426194369793,36.7148287,3.1817245,46.89,-1.05,-0.85,1.43,81,218,1.975486159324646,1.3578503131866455
38,-0.00950561836361885,-2.469985246658325,0.00691594835370779,36.714812,3.1817077,44.28,-1.06,-0.88,1.45,80,218,2.001553535461426,1.3789647817611694
39,-0.05135361850261688,-2.4696061611175537,-0.01578683964908123,36.7147974,3.1816931,42.04,-1.07,-0.89,1.45,80,218,2.016449451446533,1.396935224533081
40,-0.014018027111887932,-2.4700701236724854,-0.014644550159573555,36.7147804,3.1816761,39.42,-1.07,-0.88,1.45,79,218,2.016082763671875,1.3907197713851929
41,-0.06292295455932617,-2.4698128700256348,0.009771311655640602,36.7147658,3.1816614,37.17,-1.07,-0.89,1.46,79,218,2.0221874713897705,1.3949251174926758
42,-0.03639540821313858,-2.4702701568603516,-0.022721972316503525,36.7147488,3.1816443,34.55,-1.07,-0.88,1.46,79,218,2.0245771408081055,1.3935164213180542
43,-0.04111051186919212,-2.4700586795806885,0.026849327608942986,36.7147343,3.1816297,32.3,-1.06,-0.89,1.46,78,218,2.0189132690429688,1.3863660097122192
44,-0.052811186760663986,-2.469452381134033,-0.018777994439005852,36.7147173,3.1816124,29.68,-1.06,-0.89,1.47,78,218,2.02681565284729,1.3927586078643799
45,-0.015734439715743065,-2.4695723056793213,0.022960741072893143,36.7147026,3.1815976,27.43,-1.07,-0.88,1.47,78,218,2.027005672454834,1.390331506729126
46,-0.04644865170121193,-2.469928741455078,-0.021312475204467773,36.714688,3.1815829,25.19,-1.06,-0.88,1.47,77,218,2.0242435932159424,1.3843570947647095
47,-0.007067184895277023,-2.4698009490966797,-0.001378906425088644,36.7146711,3.1815658,22.57,-1.06,-0.88,1.48,77,218,2.027454137802124,1.3817970752716064
48,-0.05925237759947777,-2.4696404933929443,-0.007483590394258499,36.7146565,3.181551,20.31,-1.07,-0.89,1.47,77,218,2.032574415206909,1.393317461013794
49,-0.012901749461889267,-2.4697325229644775,0.014552471227943897,36.7146419,3.1815363,18.06,-1.06,-0.86,1.47,76,218,2.0185115337371826,1.374946117401123
50,-0.09472733736038208,-2.6511764526367188,-0.05597550794482231,36.7146242,3.1815197,15.44,-1.35,-0.71,1.44,76,208,2.1022937297821045,1.5287829637527466
51,-0.21122822165489197,2.744792938232422,-0.0948609933257103,36.7145975,3.1815193,13.89,-2.72,0.96,0.35,75,157,2.9153430461883545,2.893401861190796
52,-0.18920651078224182,2.6729795932769775,0.021229133009910583,36.7145423,3.1815516,13.87,-3.98,2.01,-0.06,75,153,4.470940113067627,4.470414161682129
53,-0.06790973991155624,2.739132881164551,0.06342117488384247,36.714488,3.1815848,13.87,-3.84,1.59,0.06,75,156,4.166487693786621,4.166001796722412
54,-0.26901960372924805,-2.4549973011016846,0.2344226837158203,36.714434,3.1815855,13.83,-2.94,-2.16,0.02,74,219,3.653364896774292,3.6532678604125977
55,-0.48845863342285156,-2.162066698074341,-0.0011223913170397282,36.7143912,3.181518,13.83,-3.65,-5.74,0.02,74,236,6.80799674987793,6.807949066162109
56,-0.5149349570274353,-2.1576924324035645,0.028704741969704628,36.7143334,3.1814049,13.83,-4.75,-7.45,0.0,73,236,8.839170455932617,8.839167594909668
57,-0.3827856481075287,-2.156424045562744,-0.027088366448879242,36.7142554,3.1812541,13.85,-4.95,-7.58,0.0,73,236,9.057978630065918,9.057978630065918
58,-0.30149927735328674,-2.1561098098754883,0.011329097673296928,36.7141924,3.1811344,13.87,-4.24,-6.51,0.02,73,236,7.777282238006592,7.777241230010986
59,-0.25478267669677734,-2.1267454624176025,-0.0027414318174123764,36.714133,3.181017,13.84,-3.45,-5.68,0.02,72,238,6.652043342590332,6.651986598968506
60,-0.30606609582901,-2.1042962074279785,0.011496000923216343,36.7140881,3.1809217,13.84,-3.24,-5.64,0.01,72,239,6.508576393127441,6.5085673332214355
61,-0.2111160308122635,-2.100126028060913,-0.010288132354617119,36.7140372,3.1808108,13.83,-3.2,-5.61,0.0,71,239,6.462268829345703,6.462268352508545
62,-0.00771217280998826,-2.100459575653076,0.008284268900752068,36.7139982,3.180726,13.83,-2.34,-4.1,0.02,71,239,4.728115081787109,4.728027820587158
63,0.17856045067310333,-2.10062837600708,-0.0017406133702024817,36.7139776,3.180681,13.8,-0.69,-1.21,-0.01,71,239,1.399725079536438,1.399641752243042
64,-0.004063684493303299,-2.1010818481445312,0.03011489287018776,36.7139749,3.180675,13.82,0.11,0.16,0.01,70,239,0.20554965734481812,0.20509518682956696
