timestamp,pitch,yaw,roll,lat,lon,alt,velocity_x,velocity_y,velocity_z,battery,heading,airspeed,groundspeed
0,0.032514967024326324,-0.030922027304768562,0.006504329387098551,36.7156067,3.1846299,21.54,-0.03,0.03,-0.04,96,358,0.06249801814556122,0.04376792162656784
1,-0.08679018914699554,-0.03857569396495819,0.082521453499794,36.7156077,3.1846316,21.49,0.3,0.44,-0.02,95,357,0.5344974398612976,0.5339791774749756
2,-0.2260838896036148,1.3680530786514282,-0.12936478853225708,36.7156229,3.1846565,21.53,1.81,2.31,-0.04,95,78,2.9379518032073975,2.937668561935425
3,-0.1493837684392929,0.8339347839355469,0.011534890159964561,36.7156543,3.1847057,21.54,2.61,3.31,-0.02,95,47,4.226278305053711,4.226222038269043
4,-0.04132707044482231,0.8875958323478699,0.017996544018387794,36.7156962,3.1847704,21.54,2.42,3.01,0.0,94,50,3.875101089477539,3.8750932216644287
5,0.3653096854686737,0.645436704158783,-0.12052393704652786,36.7157166,3.1847997,21.55,0.09,-0.11,-0.04,94,36,0.15408317744731903,0.1484554558992386
6,-0.06553791463375092,-1.149921178817749,-0.15246711671352386,36.7156965,3.1847608,21.54,-2.16,-3.13,0.05,93,294,3.815246343612671,3.8148820400238037
7,-0.14292554557323456,-2.4249308109283447,0.019494257867336273,36.7156658,3.1847056,21.59,-2.26,-3.27,-0.03,93,221,3.9831762313842773,3.983060836791992
8,0.014676451683044434,-1.8130124807357788,0.20121222734451294,36.7156433,3.1846511,21.55,-0.69,-3.03,0.04,93,256,3.1122870445251465,3.1120283603668213
9,-0.38953256607055664,-0.6623523831367493,0.11478232592344284,36.7156659,3.1845946,21.53,3.67,-3.01,0.0,92,322,4.754428386688232,4.754425048828125
10,-0.4779970943927765,-0.6163969039916992,-0.003590837586671114,36.7157355,3.1845326,21.53,6.48,-4.49,0.0,92,324,7.890982627868652,7.890982627868652
11,-0.5307039022445679,-0.6180441975593567,0.015186875127255917,36.7158512,3.1844326,21.55,7.85,-5.46,0.0,91,324,9.56810474395752,9.56810474395752
12,-0.384935587644577,-0.6181582808494568,0.015083445236086845,36.7159583,3.1843389,21.57,7.71,-5.43,-0.02,91,324,9.441259384155273,9.441230773925781
13,-0.14332659542560577,-0.6216107606887817,-0.026795797049999237,36.7160536,3.1842549,21.6,6.07,-4.31,0.02,91,324,7.450033187866211,7.449985980987549
14,0.10201574862003326,-1.008155107498169,-0.23638176918029785,36.7161199,3.1841873,21.66,1.87,-2.9,-0.17,90,302,3.4585204124450684,3.454022169113159
15,-0.3986336886882782,-2.117584705352783,-0.10565879195928574,36.7161162,3.1841337,22.39,-2.26,-3.95,-0.77,90,238,4.622973442077637,4.5573410987854
16,-0.4460010826587677,-2.165147066116333,-0.0076026879251003265,36.7160569,3.1840282,24.4,-4.76,-6.77,-1.41,89,235,8.406310081481934,8.286540985107422
17,-0.47361716628074646,-2.1635539531707764,-0.0364900641143322,36.7159859,3.1839012,26.75,-5.52,-8.0,-1.6,89,236,9.851730346679688,9.720317840576172
18,-0.4862387180328369,-2.1663331985473633,0.026775315403938293,36.7159107,3.1837645,29.21,-5.57,-8.17,-1.58,88,235,10.0219087600708,9.896402359008789
19,-0.43846645951271057,-2.165858507156372,-0.014530529268085957,36.7158226,3.1836022,32.08,-5.55,-8.24,-1.58,88,235,10.066193580627441,9.94041919708252
20,-0.4803416132926941,-2.1660702228546143,-0.016555586829781532,36.7157473,3.1834623,34.55,-5.5,-8.22,-1.59,88,235,10.022306442260742,9.894712448120117
21,-0.433220237493515,-2.164013385772705,0.028594549745321274,36.7156604,3.1833,37.44,-5.52,-8.26,-1.61,87,236,10.070320129394531,9.939244270324707
22,-0.43042516708374023,-2.164743423461914,-0.01690482906997204,36.7155856,3.1831606,39.94,-5.54,-8.27,-1.61,87,235,10.086462020874023,9.955617904663086
23,-0.48981693387031555,-2.166567325592041,0.02953050099313259,36.7154983,3.1829985,42.85,-5.53,-8.3,-1.62,86,235,10.111979484558105,9.981107711791992
24,-0.4305349588394165,-2.1658127307891846,0.02598748356103897,36.7154231,3.1828583,45.34,-5.51,-8.28,-1.63,86,235,10.081884384155273,9.948348999023438
25,-0.435153990983963,-2.1651501655578613,-0.025701316073536873,36.7153483,3.1827183,47.84,-5.49,-8.29,-1.63,85,235,10.08154296875,9.948209762573242
26,-0.4801881015300751,-2.1633119583129883,0.01569540798664093,36.7152613,3.1825555,50.76,-5.54,-8.27,-1.63,85,236,10.092432975769043,9.958992958068848
27,-0.4325401186943054,-2.166151285171509,0.024202410131692886,36.7151863,3.1824165,53.26,-5.55,-8.3,-1.63,84,235,10.129071235656738,9.995444297790527
28,-0.49116960167884827,-2.1650478839874268,-0.015786679461598396,36.7150986,3.1822528,56.19,-5.51,-8.29,-1.62,84,235,10.088146209716797,9.95580005645752
29,-0.2968417704105377,-2.1687369346618652,0.03264075890183449,36.715026,3.1821179,58.63,-4.95,-7.35,-1.47,83,235,8.989286422729492,8.867720603942871
30,-0.079189233481884,-2.1644656658172607,-0.01293978188186884,36.7149618,3.1819984,60.7,-3.13,-4.74,-0.76,83,235,5.738717079162598,5.687386512756348
31,-0.13904356956481934,-2.1153314113616943,0.04483271390199661,36.7149273,3.1819299,61.42,-2.19,-3.71,-0.21,83,238,4.325160026550293,4.31980562210083
32,-0.14871779084205627,-2.087089776992798,-0.021469179540872574,36.7148994,3.1818685,61.52,-2.01,-3.67,0.0,82,240,4.193084716796875,4.193078994750977
33,-0.0037284460850059986,-2.086935043334961,0.01848289556801319,36.7148684,3.1817982,61.51,-1.74,-3.21,0.0,82,240,3.658698320388794,3.6586954593658447
34,0.009565150365233421,-2.2392430305480957,-0.07169497013092041,36.7148487,3.1817574,60.95,-1.22,-1.65,0.89,82,231,2.242920398712158,2.0567374229431152
35,-0.005928670521825552,-2.4826011657714844,-0.006072289776057005,36.7148308,3.181736,58.5,-1.04,-0.79,1.46,81,217,1.9658615589141846,1.3097974061965942
36,-0.0629626139998436,-2.4726223945617676,0.010222384706139565,36.7148169,3.181723,56.25,-1.03,-0.82,1.42,81,218,1.946793794631958,1.3277978897094727
37,-0.009726262651383877,-2.470085620880127,0.0021751029416918755,36.7148025,3.1817091,54.02,-1.05,-0.86,1.44,81,218,1.9869786500930786,1.3656715154647827
38,-0.04022103548049927,-2.469959259033203,0.027494842186570168,36.7147856,3.1816921,51.4,-1.06,-0.88,1.44,80,218,2.000269889831543,1.3780920505523682
39,-0.018157009035348892,-2.4694790840148926,-0.019778046756982803,36.7147711,3.1816776,49.15,-1.07,-0.88,1.45,80,218,2.0103683471679688,1.390871286392212
40,-0.011825749650597572,-2.4693925380706787,0.0179589856415987,36.7147542,3.1816604,46.54,-1.07,-0.88,1.46,79,218,2.023388147354126,1.396722674369812
41,-0.05181495100259781,-2.4692163467407227,-0.018757307901978493,36.7147395,3.1816458,44.29,-1.06,-0.88,1.46,79,218,2.0200674533843994,1.3889312744140625
42,-0.014108319766819477,-2.4698081016540527,-0.010841326788067818,36.7147226,3.1816286,41.67,-1.06,-0.88,1.46,79,218,2.015838861465454,1.3827712535858154
43,-0.05995815247297287,-2.4696290493011475,0.009464092552661896,36.714708,3.1816139,39.43,-1.07,-0.89,1.47,78,218,2.032416820526123,1.3976565599441528
44,-0.007779580075293779,-2.469398260116577,-0.0028076153248548508,36.7146934,3.1815991,37.18,-1.07,-0.88,1.48,78,218,2.034985065460205,1.396466612815857
45,-0.03456762060523033,-2.469700574874878,0.029384633526206017,36.7146764,3.1815819,34.55,-1.06,-0.88,1.47,78,218,2.02317476272583,1.386374592781067
46,-0.028240066021680832,-2.4700050354003906,-0.02551182731986046,36.7146618,3.1815672,32.3,-1.06,-0.87,1.47,77,218,2.0217373371124268,1.3816059827804565
47,-0.01124371588230133,-2.469505548477173,0.014808842912316322,36.7146447,3.1815501,29.68,-1.06,-0.88,1.48,77,218,2.0285308361053467,1.3831932544708252
48,-0.05165531486272812,-2.469301462173462,-0.014713315293192863,36.7146302,3.1815354,27.43,-1.06,-0.88,1.47,76,218,2.0292532444000244,1.3896061182022095
49,-0.02000880427658558,-2.469491481781006,0.023440225049853325,36.7146157,3.1815206,25.18,-1.06,-0.88,1.47,76,218,2.0174989700317383,1.378292441368103
50,-0.12293434888124466,-2.8995606899261475,-0.08875016123056412,36.7145964,3.1815051,22.6,-1.63,-0.44,1.3,76,193,2.136488676071167,1.692913293838501
51,-0.21107180416584015,2.6793429851531982,-0.04858381301164627,36.7145642,3.1815127,21.53,-3.18,1.4,0.08,75,153,3.480759382247925,3.4798359870910645
52,-0.16652846336364746,2.6795194149017334,0.02682638168334961,36.7145045,3.1815487,21.61,-4.07,2.03,-0.01,75,153,4.55195951461792,4.551934719085693
53,-0.03515860065817833,2.8503105640411377,0.11132223159074783,36.7144504,3.181579,21.58,-3.74,1.1,0.05,75,163,3.901021957397461,3.9006032943725586
54,-0.3351418375968933,-2.379788875579834,0.22288256883621216,36.7144056,3.1815712,21.55,-2.91,-2.47,0.02,74,223,3.8257508277893066,3.8256633281707764
55,-0.4942689538002014,-2.1409409046173096,-0.022558668628335,36.7143536,3.1814816,21.55,-3.96,-6.29,0.01,74,237,7.440518856048584,7.440501689910889
56,-0.49757981300354004,-2.1473963260650635,0.025771364569664,36.7142933,3.1813623,21.55,-4.85,-7.66,0.0,73,236,9.072175979614258,9.072175025939941
57,-0.34295418858528137,-2.152184247970581,-0.025113793089985847,36.7142155,3.1812113,21.58,-4.8,-7.39,0.0,73,236,8.824566841125488,8.824563026428223
58,-0.27553892135620117,-2.149027109146118,0.025886699557304382,36.7141559,3.1810966,21.58,-3.97,-6.22,0.03,73,236,7.387230396270752,7.3871588706970215
59,-0.2651293873786926,-2.1178057193756104,-0.011229978874325752,36.714099,3.1809815,21.55,-3.36,-5.66,0.01,72,238,6.590713024139404,6.590685844421387
60,-0.3011353611946106,-2.101155996322632,0.023139189928770065,36.7140547,3.1808862,21.56,-3.21,-5.64,0.0,72,239,6.50178337097168,6.501776695251465
61,-0.18785080313682556,-2.0998754501342773,0.00567556731402874,36.7140111,3.1807912,21.55,-3.16,-5.54,0.0,71,239,6.385684490203857,6.385684013366699
62,0.08720020949840546,-2.101127862930298,0.028930196538567543,36.7139687,3.1806989,21.54,-1.97,-3.41,0.03,71,239,3.94262957572937,3.9424290657043457
63,0.14898820221424103,-2.1007697582244873,-0.022305302321910858,36.7139534,3.1806654,21.53,-0.39,-0.71,-0.02,71,239,0.814262866973877,0.8139724731445312
64,0.02274222858250141,-2.0996813774108887,0.0488399937748909,36.7139529,3.180664,21.53,0.12,0.13,0.03,70,239,0.19356223940849304,0.18995463848114014
