timestamp,pitch,yaw,roll,lat,lon,alt,velocity_x,velocity_y,velocity_z,battery,heading,airspeed,groundspeed
0,-0.001997120212763548,-0.04097674414515495,-0.02308090403676033,36.7156067,3.18463,18.07,-0.02,0.02,0.01,96,357,0.039227358996868134,0.033797428011894226
1,0.007937216199934483,-0.02100849524140358,0.10896379500627518,36.7156071,3.1846334,18.09,0.1,0.7,0.0,95,358,0.7154889702796936,0.7154762744903564
2,-0.24164114892482758,1.7559623718261719,-0.07041947543621063,36.7156114,3.1846615,18.05,0.57,2.83,-0.01,95,100,2.893193483352661,2.8931257724761963
3,-0.18923072516918182,1.2123583555221558,0.0011546002933755517,36.7156215,3.1847224,18.09,0.84,4.15,-0.03,95,69,4.240891933441162,4.240734100341797
4,0.004691976122558117,1.3384435176849365,0.029308725148439407,36.7156351,3.1848045,18.11,0.78,3.85,-0.01,94,76,3.9385759830474854,3.938530206680298
5,0.21283625066280365,1.9634960889816284,0.25717389583587646,36.715639,3.1848453,18.11,-0.56,0.31,0.01,94,112,0.6439638733863831,0.6438598036766052
6,-0.1760777086019516,-2.3920440673828125,0.023079967126250267,36.7156144,3.1848088,18.14,-2.19,-3.26,-0.03,93,222,3.9331278800964355,3.932985544204712
7,-0.11933940649032593,-2.2403836250305176,0.06523749977350235,36.7155838,3.1847519,18.15,-2.24,-3.37,0.01,93,231,4.053490161895752,4.0534586906433105
8,-0.069634810090065,-1.595538854598999,0.23933470249176025,36.7155621,3.184688,18.12,0.04,-2.95,0.01,93,268,2.9510700702667236,2.9510462284088135
9,-0.3744729161262512,-0.6543059349060059,0.0922626331448555,36.715589,3.1846392,18.12,3.89,-3.1,0.0,92,322,4.976024150848389,4.976022243499756
10,-0.5189957618713379,-0.6205369234085083,-0.017752695828676224,36.7156617,3.1845748,18.12,6.63,-4.58,0.0,92,324,8.062527656555176,8.062527656555176
11,-0.48013511300086975,-0.6172714829444885,0.026175260543823242,36.7157785,3.184474,18.14,7.89,-5.49,0.0,91,324,9.61676025390625,9.616758346557617
12,-0.3949679732322693,-0.6198476552963257,-0.0254945307970047,36.7158849,3.184381,18.15,7.68,-5.44,-0.02,91,324,9.418352127075195,9.418325424194336
13,-0.06414682418107986,-0.6237830519676208,0.012090628035366535,36.7159921,3.1842862,18.18,5.41,-3.87,0.03,91,324,6.660528182983398,6.660438537597656
14,0.053947143256664276,-1.07777738571167,-0.28474825620651245,36.7160418,3.1842314,18.27,1.53,-2.87,-0.21,90,298,3.261958360671997,3.254716634750366
15,-0.37674933671951294,-2.1285552978515625,-0.05313415080308914,36.7160339,3.1841765,19.05,-2.51,-4.09,-0.82,90,238,4.871654033660889,4.800632476806641
16,-0.48079532384872437,-2.159632444381714,-0.03603844717144966,36.7159725,3.1840678,21.13,-4.84,-6.93,-1.44,89,236,8.583791732788086,8.460906028747559
17,-0.504125714302063,-2.165790557861328,0.003034914145246148,36.7159005,3.1839395,23.51,-5.54,-8.0,-1.6,89,235,9.867692947387695,9.736536026000977
18,-0.4303422272205353,-2.1649584770202637,0.0005012004403397441,36.7158127,3.1837789,26.38,-5.54,-8.2,-1.58,88,235,10.026631355285645,9.901284217834473
19,-0.46471303701400757,-2.1635890007019043,-0.03212584927678108,36.7157374,3.1836393,28.84,-5.55,-8.24,-1.59,88,236,10.072467803955078,9.945902824401855
20,-0.4562809467315674,-2.164644956588745,0.03673518821597099,36.7156498,3.183477,31.72,-5.52,-8.22,-1.6,87,235,10.040243148803711,9.910384178161621
21,-0.4297468662261963,-2.164379119873047,-0.001055985689163208,36.7155752,3.1833382,34.2,-5.54,-8.27,-1.62,87,236,10.092573165893555,9.961091041564941
22,-0.4883785545825958,-2.1648359298706055,-0.014300289563834667,36.7154876,3.183175,37.12,-5.53,-8.26,-1.62,87,235,10.078128814697266,9.946565628051758
23,-0.4522777795791626,-2.1656978130340576,0.03865792602300644,36.7154125,3.1830353,39.61,-5.52,-8.28,-1.63,86,235,10.087862968444824,9.954354286193848
24,-0.42323264479637146,-2.1664865016937256,-0.003335809800773859,36.7153376,3.1828956,42.11,-5.51,-8.28,-1.63,86,235,10.086334228515625,9.952691078186035
25,-0.49073904752731323,-2.1662909984588623,0.007253649644553661,36.7152505,3.1827327,45.04,-5.5,-8.28,-1.63,85,235,10.084019660949707,9.951215744018555
26,-0.46677637100219727,-2.16542911529541,0.04184962436556816,36.7151758,3.182593,47.54,-5.53,-8.28,-1.63,85,235,10.09156608581543,9.958940505981445
27,-0.4610004425048828,-2.16373610496521,-0.0340571403503418,36.7150884,3.1824299,50.45,-5.53,-8.28,-1.63,84,236,10.092265129089355,9.958775520324707
28,-0.4871200621128082,-2.1647565364837646,-0.0001222457067342475,36.7150134,3.1822904,52.96,-5.53,-8.27,-1.63,84,235,10.087347030639648,9.95406436920166
29,-0.2645415961742401,-2.170549154281616,0.03680883347988129,36.7149412,3.1821572,55.37,-4.91,-7.26,-1.46,83,235,8.895843505859375,8.77509880065918
30,-0.09231428802013397,-2.1628262996673584,-0.004203069489449263,36.7148788,3.1820404,57.37,-3.02,-4.61,-0.72,83,236,5.558849334716797,5.511688709259033
31,-0.12096439301967621,-2.110705614089966,0.03823627531528473,36.7148451,3.1819729,58.03,-2.18,-3.7,-0.19,83,239,4.305968284606934,4.301750659942627
32,-0.17791005969047546,-2.085834503173828,0.007816581055521965,36.7148128,3.1819011,58.1,-1.98,-3.66,0.0,82,240,4.1662092208862305,4.166203022003174
33,0.011760075576603413,-2.087350606918335,-0.000908559886738658,36.7147867,3.181842,58.1,-1.7,-3.12,0.02,82,240,3.563276767730713,3.5631582736968994
34,-0.004626034758985043,-2.266293525695801,-0.05968441069126129,36.7147675,3.1818031,57.44,-1.21,-1.55,0.99,82,230,2.2090659141540527,1.9725035429000854
35,-0.011474349536001682,-2.478703260421753,-0.017316048964858055,36.7147498,3.1817828,54.92,-1.04,-0.79,1.45,81,217,1.9577579498291016,1.3132529258728027
36,-0.05885867029428482,-2.4725489616394043,0.01955351047217846,36.7147358,3.1817696,52.68,-1.03,-0.82,1.42,81,218,1.949231743812561,1.3260763883590698
37,-0.04266706109046936,-2.4698708057403564,-0.025299595668911934,36.7147191,3.1817534,50.07,-1.06,-0.87,1.44,81,218,1.9979383945465088,1.3808317184448242
38,-0.030568551272153854,-2.4702987670898438,0.02711380459368229,36.7147047,3.1817389,47.83,-1.06,-0.88,1.45,80,218,2.014070987701416,1.3897740840911865
39,-0.06197836622595787,-2.4698259830474854,-0.002694932511076331,36.7146877,3.1817218,45.22,-1.07,-0.89,1.46,80,218,2.02370548248291,1.3986471891403198
40,-0.010314006358385086,-2.4695332050323486,0.011778543703258038,36.7146731,3.181707,42.97,-1.07,-0.87,1.46,79,218,2.0178306102752686,1.3869634866714478
41,-0.05385841429233551,-2.4693331718444824,-0.020517349243164062,36.7146585,3.1816924,40.72,-1.07,-0.88,1.46,79,218,2.0255119800567627,1.3951740264892578
42,-0.013127045705914497,-2.470244884490967,-0.014103063382208347,36.7146415,3.1816753,38.1,-1.07,-0.88,1.47,79,218,2.0247397422790527,1.3901152610778809
43,-0.060132190585136414,-2.470125913619995,0.00904788076877594,36.7146269,3.1816606,35.85,-1.06,-0.89,1.47,78,218,2.0232276916503906,1.3895986080169678
44,-0.029728882014751434,-2.4698429107666016,-0.026628965511918068,36.7146099,3.1816433,33.23,-1.07,-0.88,1.47,78,218,2.0262060165405273,1.3895883560180664
45,-0.039501916617155075,-2.4699482917785645,0.029967723414301872,36.7145953,3.1816286,30.98,-1.06,-0.88,1.47,78,218,2.026094436645508,1.3864041566848755
46,-0.0555032342672348,-2.4697389602661133,-0.012773429043591022,36.7145783,3.1816115,28.36,-1.06,-0.88,1.47,77,218,2.0248522758483887,1.3827687501907349
47,-0.015819793567061424,-2.469918966293335,0.018198681995272636,36.7145638,3.1815968,26.12,-1.06,-0.87,1.48,77,218,2.028784990310669,1.381817102432251
48,-0.042778465896844864,-2.469661235809326,-0.0266790222376585,36.7145491,3.181582,23.86,-1.06,-0.88,1.48,77,218,2.0284740924835205,1.3861395120620728
49,-0.007593267597258091,-2.4697751998901367,-0.005240279249846935,36.7145321,3.1815648,21.23,-1.06,-0.87,1.47,76,218,2.0222744941711426,1.3813633918762207
50,-0.13792328536510468,-2.971468210220337,-0.10257591307163239,36.7145146,3.1815525,19.05,-1.71,-0.34,1.24,76,189,2.1453258991241455,1.7504832744598389
51,-0.22781510651111603,2.6755013465881348,-0.04801785573363304,36.7144736,3.1815664,18.12,-3.49,1.67,-0.04,75,153,3.5961475372314453,3.5960330963134766
52,-0.1857975274324417,2.679969549179077,0.02554262988269329,36.7144206,3.1815988,18.21,-4.06,2.03,0.0,75,153,4.5435638427734375,4.543563365936279
53,-0.012545173987746239,2.89444899559021,0.13369685411453247,36.7143669,3.1816279,18.16,-3.69,0.94,0.05,75,165,3.8097970485687256,3.8093831539154053
54,-0.35255786776542664,-2.218573570251465,0.15398596227169037,36.7143163,3.1816069,18.14,-2.96,-3.41,0.01,74,232,4.517256736755371,4.517219543457031
55,-0.4707954525947571,-2.141237258911133,-0.026665206998586655,36.7142699,3.1815219,18.14,-4.06,-6.45,0.01,74,237,7.628828525543213,7.628815174102783
56,-0.46514657139778137,-2.1482176780700684,0.027901282534003258,36.7141977,3.1813798,18.15,-4.89,-7.72,0.0,73,237,9.086586952209473,9.086585998535156
57,-0.31755322217941284,-2.152074098587036,-0.0026286570355296135,36.7141311,3.1812506,18.17,-4.75,-7.33,-0.01,73,236,8.736104011535645,8.736096382141113
58,-0.26069366931915283,-2.1471850872039795,-0.0003502379695419222,36.7140721,3.1811366,18.17,-3.9,-6.13,0.03,73,236,7.276992321014404,7.276928424835205
59,-0.24569091200828552,-2.1147780418395996,0.004449515603482723,36.714016,3.1810225,18.14,-3.35,-5.66,0.01,72,238,6.584354877471924,6.584342956542969
60,-0.30760055780410767,-2.100831985473633,-0.004920009523630142,36.7139718,3.1809274,18.14,-3.22,-5.64,0.0,72,239,6.496608734130859,6.496601581573486
61,-0.146930530667305,-2.099611520767212,-0.003973859362304211,36.7139213,3.1808173,18.14,-3.03,-5.31,0.0,71,239,6.121265888214111,6.121264457702637
62,0.08965753763914108,-2.1007561683654785,0.003141954308375716,36.7138868,3.1807425,18.13,-1.83,-3.2,0.03,71,239,3.690645217895508,3.6904492378234863
63,0.11713707447052002,-2.100360870361328,-0.026885302737355232,36.7138725,3.180711,18.13,-0.17,-0.32,-0.02,71,239,0.37173083424568176,0.3710815906524658
64,-0.013320357538759708,-2.101752519607544,0.0663144588470459,36.713873,3.1807117,18.11,0.16,0.11,0.04,70,239,0.20528258383274078,0.20101900398731232
