timestamp,pitch,yaw,roll,lat,lon,alt,velocity_x,velocity_y,velocity_z,battery,heading,airspeed,groundspeed
0,-0.024495139718055725,0.04234619438648224,-0.008550215512514114,36.7156066,3.18463,18.99,-0.01,0.01,0.05,96,2,0.06361007690429688,0.027186043560504913
1,-0.07064918428659439,0.10380473732948303,0.08949089795351028,36.7156083,3.1846339,18.96,0.39,0.78,0.01,95,5,0.87822425365448,0.8781518936157227
2,-0.22839584946632385,1.572817087173462,-0.09201868623495102,36.7156218,3.1846642,18.92,1.61,2.99,-0.02,95,90,3.403096914291382,3.4029810428619385
3,-0.23152796924114227,0.9592577219009399,-0.006776165682822466,36.7156489,3.1847265,18.97,2.26,4.17,-0.04,95,54,4.74672794342041,4.746522426605225
4,-0.02608438953757286,1.0492597818374634,-0.0066591063514351845,36.7156853,3.184808,19.01,2.16,3.85,-0.02,94,60,4.423466205596924,4.423399925231934
5,0.31980031728744507,1.1796519756317139,0.07433787733316422,36.7157045,3.1848511,19.01,0.21,0.62,0.01,94,67,0.6581428647041321,0.6580448150634766
6,-0.0022181570529937744,2.7055366039276123,0.23043988645076752,36.715691,3.1848285,19.03,-1.93,-2.77,-0.04,93,155,3.3835947513580322,3.383317708969116
7,-0.13266757130622864,-1.9369680881500244,-0.004021704662591219,36.7156568,3.1847657,19.05,-2.22,-3.26,0.01,93,249,3.947911024093628,3.9478960037231445
8,-0.03164554014801979,-1.9346237182617188,0.11864971369504929,36.7156321,3.1847112,19.03,-1.04,-3.08,0.01,93,249,3.260408401489258,3.2603840827941895
9,-0.3300435245037079,-0.6687573790550232,0.09119077026844025,36.7156465,3.1846546,19.02,3.1,-2.9,0.0,92,321,4.251519203186035,4.251519203186035
10,-0.5222733020782471,-0.6076380014419556,-0.004208549857139587,36.7157103,3.1845956,19.02,6.13,-4.27,0.0,92,325,7.478279113769531,7.478275775909424
11,-0.4814845323562622,-0.6155531406402588,0.005464746151119471,36.7158223,3.1844989,19.04,7.79,-5.39,0.0,91,324,9.480698585510254,9.480696678161621
12,-0.4534422755241394,-0.6167221069335938,-0.031197527423501015,36.7159288,3.1844061,19.05,7.86,-5.51,-0.01,91,324,9.605043411254883,9.605036735534668
13,-0.12717165052890778,-0.62144535779953,0.028457235544919968,36.716042,3.1843064,19.08,6.02,-4.3,0.01,91,324,7.403783798217773,7.4037652015686035
14,0.07064203172922134,-0.8628649115562439,-0.21422834694385529,36.7161028,3.184247,19.11,2.53,-2.96,-0.11,90,310,3.898236036300659,3.896545886993408
15,-0.32115915417671204,-2.0771522521972656,-0.09838323295116425,36.7161075,3.1841955,19.7,-1.77,-3.64,-0.67,90,240,4.11529541015625,4.058985233306885
16,-0.5017912983894348,-2.170377254486084,-0.011104782111942768,36.7160541,3.1840978,21.56,-4.53,-6.48,-1.35,89,235,8.02903938293457,7.91335916519165
17,-0.49765464663505554,-2.166348695755005,0.040477655827999115,36.7159846,3.1839741,23.87,-5.46,-7.91,-1.59,89,235,9.75211238861084,9.620011329650879
18,-0.44926729798316956,-2.165289878845215,-0.0239200871437788,36.7158971,3.1838144,26.75,-5.53,-8.17,-1.57,88,235,10.000066757202148,9.875481605529785
19,-0.49357104301452637,-2.1629176139831543,-0.00666744215413928,36.7158221,3.1836749,29.2,-5.54,-8.27,-1.58,88,236,10.083327293395996,9.95805835723877
20,-0.4604368209838867,-2.166386842727661,0.037866100668907166,36.7157469,3.1835354,31.67,-5.54,-8.22,-1.6,88,235,10.04962158203125,9.920342445373535
21,-0.45201337337493896,-2.1663150787353516,-0.023114578798413277,36.7156596,3.1833733,34.56,-5.54,-8.29,-1.62,87,235,10.109537124633789,9.978672981262207
22,-0.48661038279533386,-2.164428472518921,-0.008883615024387836,36.7155847,3.183233,37.06,-5.5,-8.28,-1.62,87,235,10.080427169799805,9.949040412902832
23,-0.42624908685684204,-2.1641342639923096,0.014931539073586464,36.7154976,3.18307,39.98,-5.49,-8.27,-1.63,86,236,10.064882278442383,9.93170166015625
24,-0.45229390263557434,-2.1622488498687744,-0.03406352922320366,36.7154231,3.1829303,42.47,-5.51,-8.27,-1.63,86,236,10.079361915588379,9.945815086364746
25,-0.4702346920967102,-2.1655261516571045,0.04269956797361374,36.7153359,3.1827676,45.4,-5.51,-8.26,-1.63,85,235,10.073051452636719,9.939437866210938
26,-0.42869117856025696,-2.163148880004883,0.011903968639671803,36.7152612,3.1826279,47.91,-5.52,-8.28,-1.63,85,236,10.092615127563477,9.959555625915527
27,-0.4534415304660797,-2.1654951572418213,-0.027930045500397682,36.7151863,3.1824878,50.41,-5.53,-8.29,-1.63,84,235,10.106765747070312,9.973702430725098
28,-0.4755500257015228,-2.164031982421875,0.037293802946805954,36.715099,3.1823245,53.33,-5.51,-8.3,-1.64,84,236,10.1006498336792,9.966371536254883
29,-0.2917185127735138,-2.167353391647339,0.0042189499363303185,36.7150257,3.182188,55.78,-5.12,-7.62,-1.52,83,235,9.313158988952637,9.18676471710205
30,-0.1018914207816124,-2.166142463684082,0.01982845924794674,36.7149582,3.1820623,58.02,-3.33,-5.01,-0.87,83,235,6.086477756500244,6.023830413818359
31,-0.109639011323452,-2.130949020385742,0.010086126625537872,36.7149215,3.1819907,58.86,-2.28,-3.74,-0.27,83,237,4.398005962371826,4.389429569244385
32,-0.17431528866291046,-2.10384202003479,-0.0019378602737560868,36.7148922,3.1819288,59.01,-2.07,-3.65,-0.01,82,239,4.2021918296813965,4.2021636962890625
33,-0.03343633934855461,-2.1034390926361084,-0.020368874073028564,36.7148598,3.1818582,59.0,-1.91,-3.37,-0.02,82,239,3.882843494415283,3.882765769958496
34,0.02010698802769184,-2.200420618057251,-0.030319223180413246,36.7148384,3.1818139,58.63,-1.27,-1.82,0.68,82,233,2.3331403732299805,2.228921413421631
35,-0.027693621814250946,-2.485844612121582,-0.027715062722563744,36.7148201,3.1817905,56.32,-1.04,-0.81,1.48,81,217,1.9878652095794678,1.3262425661087036
36,-0.030781691893935204,-2.4715423583984375,0.027296554297208786,36.714806,3.1817772,54.07,-1.03,-0.82,1.42,81,218,1.9432135820388794,1.3208527565002441
37,-0.03760720416903496,-2.4698903560638428,-0.023232053965330124,36.7147919,3.1817636,51.83,-1.06,-0.85,1.43,81,218,1.9838579893112183,1.3651219606399536
38,-0.009489546529948711,-2.4696695804595947,0.006660274229943752,36.714775,3.1817468,49.22,-1.06,-0.88,1.45,80,218,2.0084621906280518,1.3849806785583496
39,-0.05330653116106987,-2.469099521636963,-0.01767602004110813,36.7147605,3.1817321,46.98,-1.06,-0.89,1.45,80,218,2.015272617340088,1.391178846359253
40,-0.016175905242562294,-2.4696524143218994,-0.01846182346343994,36.7147435,3.1817149,44.36,-1.07,-0.88,1.46,79,218,2.0195391178131104,1.3922479152679443
41,-0.060051362961530685,-2.469496726989746,0.012882715091109276,36.7147288,3.1817003,42.11,-1.06,-0.89,1.46,79,218,2.020517110824585,1.3898307085037231
42,-0.04543377086520195,-2.4699320793151855,-0.022594597190618515,36.7147118,3.1816832,39.49,-1.06,-0.88,1.47,79,218,2.0253403186798096,1.3915464878082275
43,-0.03358978405594826,-2.4695582389831543,0.032853130251169205,36.7146973,3.1816685,37.24,-1.06,-0.89,1.47,78,218,2.019543170928955,1.384631633758545
44,-0.03032260201871395,-2.4697117805480957,-0.02571009285748005,36.7146827,3.1816537,34.99,-1.07,-0.89,1.47,78,218,2.0308516025543213,1.397010326385498
45,-0.009248176589608192,-2.4691905975341797,0.011428309604525566,36.7146657,3.1816365,32.37,-1.07,-0.88,1.47,78,218,2.0275626182556152,1.388932704925537
46,-0.056839700788259506,-2.4695301055908203,-0.01413678377866745,36.7146511,3.1816219,30.13,-1.06,-0.88,1.47,77,218,2.0286221504211426,1.3886055946350098
47,-0.017355654388666153,-2.46986722946167,-0.015741216018795967,36.7146342,3.1816047,27.51,-1.07,-0.88,1.48,77,218,2.0354156494140625,1.391204833984375
48,-0.05787435546517372,-2.469369649887085,0.00576425064355135,36.7146195,3.1815899,25.25,-1.06,-0.88,1.48,76,218,2.0288617610931396,1.386905312538147
49,-0.009983210824429989,-2.469348192214966,-0.00556328147649765,36.7146049,3.1815751,23.0,-1.07,-0.87,1.47,76,218,2.0271189212799072,1.3872102499008179
50,-0.08422635495662689,-2.759127140045166,-0.06046661362051964,36.7145866,3.1815589,20.39,-1.46,-0.6,1.39,76,201,2.113760471343994,1.5887795686721802
51,-0.2384612262248993,2.699091672897339,-0.08684968948364258,36.7145577,3.1815621,19.05,-2.93,1.2,0.21,75,154,3.177011251449585,3.1698575019836426
52,-0.14808990061283112,2.672386646270752,0.008157630451023579,36.7145005,3.1815966,19.1,-4.0,2.02,-0.04,75,153,4.492434024810791,4.492218971252441
53,-0.07496713846921921,2.781726121902466,0.08852282911539078,36.7144466,3.1816285,19.08,-3.79,1.37,0.06,75,159,4.039775371551514,4.0392985343933105
54,-0.3015608489513397,-2.3237693309783936,0.15539616346359253,36.7143943,3.1816211,19.04,-2.92,-2.65,0.02,74,226,3.9518964290618896,3.9518253803253174
55,-0.50308758020401,-2.145977020263672,0.009269393049180508,36.7143504,3.1815467,19.04,-3.79,-6.03,0.02,74,237,7.130721569061279,7.130681991577148
56,-0.4746013879776001,-2.1494407653808594,0.0370953269302845,36.7142916,3.1814308,19.04,-4.76,-7.58,0.0,73,236,8.9545316696167,8.9545316696167
57,-0.39562392234802246,-2.1513147354125977,-0.027083592489361763,36.714214,3.1812794,19.06,-4.86,-7.52,0.0,73,236,8.960893630981445,8.96088981628418
58,-0.2593448758125305,-2.1507279872894287,0.03724043443799019,36.7141528,3.1811616,19.07,-4.09,-6.36,0.02,73,236,7.564922332763672,7.564882755279541
59,-0.25268858671188354,-2.1309728622436523,-0.0013501927023753524,36.7141025,3.1810618,19.05,-3.48,-5.69,0.02,72,237,6.6729888916015625,6.672938346862793
60,-0.28216204047203064,-2.1104869842529297,0.03793227672576904,36.7140495,3.1809506,19.04,-3.27,-5.64,0.0,72,239,6.5262064933776855,6.526201248168945
61,-0.22320060431957245,-2.108348846435547,-0.014334328472614288,36.7140051,3.1808553,19.04,-3.26,-5.6,0.0,71,239,6.485163688659668,6.485163688659668
62,0.0634126290678978,-2.1087989807128906,0.02665642462670803,36.7139597,3.1807589,19.04,-2.2,-3.76,0.03,71,239,4.361296653747559,4.361151218414307
63,0.13822120428085327,-2.108937978744507,-0.028745019808411598,36.7139415,3.1807198,19.02,-0.56,-0.97,-0.02,71,239,1.1236865520477295,1.1234943866729736
64,0.0333864763379097,-2.108924150466919,0.00904594175517559,36.7139399,3.1807159,19.03,0.1,0.15,0.01,70,239,0.19178764522075653,0.1910339891910553
