timestamp,pitch,yaw,roll,lat,lon,alt,velocity_x,velocity_y,velocity_z,battery,heading,airspeed,groundspeed
0,-0.014575071632862091,0.020981183275580406,-0.018140675500035286,36.7156065,3.1846301,29.25,-0.01,0.01,-0.08,96,1,0.08531982451677322,0.022591525688767433
1,-0.037850599735975266,0.01519442442804575,0.11861387640237808,36.7156077,3.1846321,29.14,0.3,0.5,-0.03,95,0,0.5895929932594299,0.5884442925453186
2,-0.24091126024723053,1.4284521341323853,-0.08410734683275223,36.7156241,3.1846618,29.22,1.88,2.77,-0.11,95,81,3.356657028198242,3.354732036590576
3,-0.2246517390012741,0.9234582185745239,-0.027750929817557335,36.7156556,3.1847197,29.19,2.66,3.91,-0.01,95,52,4.737118244171143,4.737081527709961
4,-0.03703520819544792,0.9595459699630737,0.0011822870001196861,36.7156988,3.1847967,29.2,2.55,3.64,-0.02,94,54,4.452427864074707,4.452360153198242
5,0.30695781111717224,0.9426229000091553,-0.006777204107493162,36.715723,3.1848386,29.22,0.5,0.7,-0.05,94,54,0.8689984083175659,0.8670795559883118
6,0.09904603660106659,-0.27879953384399414,-0.22378544509410858,36.7157119,3.1848175,29.24,-1.89,-2.75,0.01,93,344,3.348189353942871,3.348146677017212
7,-0.12408830970525742,-2.0920703411102295,0.02464975416660309,36.7156776,3.1847553,29.24,-2.27,-3.24,-0.07,93,240,3.963050127029419,3.9623663425445557
8,-0.04693186283111572,-1.8908039331436157,0.10164875537157059,36.7156521,3.1847007,29.24,-1.19,-3.08,0.04,93,251,3.306997299194336,3.3066751956939697
9,-0.3275507390499115,-0.6728535294532776,0.09257253259420395,36.7156636,3.1846442,29.21,2.95,-2.86,0.0,92,321,4.1146464347839355,4.114645004272461
10,-0.5208081007003784,-0.6035664677619934,0.004008118528872728,36.7157256,3.1845866,29.21,6.01,-4.18,0.0,92,325,7.325212478637695,7.325207710266113
11,-0.475352019071579,-0.613548219203949,-0.012300754897296429,36.7158369,3.1844905,29.23,7.74,-5.39,0.0,91,324,9.435210227966309,9.435208320617676
12,-0.4683890640735626,-0.6167629957199097,-0.024173159152269363,36.7159433,3.1843974,29.24,7.84,-5.51,0.0,91,324,9.587542533874512,9.587542533874512
13,-0.22504682838916779,-0.6213258504867554,0.026106728240847588,36.7160427,3.1843098,29.28,6.55,-4.65,0.0,91,324,8.03796100616455,8.037960052490234
14,0.06022540107369423,-0.8278160691261292,-0.1920951008796692,36.7161201,3.1842366,29.3,2.75,-2.98,-0.08,90,312,4.066253662109375,4.065280437469482
15,-0.3033845126628876,-2.0517945289611816,-0.11993122845888138,36.7161277,3.1841854,29.85,-1.6,-3.56,-0.64,90,242,3.9659175872802734,3.913245677947998
16,-0.5050740838050842,-2.1732571125030518,0.005848009139299393,36.7160762,3.18409,31.66,-4.48,-6.38,-1.33,89,235,7.916903018951416,7.804044246673584
17,-0.4761482775211334,-2.166511297225952,0.050025567412376404,36.7160072,3.1839673,33.95,-5.44,-7.88,-1.59,89,235,9.718426704406738,9.585896492004395
18,-0.46666744351387024,-2.1647119522094727,-0.023047639057040215,36.7159197,3.1838078,36.83,-5.52,-8.15,-1.56,88,235,9.977029800415039,9.852909088134766
19,-0.492694228887558,-2.1645243167877197,0.013913370668888092,36.7158446,3.1836688,39.28,-5.55,-8.26,-1.58,88,235,10.081981658935547,9.955911636352539
20,-0.4400012195110321,-2.1666767597198486,0.035906415432691574,36.7157693,3.1835289,41.75,-5.55,-8.26,-1.6,87,235,10.084689140319824,9.956220626831055
21,-0.4666939973831177,-2.1653149127960205,-0.02521648071706295,36.7156819,3.183366,44.66,-5.48,-8.26,-1.6,87,235,10.04798412322998,9.919376373291016
22,-0.49283623695373535,-2.1622684001922607,0.016197888180613518,36.7156078,3.1832269,47.14,-5.5,-8.27,-1.61,87,236,10.06960391998291,9.939336776733398
23,-0.4259910583496094,-2.1638238430023193,-0.007956874556839466,36.7155205,3.1830639,50.06,-5.53,-8.29,-1.62,86,236,10.10326099395752,9.971101760864258
24,-0.47387614846229553,-2.1653292179107666,-0.020122474059462547,36.7154454,3.182924,52.56,-5.51,-8.28,-1.62,86,235,10.083867073059082,9.952841758728027
25,-0.4845222532749176,-2.1672472953796387,0.030715012922883034,36.7153706,3.1827842,55.06,-5.51,-8.29,-1.63,85,235,10.091919898986816,9.959258079528809
26,-0.4284045696258545,-2.1631405353546143,0.0024189355317503214,36.7152838,3.1826213,57.98,-5.52,-8.32,-1.63,85,236,10.122145652770996,9.988490104675293
27,-0.47695600986480713,-2.163989305496216,-0.02172658033668995,36.715209,3.1824811,60.49,-5.52,-8.29,-1.63,84,236,10.101865768432617,9.969103813171387
28,-0.43566030263900757,-2.164783239364624,0.03831874951720238,36.7151217,3.1823182,63.41,-5.52,-8.27,-1.64,84,235,10.079267501831055,9.944913864135742
29,-0.3152967393398285,-2.16888165473938,-0.01854473538696766,36.715048,3.1821814,65.86,-5.2,-7.71,-1.53,83,235,9.43610954284668,9.309703826904297
30,-0.07675552368164062,-2.16662335395813,0.03077138587832451,36.7149791,3.1820528,68.15,-3.37,-5.08,-0.89,83,235,6.174535274505615,6.1087775230407715
31,-0.11600484699010849,-2.134145975112915,-0.006058615166693926,36.714942,3.1819808,69.03,-2.29,-3.73,-0.28,83,237,4.39339017868042,4.383871078491211
32,-0.17661774158477783,-2.104680299758911,0.02787642553448677,36.7149129,3.181919,69.2,-2.08,-3.67,-0.01,82,239,4.226654052734375,4.226612567901611
33,-0.06468640267848969,-2.1032629013061523,-0.025098072364926338,36.7148802,3.181848,69.19,-1.95,-3.43,-0.02,82,239,3.954025983810425,3.9539220333099365
34,0.047802869230508804,-2.1885294914245605,-0.017379123717546463,36.7148583,3.1818025,68.86,-1.28,-1.88,0.62,82,234,2.3700177669525146,2.285696506500244
35,-0.04101775586605072,-2.484837770462036,-0.016611743718385696,36.7148399,3.1817783,66.62,-1.04,-0.82,1.49,81,217,1.9990465641021729,1.3298760652542114
36,-0.012328379787504673,-2.4707305431365967,0.012803790159523487,36.7148259,3.1817651,64.36,-1.03,-0.81,1.42,81,218,1.9435508251190186,1.3208980560302734
37,-0.05934565141797066,-2.4695301055908203,-0.012306595221161842,36.7148117,3.1817513,62.11,-1.05,-0.85,1.43,80,218,1.974782109260559,1.3594846725463867
38,-0.013650111854076385,-2.470417022705078,-0.015338598750531673,36.7147948,3.1817345,59.5,-1.06,-0.87,1.44,80,218,1.994586706161499,1.3785531520843506
39,-0.05966440960764885,-2.469430923461914,0.008133144117891788,36.7147803,3.18172,57.27,-1.06,-0.89,1.45,80,218,2.011052131652832,1.3861292600631714
40,-0.04261060431599617,-2.469618320465088,-0.022470926865935326,36.7147633,3.1817029,54.64,-1.07,-0.88,1.46,79,218,2.0165648460388184,1.3910146951675415
41,-0.03720439225435257,-2.469524621963501,0.03258278965950012,36.7147487,3.1816881,52.4,-1.06,-0.89,1.46,79,218,2.0161609649658203,1.3859256505966187
42,-0.030624140053987503,-2.4699342250823975,-0.02521909587085247,36.7147342,3.1816735,50.16,-1.07,-0.89,1.47,79,218,2.0293426513671875,1.392399549484253
43,-0.009558790363371372,-2.4690699577331543,0.015028092078864574,36.7147171,3.1816563,47.54,-1.06,-0.88,1.47,78,218,2.0241973400115967,1.3842681646347046
44,-0.057415880262851715,-2.4692490100860596,-0.014503879472613335,36.7147025,3.1816416,45.29,-1.06,-0.89,1.47,78,218,2.027268648147583,1.3920209407806396
45,-0.01378846075385809,-2.469776153564453,-0.016085635870695114,36.7146855,3.1816244,42.66,-1.07,-0.88,1.47,77,218,2.029087543487549,1.3890154361724854
46,-0.0583978146314621,-2.4697952270507812,0.013860656879842281,36.7146709,3.1816097,40.41,-1.06,-0.89,1.47,77,218,2.027876138687134,1.3876649141311646
47,-0.010349025018513203,-2.4695420265197754,-0.005614780355244875,36.7146563,3.1815949,38.16,-1.06,-0.87,1.47,77,218,2.020615339279175,1.383491039276123
48,-0.043688323348760605,-2.4695446491241455,0.028362447395920753,36.7146394,3.1815779,35.54,-1.06,-0.88,1.47,76,218,2.0245206356048584,1.3831568956375122
49,-0.029915230348706245,-2.4697093963623047,-0.02439560741186142,36.7146248,3.1815631,33.29,-1.06,-0.89,1.48,76,218,2.03141713142395,1.391461968421936
50,-0.05527924373745918,-2.7194576263427734,-0.07164972275495529,36.7146067,3.1815465,30.67,-1.42,-0.64,1.41,76,204,2.1073250770568848,1.5654445886611938
51,-0.26715102791786194,2.7158586978912354,-0.07060559839010239,36.7145786,3.1815485,29.26,-2.86,1.11,0.26,75,155,3.085735321044922,3.0745298862457275
52,-0.1556631177663803,2.6723294258117676,-0.01784190535545349,36.7145221,3.1815822,29.29,-4.01,2.03,-0.04,75,153,4.498382091522217,4.49813175201416
53,-0.08515229821205139,2.762949228286743,0.11664078384637833,36.714468,3.1816149,29.27,-3.8,1.46,0.06,75,158,4.082251071929932,4.081728458404541
54,-0.21094246208667755,-2.5597140789031982,0.2446061074733734,36.7144218,3.1816163,29.23,-2.94,-1.79,0.02,74,213,3.446071147918701,3.4459452629089355
55,-0.48809701204299927,-2.1467156410217285,0.03750332444906235,36.7143719,3.1815381,29.23,-3.74,-5.94,0.02,74,237,7.028223037719727,7.028191089630127
56,-0.4548070728778839,-2.1497886180877686,0.003212964627891779,36.7143134,3.1814227,29.24,-4.77,-7.5,0.0,73,236,8.900857925415039,8.900856971740723
57,-0.42040660977363586,-2.1503939628601074,0.00143461674451828,36.714236,3.1812719,29.25,-4.87,-7.54,0.0,73,236,8.981234550476074,8.981234550476074
58,-0.23910200595855713,-2.149923086166382,0.021033912897109985,36.7141744,3.1811531,29.26,-4.16,-6.45,0.02,73,236,7.679240703582764,7.679210186004639
59,-0.29896804690361023,-2.12827467918396,0.026462659239768982,36.7141156,3.1810365,29.24,-3.45,-5.67,0.02,72,238,6.64607572555542,6.6460347175598145
60,-0.25058236718177795,-2.1105334758758545,0.019939256832003593,36.7140702,3.1809413,29.23,-3.28,-5.63,0.0,72,239,6.521459579467773,6.521453857421875
61,-0.2700537443161011,-2.1073343753814697,-0.02538607083261013,36.714026,3.1808464,29.23,-3.27,-5.64,0.0,71,239,6.524077415466309,6.524075031280518
62,0.07529930770397186,-2.1091153621673584,-0.0034882505424320698,36.71398,3.1807484,29.23,-2.28,-3.88,0.03,71,239,4.504330635070801,4.504181861877441
63,0.11855421215295792,-2.1086478233337402,-0.0016801048768684268,36.7139609,3.1807075,29.21,-0.59,-1.03,-0.01,71,239,1.1922358274459839,1.1921077966690063
64,0.011524280533194542,-2.1094651222229004,-0.024754969403147697,36.7139591,3.1807032,29.22,0.11,0.15,0.02,70,239,0.19375327229499817,0.19220581650733948
