timestamp,pitch,yaw,roll,lat,lon,alt,velocity_x,velocity_y,velocity_z,battery,heading,airspeed,groundspeed
0,0.02819136530160904,0.012437845580279827,0.01029923651367426,36.7156066,3.18463,25.89,-0.02,0.01,0.03,96,0,0.04791092500090599,0.028954116627573967
1,-0.09139427542686462,0.00419105589389801,0.06932394951581955,36.7156078,3.1846316,25.9,0.33,0.39,-0.02,95,0,0.5164850354194641,0.5159459710121155
2,-0.25599369406700134,1.1502807140350342,-0.11255128681659698,36.7156253,3.1846549,25.85,2.1,2.27,-0.03,95,65,3.100965738296509,3.1007256507873535
3,-0.2154269516468048,0.8299497365951538,0.012192088179290295,36.7156624,3.1847044,25.9,3.23,3.4,-0.06,95,47,4.700259685516357,4.699811935424805
4,-0.14002592861652374,0.8097736239433289,0.0010529659921303391,36.7157158,3.1847738,25.95,3.24,3.4,-0.04,94,46,4.7053070068359375,4.705127239227295
5,0.3121904134750366,0.735528290271759,-0.025089111179113388,36.7157511,3.1848179,25.97,1.37,1.24,0.0,94,42,1.8554348945617676,1.8554341793060303
6,-0.08268849551677704,-0.9865741729736328,-0.20835711061954498,36.7157447,3.1847986,25.98,-1.91,-2.77,-0.04,93,303,3.370598316192627,3.3703041076660156
7,-0.11890300363302231,-2.408330202102661,0.00026821470237337053,36.7157148,3.1847452,26.01,-2.28,-3.27,0.0,93,222,3.995180606842041,3.995171070098877
8,-0.04354960471391678,-2.0161821842193604,0.1402793526649475,36.7156871,3.1846897,26.0,-1.52,-3.14,0.01,93,244,3.4983487129211426,3.4983036518096924
9,-0.34541481733322144,-0.7825112342834473,0.13476024568080902,36.7156905,3.1846322,25.98,2.39,-2.78,0.0,92,315,3.677896499633789,3.6778881549835205
10,-0.4774436354637146,-0.6086304187774658,0.028628764674067497,36.7157459,3.1845777,25.98,5.67,-3.96,0.01,92,325,6.9243574142456055,6.924347877502441
11,-0.5209195613861084,-0.613650918006897,-0.025356842204928398,36.7158535,3.1844845,26.0,7.67,-5.31,0.0,91,324,9.338753700256348,9.338752746582031
12,-0.48955467343330383,-0.6191778779029846,0.026994090527296066,36.7159599,3.1843918,26.01,7.89,-5.55,0.0,91,324,9.650412559509277,9.650411605834961
13,-0.1926632970571518,-0.6220681667327881,-0.026892544701695442,36.7160769,3.1842887,26.06,6.48,-4.61,0.01,91,324,7.9584431648254395,7.958428382873535
14,0.05060812085866928,-0.7451228499412537,-0.11795888841152191,36.7161461,3.1842249,26.05,3.33,-3.07,-0.03,90,317,4.539463043212891,4.539364814758301
15,-0.26243457198143005,-1.9216591119766235,-0.20886018872261047,36.7161623,3.1841751,26.49,-1.04,-3.31,-0.54,90,249,3.520805597305298,3.478778600692749
16,-0.4749615788459778,-2.1812758445739746,0.04979090392589569,36.7161167,3.1840864,28.13,-4.24,-6.03,-1.26,89,235,7.487664699554443,7.380218029022217
17,-0.4436992108821869,-2.1667723655700684,0.013985389843583107,36.7160499,3.1839676,30.36,-5.37,-7.75,-1.58,89,235,9.564603805541992,9.433175086975098
18,-0.49216920137405396,-2.1669728755950928,-0.005364063195884228,36.7159623,3.1838091,33.23,-5.55,-8.12,-1.57,88,235,9.962557792663574,9.83798885345459
19,-0.473661333322525,-2.1655869483947754,0.03252807632088661,36.7158872,3.1836705,35.69,-5.57,-8.22,-1.57,88,235,10.061821937561035,9.937273979187012
20,-0.42344966530799866,-2.163980722427368,0.005080474074929953,36.7158119,3.183531,38.16,-5.56,-8.26,-1.58,88,236,10.090800285339355,9.964818000793457
21,-0.4872840344905853,-2.164316177368164,-0.011591191403567791,36.7157243,3.1833683,41.05,-5.52,-8.26,-1.59,87,236,10.068986892700195,9.941657066345215
22,-0.4824780225753784,-2.166417121887207,0.034066926687955856,36.7156494,3.1832289,43.53,-5.51,-8.25,-1.61,87,235,10.059378623962402,9.928705215454102
23,-0.43336617946624756,-2.1650991439819336,-0.02019583433866501,36.7155622,3.1830662,46.45,-5.53,-8.28,-1.62,86,235,10.097599983215332,9.966306686401367
24,-0.4814082980155945,-2.1645452976226807,-0.014823590405285358,36.7154873,3.1829266,48.95,-5.53,-8.28,-1.61,86,235,10.095537185668945,9.964761734008789
25,-0.43297722935676575,-2.163076877593994,0.029222071170806885,36.7154,3.1827636,51.86,-5.51,-8.29,-1.63,85,236,10.093438148498535,9.96083927154541
26,-0.4263487458229065,-2.165728807449341,-0.0046268790028989315,36.715325,3.1826239,54.36,-5.54,-8.28,-1.62,85,235,10.101251602172852,9.969285011291504
27,-0.48291411995887756,-2.164417028427124,-0.022765500470995903,36.7152503,3.1824845,56.87,-5.51,-8.31,-1.62,84,235,10.10792350769043,9.976991653442383
28,-0.44176608324050903,-2.1642849445343018,0.038957539945840836,36.7151628,3.1823213,59.79,-5.53,-8.29,-1.63,84,236,10.1072416305542,9.974863052368164
29,-0.3386138677597046,-2.166618824005127,-0.01878410577774048,36.7150884,3.1821829,62.27,-5.32,-7.88,-1.56,83,235,9.64592170715332,9.51784896850586
30,-0.08958253264427185,-2.168889284133911,0.03494596481323242,36.7150154,3.182048,64.7,-3.65,-5.46,-1.01,83,235,6.651118755340576,6.573768138885498
31,-0.0700092688202858,-2.135923385620117,0.020894741639494896,36.7149759,3.181972,65.72,-2.33,-3.78,-0.37,83,237,4.46160888671875,4.4460954666137695
32,-0.15586064755916595,-2.0889735221862793,0.03621767833828926,36.7149426,3.1818999,65.97,-1.99,-3.68,-0.02,82,240,4.191627502441406,4.191556930541992
33,-0.07511907815933228,-2.0876009464263916,-0.01956452801823616,36.7149156,3.1818384,65.96,-1.96,-3.6,-0.03,82,240,4.103248596191406,4.103090286254883
34,0.037190552800893784,-2.138458251953125,-0.019399989396333694,36.714893,3.1817886,65.75,-1.34,-2.18,0.43,82,237,2.603196144104004,2.566645860671997
35,0.0054628076031804085,-2.475123643875122,-0.045098062604665756,36.7148741,3.1817611,63.74,-1.06,-0.87,1.49,81,218,2.038212776184082,1.381317377090454
36,-0.04154793173074722,-2.467475414276123,0.03169899061322212,36.7148601,3.1817481,61.46,-1.03,-0.8,1.41,81,218,1.9250496625900269,1.305547833442688
37,-0.06437952071428299,-2.4695889949798584,-0.008198235183954239,36.7148435,3.181732,58.85,-1.06,-0.87,1.42,80,218,1.984654426574707,1.3783588409423828
38,-0.012405291199684143,-2.469773530960083,0.022280465811491013,36.714829,3.1817174,56.61,-1.07,-0.86,1.43,80,218,1.990154504776001,1.377177119255066
39,-0.0409783236682415,-2.4697113037109375,-0.020975789055228233,36.7148145,3.181703,54.37,-1.06,-0.87,1.44,80,218,1.9965828657150269,1.3777594566345215
40,-0.008534717373549938,-2.4698235988616943,0.001314390916377306,36.7147975,3.1816859,51.76,-1.06,-0.88,1.46,79,218,2.014500856399536,1.3862123489379883
41,-0.06026425585150719,-2.469543695449829,-0.006964755244553089,36.714783,3.1816713,49.51,-1.06,-0.88,1.46,79,218,2.0181682109832764,1.3859937191009521
42,-0.021485283970832825,-2.4701318740844727,-0.02136695571243763,36.714766,3.1816541,46.89,-1.07,-0.89,1.46,79,218,2.0265021324157715,1.3965715169906616
43,-0.05850192904472351,-2.470174551010132,0.01619269698858261,36.7147513,3.1816394,44.64,-1.07,-0.88,1.46,78,218,2.021683931350708,1.3884690999984741
44,-0.011638108640909195,-2.469785690307617,-0.0012923867907375097,36.7147367,3.1816248,42.39,-1.06,-0.87,1.47,78,218,2.0155935287475586,1.3788666725158691
45,-0.03860840946435928,-2.4700846672058105,0.03053177148103714,36.7147198,3.1816076,39.77,-1.06,-0.9,1.46,78,218,2.028369665145874,1.3981760740280151
46,-0.024369388818740845,-2.47012996673584,-0.023955384269356728,36.7147052,3.1815928,37.52,-1.07,-0.88,1.47,77,218,2.0233774185180664,1.3899675607681274
47,-0.012050960212945938,-2.4699888229370117,0.02072657272219658,36.7146881,3.1815757,34.9,-1.06,-0.88,1.47,77,218,2.0203049182891846,1.3824864625930786
48,-0.03918622061610222,-2.469728708267212,-0.021325010806322098,36.7146735,3.181561,32.65,-1.06,-0.88,1.48,76,218,2.0267608165740967,1.3844830989837646
49,-0.009040136821568012,-2.4699840545654297,-0.0015803985297679901,36.7146566,3.1815438,30.03,-1.05,-0.88,1.47,76,218,2.022052049636841,1.3798311948776245
50,-0.09762930124998093,-2.593052864074707,-0.07322148978710175,36.7146415,3.1815293,27.78,-1.29,-0.77,1.46,76,211,2.097031354904175,1.5030320882797241
51,-0.19898644089698792,2.7916016578674316,-0.07270291447639465,36.7146162,3.1815268,26.11,-2.6,0.79,0.45,75,159,2.757500410079956,2.7192091941833496
52,-0.2198709100484848,2.679053544998169,0.014604690484702587,36.7145618,3.1815577,26.03,-4.0,1.98,-0.07,75,153,4.470160007476807,4.469527244567871
53,-0.0646359920501709,2.717341661453247,0.06506293267011642,36.7145069,3.1815911,26.05,-3.94,1.74,0.06,75,155,4.311008930206299,4.31051778793335
54,-0.24045702815055847,-2.588341474533081,0.2843395173549652,36.7144511,3.1815979,26.0,-2.96,-1.75,0.03,74,211,3.4436910152435303,3.4435501098632812
55,-0.45108315348625183,-2.1668310165405273,0.016579261049628258,36.7144094,3.1815365,26.0,-3.47,-5.47,0.02,74,235,6.488686561584473,6.488646507263184
56,-0.5142140984535217,-2.1526641845703125,-0.01411400642246008,36.7143538,3.1814262,26.0,-4.63,-7.35,0.0,73,236,8.694011688232422,8.694010734558105
57,-0.3910911977291107,-2.150062322616577,0.008655313402414322,36.7142766,3.1812755,26.02,-4.95,-7.65,0.0,73,236,9.116721153259277,9.116720199584961
58,-0.289279967546463,-2.151832103729248,-0.01955948770046234,36.7142134,3.1811537,26.04,-4.29,-6.62,0.02,73,236,7.895828723907471,7.895791053771973
59,-0.25019559264183044,-2.127488851547241,0.03552617132663727,36.7141532,3.1810349,26.01,-3.46,-5.7,0.03,72,238,6.672963619232178,6.672881126403809
60,-0.29221290349960327,-2.1049540042877197,-0.016778653487563133,36.7141082,3.1809395,26.01,-3.24,-5.66,0.01,72,239,6.529792785644531,6.529780387878418
61,-0.2957277297973633,-2.100633382797241,0.03145226091146469,36.7140644,3.1808442,26.01,-3.23,-5.68,0.01,71,239,6.541172027587891,6.5411577224731445
62,-0.027958402410149574,-2.100219488143921,-0.023497331887483597,36.7140173,3.1807417,26.01,-2.47,-4.33,0.02,71,239,4.992276668548584,4.99221658706665
63,0.16154105961322784,-2.100222110748291,0.030374301597476006,36.7139946,3.180692,25.98,-0.82,-1.45,0.0,71,239,1.6750621795654297,1.6750528812408447
64,-0.008112211711704731,-2.1005072593688965,-0.0013318368000909686,36.7139909,3.1806834,25.99,0.11,0.15,0.01,70,239,0.1931927502155304,0.192865252494812
65,-0.007287798915058374,-2.056229591369629,0.1694640964269638,36.7139945,3.1806843,25.95,0.71,-0.38,-0.01,70,242,0.8110113143920898,0.8108235001564026
