timestamp,pitch,yaw,roll,lat,lon,alt,velocity_x,velocity_y,velocity_z,battery,heading,airspeed,groundspeed
0,-0.02035939320921898,0.00936906784772873,-0.01829433999955654,36.7156065,3.1846303,10.89,0.0,0.0,-0.48,98,0,0.4836553633213043,0.0028796570841223
1,-0.053751394152641296,0.006040727254003286,0.10763722658157349,36.7156076,3.184632,11.18,0.35,0.42,-0.09,97,0,0.5651078224182129,0.5577887892723083
2,-0.17371658980846405,1.2130101919174194,-0.030106328427791595,36.7156248,3.1846561,11.24,1.84,2.12,0.01,97,69,2.8091912269592285,2.8091559410095215
3,-0.1245497316122055,0.8646981120109558,-0.028415489941835403,36.7156536,3.1846973,11.14,2.23,2.6,0.05,97,49,3.430333375930786,3.4299116134643555
4,0.2724173069000244,0.7761185765266418,-0.046790577471256256,36.715684,3.1847393,11.03,1.02,0.97,0.02,96,44,1.4152840375900269,1.4150182008743286
5,-0.02038610726594925,-0.6259201765060425,-0.26683270931243896,36.7156789,3.1847242,11.02,-1.71,-2.56,-0.01,96,324,3.080810785293579,3.0807461738586426
6,-0.1142464429140091,-2.1838340759277344,2.0009281797683798e-05,36.7156501,3.1846715,11.0,-2.35,-3.29,-0.08,95,234,4.046627998352051,4.045815944671631
7,-0.01595435105264187,-1.9385795593261719,0.1581151783466339,36.7156179,3.1846061,11.03,-1.34,-3.15,0.03,95,248,3.426483631134033,3.42625093460083
8,-0.3353795111179352,-0.8233098983764648,0.15590479969978333,36.7156214,3.1845563,10.99,2.18,-2.79,0.0,95,312,3.548668384552002,3.5486676692962646
9,-0.4621674716472626,-0.6074608564376831,0.0009785571601241827,36.715688,3.1844908,10.99,5.98,-4.19,0.0,94,325,7.313298225402832,7.313297748565674
10,-0.5354313254356384,-0.6167559027671814,-0.022019347175955772,36.7157817,3.1844094,11.01,7.62,-5.31,0.0,94,324,9.293630599975586,9.29362964630127
11,-0.4222410321235657,-0.6204339265823364,0.0204667616635561,36.7159056,3.1843007,11.03,7.83,-5.56,0.0,93,324,9.676929473876953,9.676928520202637
12,-0.21043354272842407,-0.6244953274726868,-0.025382207706570625,36.716005,3.1842124,11.08,6.51,-4.66,0.01,93,324,8.015678405761719,8.015669822692871
13,0.05857536941766739,-0.7412728667259216,-0.10297724604606628,36.7160748,3.1841478,11.07,3.4,-3.12,-0.02,93,317,4.619585037231445,4.619512557983398
14,-0.36215248703956604,-2.0466275215148926,-0.1573425680398941,36.7160893,3.1840883,11.65,-1.61,-3.6,-0.64,92,242,3.9995405673980713,3.9473369121551514
15,-0.44183260202407837,-2.180708169937134,0.042795341461896896,36.7160472,3.1840094,13.12,-4.23,-5.99,-1.26,92,235,7.448239803314209,7.340754985809326
16,-0.4951305687427521,-2.1657655239105225,-0.02618713304400444,36.7159682,3.1838689,15.75,-5.43,-7.88,-1.59,91,235,9.705105781555176,9.572537422180176
17,-0.4834805428981781,-2.165592908859253,0.035136256366968155,36.7158935,3.1837327,18.23,-5.52,-8.15,-1.57,91,235,9.97681713104248,9.8519926071167
18,-0.42373180389404297,-2.163335084915161,-0.026348533108830452,36.7158057,3.18357,21.09,-5.57,-8.22,-1.58,90,236,10.059708595275879,9.934029579162598
19,-0.4892594814300537,-2.1650123596191406,-0.007050301879644394,36.7157303,3.1834305,23.57,-5.54,-8.24,-1.59,90,235,10.061384201049805,9.934627532958984
20,-0.4737677574157715,-2.163844347000122,0.034582361578941345,36.7156556,3.1832912,26.06,-5.5,-8.26,-1.6,89,236,10.05573558807373,9.926573753356934
21,-0.44360342621803284,-2.163957357406616,-0.030387450009584427,36.7155687,3.1831285,28.96,-5.51,-8.29,-1.61,89,236,10.09018325805664,9.960294723510742
22,-0.4967859387397766,-2.164022207260132,-0.01670915260910988,36.7154938,3.1829889,31.45,-5.54,-8.28,-1.61,89,236,10.097086906433105,9.967041969299316
23,-0.43016543984413147,-2.1637747287750244,0.01627638004720211,36.7154065,3.1828257,34.38,-5.5,-8.29,-1.62,88,236,10.087976455688477,9.956259727478027
24,-0.4535401165485382,-2.163905382156372,-0.030008936300873756,36.715332,3.1826859,36.88,-5.52,-8.3,-1.62,88,236,10.101069450378418,9.970097541809082
25,-0.4932613670825958,-2.1677794456481934,0.008981691673398018,36.7152571,3.1825463,39.37,-5.52,-8.28,-1.63,87,235,10.08818244934082,9.955416679382324
26,-0.42469584941864014,-2.165236473083496,0.008557748980820179,36.7151699,3.1823832,42.3,-5.51,-8.32,-1.63,87,235,10.121047973632812,9.98837661743164
27,-0.4624309539794922,-2.164086103439331,-0.027609946206212044,36.7150952,3.1822431,44.8,-5.52,-8.3,-1.62,86,236,10.109875679016113,9.977882385253906
28,-0.3252022862434387,-2.1672894954681396,0.029950665310025215,36.7150091,3.1820827,47.68,-5.18,-7.66,-1.53,86,235,9.377026557922363,9.251075744628906
29,-0.06038464233279228,-2.167325019836426,-0.012813459150493145,36.7149481,3.1819696,49.71,-3.64,-5.45,-1.01,85,235,6.634422302246094,6.555764198303223
30,-0.12068703025579453,-2.125171422958374,0.04339196905493736,36.7149037,3.1818835,50.83,-2.24,-3.73,-0.28,85,237,4.480194568634033,4.465327739715576
31,-0.139339879155159,-2.0884883403778076,-0.01757972501218319,36.7148753,3.1818215,50.99,-2.02,-3.7,-0.02,85,240,4.216683387756348,4.2166337966918945
32,-0.09370165318250656,-2.087681770324707,0.03174951300024986,36.7148482,3.18176,50.98,-1.95,-3.59,-0.03,84,240,4.091609954833984,4.091464042663574
33,0.024232054129242897,-2.1822526454925537,-0.05606675148010254,36.7148228,3.1817045,50.63,-1.26,-1.89,0.64,84,234,2.367579221725464,2.277279853820801
34,0.024878306314349174,-2.482412099838257,-0.000801555288489908,36.7148067,3.1816829,48.76,-1.09,-0.86,1.5,84,217,2.0496606826782227,1.3931652307510376
35,-0.05344011262059212,-2.4778521060943604,0.027483828365802765,36.71479,3.1816676,46.1,-1.03,-0.81,1.41,83,218,1.9378883838653564,1.32062828540802
36,-0.016351237893104553,-2.4758641719818115,-0.014111113734543324,36.7147757,3.1816537,43.86,-1.07,-0.86,1.42,83,218,1.9840863943099976,1.3774511814117432
37,-0.05912142992019653,-2.475677490234375,0.009052569977939129,36.7147611,3.1816392,41.62,-1.08,-0.87,1.43,83,218,1.9971362352371216,1.391425609588623
38,-0.04315079003572464,-2.4759328365325928,-0.023680880665779114,36.7147439,3.1816223,39.01,-1.08,-0.88,1.45,82,218,2.017284631729126,1.4004234075546265
39,-0.035618074238300323,-2.4759557247161865,0.026820918545126915,36.7147292,3.1816077,36.76,-1.08,-0.87,1.45,82,218,2.0141594409942627,1.3937615156173706
40,-0.05929191783070564,-2.475644826889038,-0.005453720223158598,36.7147119,3.1815906,34.14,-1.07,-0.89,1.45,81,218,2.023375988006592,1.402927279472351
41,-0.009387793019413948,-2.4758691787719727,0.009014609269797802,36.7146972,3.1815758,31.9,-1.08,-0.88,1.46,81,218,2.0281124114990234,1.4001144170761108
42,-0.06000369042158127,-2.475999116897583,-0.007747450843453407,36.7146823,3.1815612,29.66,-1.08,-0.88,1.47,81,218,2.0323002338409424,1.3999269008636475
43,-0.020965825766324997,-2.4765119552612305,-0.017004970461130142,36.7146652,3.1815441,27.03,-1.09,-0.88,1.47,80,218,2.0360982418060303,1.408245325088501
44,-0.058903757482767105,-2.4756407737731934,0.018396025523543358,36.7146504,3.1815293,24.79,-1.07,-0.89,1.47,80,218,2.0346996784210205,1.401283860206604
45,-0.05168134346604347,-2.4757165908813477,-0.02022039331495762,36.7146332,3.1815121,22.16,-1.07,-0.89,1.47,80,218,2.0370500087738037,1.402200698852539
46,-0.028674133121967316,-2.475574254989624,0.028449129313230515,36.7146184,3.1814974,19.91,-1.07,-0.88,1.47,79,218,2.0264430046081543,1.3902431726455688
47,-0.06209497153759003,-2.476118564605713,0.009645127691328526,36.7146012,3.1814803,17.29,-1.07,-0.88,1.47,79,218,2.0310258865356445,1.3936244249343872
48,-0.003728260286152363,-2.47576642036438,0.0008988869958557189,36.7145864,3.1814656,15.04,-1.07,-0.87,1.47,78,218,2.0267539024353027,1.3883949518203735
49,-0.09777689725160599,-2.601001501083374,-0.06478842347860336,36.7145712,3.1814511,12.78,-1.29,-0.76,1.45,78,210,2.09535813331604,1.5050219297409058
50,-0.23894529044628143,2.708489179611206,-0.09392479807138443,36.7145397,3.1814515,11.03,-2.9,1.15,0.23,78,155,3.1330971717834473,3.1243133544921875
51,-0.20261716842651367,2.671579360961914,0.024184955283999443,36.7144917,3.18148,11.06,-3.95,1.99,-0.07,77,153,4.435931205749512,4.435354709625244
52,-0.07778516411781311,2.770137310028076,0.08981063961982727,36.7144287,3.1815181,11.06,-3.79,1.43,0.06,77,158,4.0585808753967285,4.058029651641846
53,-0.23590679466724396,-2.54018235206604,0.2725673317909241,36.7143827,3.1815188,11.02,-2.93,-1.87,0.03,77,214,3.479163408279419,3.479027032852173
54,-0.48136210441589355,-2.163565158843994,0.005627727136015892,36.7143408,3.1814553,11.02,-3.52,-5.56,0.02,76,236,6.590007781982422,6.5899658203125
55,-0.4667677581310272,-2.1484382152557373,0.02668176405131817,36.714274,3.181323,11.03,-4.77,-7.52,0.0,76,236,8.912014961242676,8.912014961242676
56,-0.4050315320491791,-2.1532695293426514,-0.02427360974252224,36.7142076,3.181194,11.04,-4.96,-7.65,0.0,75,236,9.12058162689209,9.12058162689209
57,-0.2593042850494385,-2.15053129196167,0.03361067175865173,36.714135,3.181054,11.06,-4.12,-6.4,0.02,75,236,7.62177038192749,7.621722221374512
58,-0.2634100019931793,-2.131878614425659,-0.008166681975126266,36.7140843,3.1809536,11.03,-3.49,-5.69,0.03,75,237,6.685180187225342,6.685100078582764
59,-0.2676166296005249,-2.1101036071777344,0.035710711032152176,36.7140313,3.1808425,11.03,-3.27,-5.62,0.01,74,239,6.511700630187988,6.511692523956299
60,-0.24352039396762848,-2.1088876724243164,-0.0246251430362463,36.7139869,3.1807475,11.03,-3.28,-5.64,0.0,74,239,6.525639533996582,6.525635719299316
61,-0.021611545234918594,-2.1090948581695557,0.027542198076844215,36.7139465,3.1806613,11.03,-2.48,-4.25,0.02,73,239,4.923201560974121,4.923125267028809
62,0.12923069298267365,-2.1082375049591064,-0.01936228945851326,36.7139223,3.1806097,11.0,-0.57,-0.99,-0.01,73,239,1.15115225315094,1.151016354560852
63,0.032519008964300156,-2.108741521835327,0.02347021922469139,36.7139204,3.1806054,11.01,0.11,0.17,0.0,73,239,0.2063518464565277,0.20613937079906464
