timestamp,pitch,yaw,roll,lat,lon,alt,velocity_x,velocity_y,velocity_z,battery,heading,airspeed,groundspeed
0,-0.017519276589155197,0.018358109518885612,0.020780391991138458,36.7156066,3.1846299,13.53,-0.02,0.03,-0.03,96,1,0.052177224308252335,0.03787648677825928
1,-0.12671005725860596,0.10680973529815674,0.09573406726121902,36.7156089,3.184634,13.54,0.55,0.76,-0.02,95,6,0.9481824040412903,0.9479700326919556
2,-0.15405000746250153,1.3485671281814575,-0.08529205620288849,36.7156253,3.1846619,13.54,1.86,2.52,-0.02,95,77,3.137833595275879,3.137754201889038
3,-0.15720194578170776,0.9193333387374878,0.016046836972236633,36.7156547,3.1847109,13.55,2.29,3.06,-0.01,95,52,3.8323962688446045,3.8323798179626465
4,0.2195235788822174,0.9065746068954468,-0.03777347877621651,36.7156867,3.1847626,13.55,1.2,1.51,0.0,94,51,1.936793565750122,1.936792254447937
5,0.15012460947036743,-0.16198955476284027,-0.22873668372631073,36.7156846,3.1847552,13.58,-1.56,-2.31,0.0,94,350,2.792351007461548,2.7923479080200195
6,-0.15998658537864685,-1.98814857006073,-0.005496241617947817,36.7156519,3.1846957,13.56,-2.31,-3.28,-0.07,93,246,4.020052909851074,4.019296646118164
7,-0.02916060760617256,-1.9891213178634644,0.08086160570383072,36.7156237,3.1846399,13.59,-1.59,-3.19,0.05,93,246,3.570542573928833,3.570168972015381
8,-0.27794691920280457,-1.0095329284667969,0.24282702803611755,36.7156211,3.1845894,13.54,1.6,-2.75,0.01,93,302,3.186866283416748,3.1868503093719482
9,-0.49386653304100037,-0.6137078404426575,-0.023815462365746498,36.7156798,3.1845268,13.54,5.63,-3.92,0.0,92,324,6.864499568939209,6.864494323730469
10,-0.5271611213684082,-0.6200737357139587,0.036816906183958054,36.7157697,3.1844488,13.55,7.46,-5.15,0.0,92,324,9.072155952453613,9.072152137756348
11,-0.4642007350921631,-0.6191771030426025,-0.03356646001338959,36.7158924,3.1843418,13.57,7.86,-5.56,0.0,91,324,9.637567520141602,9.637565612792969
12,-0.2860812842845917,-0.6246606707572937,0.014829149469733238,36.7159943,3.1842511,13.61,6.82,-4.88,0.0,91,324,8.392977714538574,8.392973899841309
13,0.06588348746299744,-0.6861964464187622,-0.09221073985099792,36.7160701,3.1841828,13.6,4.0,-3.27,0.01,91,320,5.177543640136719,5.177530288696289
14,-0.28119751811027527,-1.9087939262390137,-0.16843338310718536,36.7160952,3.1841235,14.04,-1.0,-3.33,-0.54,90,250,3.5222575664520264,3.480149507522583
15,-0.4409453570842743,-2.1728689670562744,-0.023421727120876312,36.7160595,3.1840511,15.38,-3.95,-5.52,-1.17,90,235,6.895991325378418,6.7959771156311035
16,-0.49344000220298767,-2.170320987701416,0.04298940673470497,36.7159833,3.1839166,17.9,-5.39,-7.75,-1.58,89,235,9.578277587890625,9.446174621582031
17,-0.4185708165168762,-2.1648154258728027,0.020571036264300346,36.7159083,3.1837807,20.36,-5.52,-8.09,-1.59,89,235,9.92956829071045,9.80057144165039
18,-0.487785667181015,-2.1642403602600098,-0.009930083528161049,36.7158207,3.183619,23.23,-5.55,-8.25,-1.58,88,236,10.074410438537598,9.949057579040527
19,-0.46296775341033936,-2.164599895477295,0.04228200390934944,36.7157455,3.1834795,25.71,-5.52,-8.26,-1.59,88,235,10.069011688232422,9.94135856628418
20,-0.42195403575897217,-2.161682605743408,-0.0007918862393125892,36.7156708,3.1833396,28.2,-5.49,-8.24,-1.6,88,236,10.035934448242188,9.906710624694824
21,-0.4902310371398926,-2.1656599044799805,0.009409940801560879,36.7155836,3.183177,31.1,-5.53,-8.23,-1.61,87,235,10.054179191589355,9.924284934997559
22,-0.453239768743515,-2.164738655090332,0.03583136200904846,36.7155088,3.1830376,33.59,-5.52,-8.3,-1.62,87,235,10.108073234558105,9.97641658782959
23,-0.46447867155075073,-2.1644914150238037,-0.027435749769210815,36.7154218,3.1828746,36.51,-5.5,-8.3,-1.62,86,235,10.09766674041748,9.96649169921875
24,-0.49550899863243103,-2.1656570434570312,0.020442942157387733,36.7153472,3.1827349,39.01,-5.5,-8.27,-1.62,86,235,10.066832542419434,9.934698104858398
25,-0.4407597780227661,-2.16601824760437,0.039431504905223846,36.7152723,3.182595,41.5,-5.56,-8.32,-1.64,85,235,10.15024185180664,10.015339851379395
26,-0.4564148187637329,-2.164285898208618,-0.02130615897476673,36.7151848,3.1824315,44.43,-5.5,-8.3,-1.63,85,236,10.098893165588379,9.96485710144043
27,-0.4852220118045807,-2.1645607948303223,0.023365119472146034,36.7151105,3.1822921,46.94,-5.51,-8.3,-1.63,84,235,10.102327346801758,9.968786239624023
28,-0.3488380014896393,-2.1664042472839355,-0.016178276389837265,36.7150236,3.1821305,49.84,-5.3,-7.88,-1.56,84,235,9.636658668518066,9.508397102355957
29,-0.12534402310848236,-2.167945384979248,0.001865043886937201,36.7149597,3.1820116,51.99,-3.93,-5.88,-1.13,84,235,7.170251369476318,7.079591751098633
30,-0.07853538542985916,-2.135101318359375,-0.0013314178213477135,36.7149118,3.1819197,53.29,-2.34,-3.79,-0.36,83,237,4.48006010055542,4.465380668640137
31,-0.16595032811164856,-2.092233657836914,0.025836966931819916,36.7148828,3.1818577,53.53,-2.02,-3.67,-0.03,83,240,4.194535732269287,4.194365501403809
32,-0.0955071970820427,-2.0877859592437744,0.0017993127694353461,36.7148558,3.1817964,53.52,-1.99,-3.65,-0.02,82,240,4.165836811065674,4.165759086608887
33,0.055023323744535446,-2.1412363052368164,-0.009281241334974766,36.7148289,3.1817367,53.31,-1.33,-2.16,0.44,82,237,2.581923246383667,2.5427446365356445
34,0.015245913527905941,-2.452083110809326,-0.05082706734538078,36.7148124,3.181712,51.67,-1.11,-0.97,1.48,82,219,2.095719337463379,1.4782062768936157
35,-0.01127146277576685,-2.466749906539917,0.019891126081347466,36.7147959,3.1816962,49.01,-1.03,-0.8,1.42,81,218,1.9343239068984985,1.310761570930481
36,-0.06405171006917953,-2.4688360691070557,-0.009833297692239285,36.7147818,3.1816827,46.77,-1.04,-0.86,1.43,81,218,1.9737725257873535,1.3551405668258667
37,-0.015410213731229305,-2.469161033630371,0.019697729498147964,36.7147674,3.1816683,44.53,-1.06,-0.87,1.44,81,218,1.9955962896347046,1.3806555271148682
38,-0.056106086820364,-2.4704296588897705,0.020860906690359116,36.7147504,3.1816512,41.91,-1.07,-0.88,1.44,80,218,2.005911111831665,1.3905055522918701
39,-0.008411060087382793,-2.469114065170288,-0.00415438786149025,36.7147358,3.1816365,39.67,-1.07,-0.88,1.45,80,218,2.0164012908935547,1.3959707021713257
40,-0.024622458964586258,-2.469282865524292,0.028567658737301826,36.7147189,3.1816195,37.05,-1.07,-0.88,1.46,79,218,2.0180723667144775,1.3899136781692505
41,-0.038744717836380005,-2.4694459438323975,-0.019383875653147697,36.7147043,3.1816049,34.81,-1.06,-0.89,1.47,79,218,2.024473190307617,1.3913400173187256
42,-0.036244265735149384,-2.4697883129119873,0.02911187894642353,36.7146897,3.1815901,32.57,-1.06,-0.88,1.48,79,218,2.027838945388794,1.3845794200897217
43,-0.06006975099444389,-2.4694221019744873,-0.0057935393415391445,36.7146726,3.1815728,29.95,-1.07,-0.88,1.47,78,218,2.030921459197998,1.391047716140747
44,-0.009330995380878448,-2.469297409057617,0.01061613205820322,36.714658,3.1815582,27.69,-1.07,-0.87,1.47,78,218,2.0261354446411133,1.3853237628936768
45,-0.04589040204882622,-2.469658851623535,0.028706034645438194,36.7146411,3.181541,25.07,-1.06,-0.88,1.47,78,218,2.025928020477295,1.385513186454773
46,-0.018930744379758835,-2.4699108600616455,-0.019388869404792786,36.7146265,3.1815263,22.81,-1.06,-0.87,1.47,77,218,2.023719310760498,1.3843169212341309
47,-0.013374751433730125,-2.4694905281066895,0.021882005035877228,36.7146095,3.181509,20.19,-1.05,-0.88,1.47,77,218,2.0151336193084717,1.3765406608581543
48,-0.042710594832897186,-2.4692084789276123,-0.0247814878821373,36.7145948,3.1814943,17.94,-1.07,-0.88,1.47,77,218,2.025987386703491,1.3911348581314087
49,-0.04583587124943733,-2.5123848915100098,-0.022475779056549072,36.7145802,3.1814797,15.69,-1.16,-0.82,1.47,76,216,2.0504133701324463,1.426692008972168
50,-0.2606918215751648,2.7922379970550537,-0.07264485955238342,36.7145521,3.1814751,13.67,-2.59,0.78,0.45,76,159,2.7536633014678955,2.7164320945739746
51,-0.18160372972488403,2.6786913871765137,-0.009463244117796421,36.7145065,3.1815005,13.58,-3.9,1.94,-0.05,75,153,4.360620498657227,4.360218048095703
52,-0.09723350405693054,2.715937376022339,0.10314083099365234,36.7144425,3.1815396,13.61,-3.92,1.73,0.06,75,155,4.294928073883057,4.2944231033325195
53,-0.12649942934513092,-2.804277181625366,0.2476705014705658,36.7143939,3.1815496,13.57,-3.08,-1.06,0.03,75,199,3.266303300857544,3.2661118507385254
54,-0.4715330898761749,-2.185939073562622,0.09458594024181366,36.7143528,3.1814987,13.56,-3.26,-4.92,0.02,74,234,5.9129414558410645,5.912898540496826
55,-0.4859483242034912,-2.155944585800171,-0.024060921743512154,36.7142894,3.1813741,13.57,-4.63,-7.35,0.0,74,236,8.694314002990723,8.694311141967773
56,-0.4704861640930176,-2.1503419876098633,-0.001084997784346342,36.7142236,3.1812452,13.58,-4.97,-7.72,0.0,73,236,9.190138816833496,9.190138816833496
57,-0.2568625807762146,-2.152221202850342,-0.00814819522202015,36.7141492,3.1811019,13.59,-4.29,-6.62,0.01,73,236,7.896366596221924,7.896342754364014
58,-0.30242064595222473,-2.134187698364258,0.02733897604048252,36.714097,3.1809992,13.57,-3.52,-5.73,0.03,73,237,6.726385116577148,6.726309776306152
59,-0.26464077830314636,-2.10408878326416,-0.013750667683780193,36.7140441,3.1808876,13.57,-3.24,-5.64,0.01,72,239,6.512784957885742,6.5127763748168945
60,-0.30044832825660706,-2.1001317501068115,0.017360657453536987,36.7140003,3.1807921,13.56,-3.24,-5.69,0.0,72,239,6.553127288818359,6.553121089935303
61,-0.031095707789063454,-2.1002912521362305,0.0010202010162174702,36.713959,3.1807023,13.57,-2.67,-4.65,0.01,71,239,5.368237495422363,5.368227005004883
62,0.15040579438209534,-2.1008777618408203,0.028094379231333733,36.7139306,3.1806404,13.53,-0.81,-1.43,0.0,71,239,1.6559276580810547,1.6559001207351685
63,0.05412665009498596,-2.100823163986206,-0.0254047904163599,36.7139268,3.1806316,13.55,0.07,0.09,0.0,71,239,0.12048256397247314,0.1204797625541687
64,-0.0024834934156388044,-2.057222604751587,0.1525183916091919,36.7139305,3.1806325,13.51,0.71,-0.36,-0.01,70,242,0.8030574321746826,0.8028756380081177
