timestamp,pitch,yaw,roll,lat,lon,alt,velocity_x,velocity_y,velocity_z,battery,heading,airspeed,groundspeed
0,0.007938758470118046,-0.04590828716754913,-0.025394264608621597,36.7156066,3.18463,14.01,-0.02,0.02,-0.04,96,357,0.054738886654376984,0.03309239074587822
1,-0.03080872632563114,0.007285538595169783,0.12812252342700958,36.7156079,3.1846337,14.03,0.31,0.76,-0.02,95,0,0.8266291618347168,0.8263788819313049
2,-0.17869117856025696,1.7029139995574951,-0.07833928614854813,36.7156179,3.1846618,14.03,1.16,2.59,-0.02,95,97,2.840975284576416,2.8408710956573486
3,-0.11183058470487595,0.9546018838882446,-0.00915450043976307,36.7156361,3.1847112,14.04,1.39,3.07,-0.01,95,54,3.3754050731658936,3.3753788471221924
4,0.3177717924118042,1.2695881128311157,0.07524114847183228,36.715653,3.1847593,14.04,0.22,0.92,-0.01,94,72,0.9503249526023865,0.9501290321350098
5,-0.1112665981054306,2.9007887840270996,0.24244622886180878,36.7156407,3.184741,14.07,-1.9,-2.71,0.0,94,166,3.3219034671783447,3.321895122528076
6,-0.13127635419368744,-1.922460675239563,-0.05198544263839722,36.715606,3.1846771,14.05,-2.29,-3.31,-0.06,93,249,4.028269290924072,4.027685165405273
7,-0.013187939301133156,-1.8917969465255737,0.1817760467529297,36.7155808,3.1846216,14.05,-1.06,-3.12,0.03,93,251,3.3007328510284424,3.3005216121673584
8,-0.33279353380203247,-0.7453820109367371,0.11622883379459381,36.7155891,3.1845724,14.02,2.59,-2.84,0.0,93,317,3.8484692573547363,3.8484692573547363
9,-0.48118990659713745,-0.6085801720619202,0.024948950856924057,36.7156608,3.1845044,14.03,6.22,-4.34,0.0,92,325,7.587438583374023,7.587438583374023
10,-0.5081391334533691,-0.6169097423553467,-0.028934556990861893,36.7157565,3.1844215,14.04,7.7,-5.4,0.0,92,324,9.408503532409668,9.408502578735352
11,-0.4341158866882324,-0.6211689114570618,0.02984011359512806,36.7158807,3.1843122,14.07,7.78,-5.53,-0.01,91,324,9.549026489257812,9.549015045166016
12,-0.15408091247081757,-0.6251235008239746,-0.014148810878396034,36.7159783,3.1842256,14.11,6.29,-4.5,0.02,91,324,7.738585472106934,7.738557815551758
13,0.07678879052400589,-0.9111218452453613,-0.18050795793533325,36.7160503,3.1841554,14.14,2.28,-2.94,-0.12,91,307,3.7329814434051514,3.730818510055542
14,-0.3606557548046112,-2.0984373092651367,-0.14497092366218567,36.7160518,3.1841032,14.78,-1.99,-3.79,-0.71,90,239,4.345349311828613,4.286492824554443
15,-0.48910245299339294,-2.1808931827545166,0.04549836367368698,36.716006,3.1840205,16.34,-4.36,-6.25,-1.31,90,235,7.737429618835449,7.625311374664307
16,-0.4508662223815918,-2.1654863357543945,-0.02579541690647602,36.7159259,3.1838768,19.02,-5.46,-7.97,-1.6,89,235,9.80008316040039,9.66765022277832
17,-0.48052841424942017,-2.163482666015625,-0.018618198111653328,36.7158508,3.1837396,21.5,-5.52,-8.14,-1.56,89,236,9.965448379516602,9.841139793395996
18,-0.42904868721961975,-2.161944627761841,0.02329869382083416,36.7157631,3.1835771,24.36,-5.54,-8.22,-1.58,88,236,10.046937942504883,9.920699119567871
19,-0.4362073540687561,-2.1640892028808594,-0.03046666458249092,36.7156879,3.1834378,26.84,-5.54,-8.23,-1.59,88,236,10.059319496154785,9.931782722473145
20,-0.4952031075954437,-2.1659367084503174,-0.008906122297048569,36.7156134,3.1832991,29.33,-5.52,-8.3,-1.59,88,235,10.104348182678223,9.977529525756836
21,-0.4271050989627838,-2.1651957035064697,0.026899101212620735,36.715526,3.1831356,32.23,-5.53,-8.31,-1.61,87,235,10.117706298828125,9.987333297729492
22,-0.4404503405094147,-2.165283441543579,-0.026137342676520348,36.7154512,3.1829957,34.73,-5.5,-8.27,-1.62,87,235,10.064355850219727,9.933090209960938
23,-0.4806897044181824,-2.163569211959839,0.029965979978442192,36.7153644,3.182833,37.65,-5.5,-8.3,-1.62,86,236,10.090965270996094,9.959770202636719
24,-0.42966729402542114,-2.1627798080444336,0.018380334600806236,36.7152896,3.1826932,40.14,-5.53,-8.29,-1.63,86,236,10.101576805114746,9.96872329711914
25,-0.487468957901001,-2.1651463508605957,-0.011609755456447601,36.7152022,3.1825301,43.06,-5.51,-8.29,-1.62,85,235,10.094071388244629,9.961870193481445
26,-0.4854632616043091,-2.1647112369537354,0.02029605768620968,36.7151274,3.1823903,45.57,-5.51,-8.28,-1.62,85,235,10.088618278503418,9.956305503845215
27,-0.4277271330356598,-2.1643624305725098,0.019046086817979813,36.7150526,3.1822504,48.08,-5.51,-8.31,-1.63,84,236,10.108515739440918,9.976025581359863
28,-0.3353860080242157,-2.1663055419921875,-0.01429976150393486,36.7149671,3.1820907,50.94,-5.05,-7.52,-1.5,84,235,9.195377349853516,9.070996284484863
29,-0.06055888161063194,-2.1666359901428223,0.033995795994997025,36.7149083,3.1819816,52.9,-3.47,-5.21,-0.93,84,235,6.3403730392456055,6.271082401275635
30,-0.16928523778915405,-2.1201846599578857,0.011500868014991283,36.7148655,3.181898,53.89,-2.19,-3.72,-0.24,83,238,4.333654880523682,4.326831817626953
31,-0.12797538936138153,-2.0873124599456787,0.023929566144943237,36.7148376,3.1818364,54.01,-2.01,-3.68,-0.01,83,240,4.202238082885742,4.202195644378662
32,-0.08856647461652756,-2.087287187576294,-0.0287330225110054,36.7148107,3.1817751,54.0,-1.92,-3.51,-0.04,82,240,4.014151573181152,4.013950824737549
33,0.059150759130716324,-2.2130260467529297,-0.058661844581365585,36.714786,3.1817225,53.55,-1.24,-1.74,0.77,82,233,2.2824482917785645,2.1457443237304688
34,-0.030910640954971313,-2.4830896854400635,-0.009439805522561073,36.7147703,3.1817023,51.56,-1.04,-0.82,1.49,82,217,1.9994757175445557,1.3298887014389038
35,-0.026831896975636482,-2.47214674949646,-0.022771118208765984,36.714754,3.1816871,48.92,-1.04,-0.81,1.41,81,218,1.9410431385040283,1.3292852640151978
36,-0.04546945169568062,-2.470287561416626,0.026769518852233887,36.7147397,3.1816732,46.67,-1.06,-0.86,1.42,81,218,1.9810534715652466,1.37606942653656
37,-0.053183212876319885,-2.4690816402435303,-0.023684656247496605,36.7147228,3.1816562,44.06,-1.07,-0.88,1.43,81,218,2.0006229877471924,1.3903965950012207
38,-0.016186628490686417,-2.469417095184326,0.02368089370429516,36.7147083,3.1816416,41.82,-1.06,-0.87,1.44,80,218,1.9985624551773071,1.3791611194610596
39,-0.040437620133161545,-2.469259262084961,-0.02332700416445732,36.7146937,3.181627,39.57,-1.07,-0.88,1.44,80,218,2.0105674266815186,1.3939086198806763
40,-0.00788949802517891,-2.4694409370422363,-0.003068766789510846,36.7146767,3.1816099,36.96,-1.08,-0.88,1.45,79,218,2.016458511352539,1.3953052759170532
41,-0.06274715811014175,-2.469158172607422,-0.004826842341572046,36.714662,3.1815952,34.72,-1.06,-0.89,1.46,79,218,2.023454427719116,1.3904958963394165
42,-0.00821090117096901,-2.4697444438934326,0.006455850321799517,36.7146475,3.1815805,32.47,-1.06,-0.88,1.46,79,218,2.0156502723693848,1.3812552690505981
43,-0.05590113624930382,-2.4696149826049805,0.02434336021542549,36.7146305,3.1815634,29.85,-1.06,-0.89,1.46,78,218,2.0227155685424805,1.3905619382858276
44,-0.014760545454919338,-2.4695398807525635,-0.017689716070890427,36.7146159,3.1815485,27.6,-1.06,-0.88,1.47,78,218,2.0258448123931885,1.3867583274841309
45,-0.02094428241252899,-2.4694764614105225,0.025576993823051453,36.7145988,3.1815314,24.98,-1.05,-0.88,1.47,78,218,2.021573066711426,1.3795980215072632
46,-0.04426351934671402,-2.4697346687316895,-0.023185450583696365,36.7145844,3.1815167,22.72,-1.06,-0.88,1.47,77,218,2.0232419967651367,1.3892329931259155
47,-0.006937206257134676,-2.4695777893066406,-0.0027072837110608816,36.7145673,3.1814995,20.11,-1.06,-0.88,1.47,77,218,2.0227553844451904,1.3814911842346191
48,-0.05832897126674652,-2.469197988510132,-0.006317080929875374,36.7145527,3.1814848,17.85,-1.06,-0.88,1.47,77,218,2.0252773761749268,1.3863210678100586
49,-0.04831937700510025,-2.6703245639801025,-0.07031598687171936,36.7145374,3.1814705,15.6,-1.37,-0.69,1.43,76,207,2.1052780151367188,1.5431995391845703
50,-0.25649553537368774,2.692528486251831,-0.023886369541287422,36.7145038,3.1814737,14.04,-3.06,1.29,0.13,76,154,3.3344671726226807,3.3315351009368896
51,-0.16740673780441284,2.6789848804473877,-0.02350597083568573,36.7144542,3.1815033,14.1,-4.04,2.02,-0.06,75,153,4.518402576446533,4.517960071563721
52,-0.04525689408183098,2.8093314170837402,0.15199196338653564,36.7143904,3.1815405,14.09,-3.78,1.27,0.06,75,160,3.9991579055786133,3.998629331588745
53,-0.28877684473991394,-2.4641377925872803,0.19714990258216858,36.7143448,3.1815374,14.05,-2.93,-2.17,0.03,75,218,3.6494863033294678,3.6493616104125977
54,-0.453389436006546,-2.139983892440796,0.016846250742673874,36.714294,3.181453,14.05,-3.87,-6.15,0.01,74,237,7.274850845336914,7.274825572967529
55,-0.47840598225593567,-2.1497366428375244,-0.030148684978485107,36.7142345,3.1813355,14.06,-4.82,-7.57,0.0,74,236,8.983485221862793,8.983482360839844
56,-0.4296274781227112,-2.149601697921753,-0.006194742396473885,36.7141678,3.1812056,14.07,-4.9,-7.59,0.0,73,236,9.045403480529785,9.045402526855469
57,-0.22213780879974365,-2.1494228839874268,-0.003917444031685591,36.7140958,3.1810672,14.09,-4.04,-6.29,0.03,73,236,7.480666160583496,7.480595111846924
58,-0.3013538420200348,-2.1257894039154053,0.022086918354034424,36.7140462,3.180968,14.06,-3.41,-5.67,0.03,73,238,6.6237101554870605,6.6236252784729
59,-0.25552839040756226,-2.1029763221740723,0.02262890338897705,36.7140017,3.1808732,14.06,-3.24,-5.66,0.01,72,239,6.528712749481201,6.528698444366455
60,-0.26168835163116455,-2.1005678176879883,0.00892076175659895,36.7139507,3.1807618,14.06,-3.2,-5.61,0.0,72,239,6.463932514190674,6.463925838470459
61,0.04651607573032379,-2.1002285480499268,0.011585449799895287,36.7139117,3.1806772,14.06,-2.34,-4.08,0.03,71,239,4.706253528594971,4.706119060516357
62,0.12702533602714539,-2.100956439971924,0.025058770552277565,36.7138898,3.1806293,14.03,-0.45,-0.83,-0.01,71,239,0.9562001824378967,0.9560068249702454
63,0.020762428641319275,-2.1005518436431885,-0.020905587822198868,36.7138887,3.1806265,14.04,0.1,0.16,0.01,71,239,0.19228845834732056,0.19182442128658295
