timestamp,pitch,yaw,roll,lat,lon,alt,velocity_x,velocity_y,velocity_z,battery,heading,airspeed,groundspeed
0,-0.004370487295091152,0.025003787130117416,-0.022500209510326385,36.7156067,3.1846299,24.12,-0.02,0.03,-0.15,96,1,0.16311517357826233,0.04085713252425194
1,-0.052585143595933914,0.021156372502446175,0.11475545912981033,36.7156076,3.1846318,24.2,0.28,0.46,-0.06,95,1,0.5528534650802612,0.5493112802505493
2,-0.17517860233783722,1.3983561992645264,-0.0435059480369091,36.715622,3.1846572,24.23,1.52,2.22,-0.03,95,80,2.698603391647339,2.6984050273895264
3,-0.11128725856542587,0.9018393754959106,-0.02739432267844677,36.7156459,3.1847001,24.22,1.87,2.7,0.0,95,51,3.291926622390747,3.2919158935546875
4,0.3063782751560211,0.9247390031814575,-0.003203821834176779,36.7156701,3.1847417,24.19,0.59,0.74,-0.01,94,52,0.9565040469169617,0.9564064741134644
5,0.05695102736353874,-0.29271918535232544,-0.23674781620502472,36.7156606,3.1847222,24.22,-1.84,-2.68,0.0,94,343,3.2587363719940186,3.2587292194366455
6,-0.09862329065799713,-1.8281673192977905,-0.03152460604906082,36.7156316,3.1846691,24.2,-2.33,-3.31,-0.08,93,255,4.055416584014893,4.054614543914795
7,-0.02346666343510151,-1.865612268447876,0.16784422099590302,36.7156007,3.1846042,24.22,-1.13,-3.12,0.04,93,253,3.328075408935547,3.327782154083252
8,-0.32931965589523315,-0.7578393220901489,0.11461344361305237,36.7156078,3.184555,24.18,2.46,-2.83,0.0,93,316,3.7574875354766846,3.7574875354766846
9,-0.4713997542858124,-0.6065325140953064,0.026769347488880157,36.7156779,3.1844874,24.19,6.13,-4.28,0.0,92,325,7.484180927276611,7.484180450439453
10,-0.5006219148635864,-0.6161023378372192,-0.027087649330496788,36.7157727,3.1844051,24.2,7.69,-5.33,0.0,92,324,9.36540699005127,9.365405082702637
11,-0.4931987226009369,-0.6203758120536804,-0.0028858238365501165,36.7158789,3.1843122,24.22,7.89,-5.58,0.0,91,324,9.671048164367676,9.671048164367676
12,-0.16525903344154358,-0.6252162456512451,-0.005197801161557436,36.7159949,3.1842093,24.27,6.35,-4.56,0.01,91,324,7.822730541229248,7.822717189788818
13,0.050598736852407455,-0.7720997929573059,-0.1606357842683792,36.7160619,3.1841464,24.27,3.14,-3.06,-0.05,91,315,4.391723155975342,4.391402721405029
14,-0.33933815360069275,-2.087407350540161,-0.15543457865715027,36.7160717,3.1840861,24.9,-1.86,-3.71,-0.69,90,240,4.212276935577393,4.1552252769470215
15,-0.4982084631919861,-2.1790003776550293,0.026181470602750778,36.7160275,3.1840047,26.45,-4.33,-6.15,-1.28,90,235,7.6400957107543945,7.5309600830078125
16,-0.44132328033447266,-2.1674342155456543,-0.008938504382967949,36.7159475,3.1838624,29.1,-5.49,-7.92,-1.6,89,235,9.77051830291748,9.637660026550293
17,-0.47879812121391296,-2.166691780090332,-0.02250523865222931,36.7158722,3.1837259,31.57,-5.54,-8.15,-1.57,89,235,9.984406471252441,9.859086990356445
18,-0.4865332245826721,-2.165377616882324,0.024304693564772606,36.7157971,3.1835865,34.03,-5.52,-8.25,-1.58,88,235,10.055022239685059,9.929558753967285
19,-0.43081676959991455,-2.16330623626709,-0.004367576912045479,36.71571,3.1834241,36.92,-5.53,-8.27,-1.59,88,236,10.085289001464844,9.9584321975708
20,-0.46928417682647705,-2.1651947498321533,-0.023895584046840668,36.715635,3.1832843,39.4,-5.54,-8.29,-1.6,87,235,10.102996826171875,9.974722862243652
21,-0.44539958238601685,-2.166118621826172,0.043084390461444855,36.7155476,3.1831215,42.31,-5.5,-8.26,-1.62,87,235,10.059197425842285,9.92761516571045
22,-0.42684993147850037,-2.1637909412384033,-2.2464719222625718e-06,36.715473,3.1829818,44.8,-5.5,-8.26,-1.63,87,236,10.065228462219238,9.932256698608398
23,-0.4636088013648987,-2.1640396118164062,-0.026612814515829086,36.7153983,3.1828421,47.3,-5.51,-8.28,-1.63,86,236,10.090337753295898,9.957466125488281
24,-0.4598274230957031,-2.163094997406006,0.03649332374334335,36.7153112,3.182679,50.21,-5.51,-8.28,-1.64,86,236,10.085844993591309,9.951314926147461
25,-0.4240712523460388,-2.165771007537842,0.004075868520885706,36.7152364,3.1825393,52.72,-5.52,-8.29,-1.63,85,235,10.10473918914795,9.971100807189941
26,-0.49580448865890503,-2.165254592895508,0.002283531939610839,36.7151492,3.1823762,55.64,-5.51,-8.3,-1.62,85,235,10.100428581237793,9.968220710754395
27,-0.4606936275959015,-2.162755012512207,0.0372237004339695,36.7150747,3.1822365,58.15,-5.52,-8.3,-1.63,84,236,10.108231544494629,9.975189208984375
28,-0.32387882471084595,-2.165212869644165,-0.0016166645800694823,36.7150007,3.1820986,60.63,-5.29,-7.82,-1.55,84,235,9.571805000305176,9.44462776184082
29,-0.09591463953256607,-2.16767954826355,0.026891369372606277,36.7149291,3.1819661,63.0,-3.55,-5.32,-0.96,83,235,6.474606513977051,6.401792049407959
30,-0.08378887921571732,-2.1311357021331787,0.019173989072442055,36.7148907,3.1818916,63.96,-2.29,-3.75,-0.33,83,237,4.410374641418457,4.397429943084717
31,-0.1655150204896927,-2.088301658630371,0.032241035252809525,36.7148576,3.1818195,64.18,-1.99,-3.66,-0.01,83,240,4.178380489349365,4.178342819213867
32,-0.05457649379968643,-2.087829351425171,-0.01578718237578869,36.7148306,3.1817583,64.17,-1.92,-3.52,-0.03,82,240,4.019106388092041,4.018958568572998
33,0.045596472918987274,-2.2015020847320557,-0.025697743520140648,36.7148057,3.1817049,63.75,-1.24,-1.79,0.73,82,236,2.4954280853271484,2.441157341003418
34,-0.010381354950368404,-2.481125593185425,-0.039888568222522736,36.71479,3.1816842,61.8,-1.07,-0.84,1.49,82,217,2.0274713039398193,1.3649524450302124
35,-0.04470713436603546,-2.469186305999756,0.028915241360664368,36.7147758,3.181671,59.53,-1.03,-0.8,1.42,81,218,1.9374476671218872,1.3123518228530884
36,-0.06354867666959763,-2.4694643020629883,-0.012713151052594185,36.7147594,3.181655,56.91,-1.04,-0.86,1.43,81,218,1.9743027687072754,1.354522466659546
37,-0.01538345031440258,-2.469369411468506,0.019088929519057274,36.7147449,3.1816405,54.67,-1.07,-0.87,1.44,81,218,2.0018162727355957,1.3878624439239502
38,-0.05853058397769928,-2.4703586101531982,0.017266035079956055,36.7147278,3.1816235,52.06,-1.06,-0.87,1.45,80,218,2.0057225227355957,1.3823213577270508
39,-0.01222289353609085,-2.4691286087036133,0.010893970727920532,36.7147133,3.181609,49.82,-1.06,-0.88,1.46,80,218,2.0124897956848145,1.3844783306121826
40,-0.06324376910924911,-2.4692156314849854,-0.0027223883662372828,36.7146988,3.1815942,47.58,-1.07,-0.89,1.47,79,218,2.0293657779693604,1.396519660949707
41,-0.01959393359720707,-2.4694807529449463,-0.02229577675461769,36.7146817,3.181577,44.96,-1.07,-0.88,1.47,79,218,2.0287344455718994,1.3895610570907593
42,-0.055020395666360855,-2.470165967941284,0.02507958747446537,36.7146671,3.1815624,42.71,-1.06,-0.88,1.47,79,218,2.024724245071411,1.383324146270752
43,-0.04608289897441864,-2.469198226928711,-0.021005965769290924,36.7146502,3.1815452,40.09,-1.06,-0.89,1.47,78,218,2.0269737243652344,1.3875584602355957
44,-0.03097252920269966,-2.469419479370117,0.02891608700156212,36.7146356,3.1815305,37.84,-1.06,-0.88,1.47,78,218,2.027893543243408,1.3889508247375488
45,-0.024647872895002365,-2.4692447185516357,-0.025471653789281845,36.714621,3.1815158,35.58,-1.06,-0.88,1.47,78,218,2.0228676795959473,1.3830822706222534
46,-0.00876978226006031,-2.469255208969116,0.01287978608161211,36.714604,3.1814986,32.96,-1.07,-0.89,1.47,77,218,2.0314061641693115,1.3976891040802002
47,-0.055379439145326614,-2.4692888259887695,-0.020203232765197754,36.7145894,3.1814838,30.71,-1.06,-0.87,1.47,77,218,2.0220155715942383,1.3831462860107422
48,-0.010637344792485237,-2.469177722930908,-0.0013792002573609352,36.7145723,3.1814667,28.09,-1.06,-0.87,1.48,76,218,2.0265326499938965,1.3823654651641846
49,-0.10221574455499649,-2.6408557891845703,-0.062146417796611786,36.7145572,3.1814524,25.84,-1.33,-0.72,1.45,76,208,2.103062391281128,1.52271568775177
50,-0.2385983169078827,2.6985301971435547,-0.07817060500383377,36.7145242,3.1814545,24.21,-3.02,1.23,0.17,76,154,3.270720958709717,3.265974998474121
51,-0.19788677990436554,2.6786322593688965,0.026275906711816788,36.714475,3.1814836,24.25,-4.02,2.01,-0.06,75,153,4.504042625427246,4.503569602966309
52,-0.05734536796808243,2.7352731227874756,0.0665133148431778,36.7144201,3.1815169,24.25,-3.9,1.64,0.06,75,156,4.240962505340576,4.240504741668701
53,-0.25416478514671326,-2.495854616165161,0.25273534655570984,36.7143654,3.1815193,24.21,-2.95,-2.0,0.02,75,217,3.5728657245635986,3.5727505683898926
54,-0.46665462851524353,-2.159255027770996,0.005238977260887623,36.7143229,3.1814539,24.21,-3.58,-5.65,0.02,74,236,6.6985673904418945,6.6985297203063965
55,-0.4678010642528534,-2.1513872146606445,0.03127462789416313,36.7142554,3.1813207,24.22,-4.79,-7.56,0.0,74,236,8.95145320892334,8.95145320892334
56,-0.3863477110862732,-2.151355028152466,-0.016748344525694847,36.714189,3.181191,24.23,-4.92,-7.62,0.0,73,236,9.072627067565918,9.072627067565918
57,-0.2725476026535034,-2.1500155925750732,0.035039208829402924,36.7141169,3.1810521,24.24,-4.07,-6.35,0.02,73,236,7.548847675323486,7.548799991607666
58,-0.26333072781562805,-2.130764961242676,0.043101172894239426,36.7140747,3.1809684,24.22,-3.5,-5.7,0.02,73,237,6.6965556144714355,6.6964921951293945
59,-0.3050522804260254,-2.104116439819336,0.0027468078769743443,36.7140219,3.1808569,24.21,-3.23,-5.64,0.0,72,239,6.509422302246094,6.509416103363037
60,-0.21280907094478607,-2.100466728210449,-0.012501660734415054,36.7139711,3.1807458,24.21,-3.2,-5.62,0.0,72,239,6.472297668457031,6.472296714782715
61,-0.017466234043240547,-2.1001672744750977,-0.007453745696693659,36.7139319,3.1806607,24.21,-2.37,-4.14,0.02,71,239,4.780591011047363,4.780523300170898
62,0.15084615349769592,-2.100428819656372,-0.024363702163100243,36.7139093,3.1806114,24.19,-0.53,-0.93,-0.02,71,239,1.4966671466827393,1.4965910911560059
63,-0.007180751767009497,-2.100510835647583,0.025584343820810318,36.7139077,3.1806076,24.2,0.11,0.16,0.01,71,239,0.20416058599948883,0.20379242300987244
