timestamp,pitch,yaw,roll,lat,lon,alt,velocity_x,velocity_y,velocity_z,battery,heading,airspeed,groundspeed
0,-0.019009213894605637,0.020552009344100952,0.021431075409054756,36.7156065,3.1846299,27.16,-0.01,0.02,0.12,96,1,0.12627001106739044,0.033688146620988846
1,-0.04129882901906967,0.01712118275463581,0.07808583229780197,36.7156076,3.184632,27.06,0.3,0.5,0.0,95,0,0.5835660099983215,0.583525538444519
2,-0.19711712002754211,1.4599943161010742,-0.11022672057151794,36.715623,3.1846613,27.02,1.78,2.73,-0.05,95,83,3.267543315887451,3.267106056213379
3,-0.23707468807697296,0.9185923337936401,0.019924165681004524,36.7156533,3.1847187,27.09,2.54,3.88,-0.07,95,52,4.643507480621338,4.642887115478516
4,-0.056792158633470535,0.975159764289856,-0.03289104998111725,36.7156945,3.1847954,27.16,2.42,3.61,-0.05,94,55,4.360062599182129,4.359748840332031
5,0.34518805146217346,0.9852137565612793,0.04041234031319618,36.7157169,3.184836,27.18,0.36,0.56,0.0,94,56,0.6691199541091919,0.6691170334815979
6,0.0671190470457077,2.1989243030548096,0.18978823721408844,36.7157043,3.1848131,27.2,-1.93,-2.78,-0.04,93,125,3.391031265258789,3.390686511993408
7,-0.10341548174619675,-2.2532613277435303,0.004279857035726309,36.7156698,3.1847507,27.22,-2.21,-3.28,0.0,93,230,3.9619507789611816,3.9619410037994385
8,-0.02897023782134056,-2.024141788482666,0.16234111785888672,36.715645,3.1846959,27.21,-1.05,-3.08,0.0,93,244,3.263416290283203,3.2634079456329346
9,-0.3754967153072357,-0.6899797320365906,0.0833689495921135,36.7156591,3.1846395,27.2,3.1,-2.89,0.0,92,320,4.2433953285217285,4.24339485168457
10,-0.49181094765663147,-0.6101725697517395,0.038247983902692795,36.7157224,3.1845809,27.2,6.11,-4.26,0.0,92,325,7.461095809936523,7.461095809936523
11,-0.48343050479888916,-0.616091787815094,-0.010172883979976177,36.7158173,3.184499,27.21,7.68,-5.31,0.0,91,324,9.34448528289795,9.344480514526367
12,-0.4655912220478058,-0.619780957698822,0.024754980579018593,36.7159414,3.1843908,27.23,7.81,-5.51,0.0,91,324,9.564772605895996,9.56476879119873
13,-0.17833025753498077,-0.6207547783851624,0.008092228323221207,36.7160402,3.1843039,27.27,6.44,-4.57,0.0,91,324,7.902056694030762,7.902053356170654
14,0.07316620647907257,-0.8591029644012451,-0.16214744746685028,36.7161153,3.1842322,27.29,2.56,-2.97,-0.1,90,310,3.927833080291748,3.9263932704925537
15,-0.32834139466285706,-2.074431896209717,-0.16263392567634583,36.7161206,3.1841807,27.88,-1.76,-3.65,-0.67,90,241,4.112597942352295,4.057231426239014
16,-0.4619329869747162,-2.173701524734497,0.04404357075691223,36.7160671,3.1840834,29.72,-4.55,-6.48,-1.35,89,235,8.03868579864502,7.922940254211426
17,-0.44167110323905945,-2.166719436645508,-0.003333889879286289,36.7159975,3.1839596,32.02,-5.47,-7.92,-1.6,89,235,9.764809608459473,9.631620407104492
18,-0.4783863127231598,-2.1674928665161133,-0.016863856464624405,36.7159221,3.1838227,34.5,-5.52,-8.13,-1.57,88,235,9.957479476928711,9.832058906555176
19,-0.43942806124687195,-2.1643807888031006,0.030889123678207397,36.7158344,3.1836606,37.37,-5.53,-8.23,-1.58,88,236,10.049443244934082,9.924312591552734
20,-0.4375949203968048,-2.1674137115478516,-0.02311638370156288,36.7157596,3.1835217,39.83,-5.57,-8.27,-1.6,87,235,10.104646682739258,9.97710132598877
21,-0.47925567626953125,-2.1661434173583984,0.02787070721387863,36.7156718,3.1833586,42.74,-5.51,-8.27,-1.6,87,235,10.073145866394043,9.943755149841309
22,-0.42965975403785706,-2.163290023803711,0.02578108385205269,36.7155969,3.183219,45.23,-5.51,-8.25,-1.61,87,236,10.056615829467773,9.925930976867676
23,-0.44600623846054077,-2.1648640632629395,-0.028039418160915375,36.7155223,3.18308,47.72,-5.52,-8.26,-1.62,86,235,10.074774742126465,9.943607330322266
24,-0.4740728437900543,-2.165741443634033,0.03073616325855255,36.7154348,3.1829169,50.63,-5.53,-8.29,-1.63,86,235,10.104473114013672,9.971601486206055
25,-0.42429453134536743,-2.1638665199279785,0.015508126467466354,36.7153599,3.182777,53.13,-5.5,-8.28,-1.63,85,236,10.07830810546875,9.945371627807617
26,-0.4846786856651306,-2.1635658740997314,-0.029215140268206596,36.7152728,3.1826143,56.05,-5.53,-8.26,-1.63,85,236,10.085138320922852,9.952411651611328
27,-0.4682776927947998,-2.1669342517852783,0.04012666270136833,36.7151976,3.1824746,58.55,-5.53,-8.29,-1.63,84,235,10.108701705932617,9.974894523620605
28,-0.424401193857193,-2.164275646209717,0.0045597609132528305,36.7151228,3.1823346,61.06,-5.51,-8.28,-1.63,84,236,10.09164047241211,9.95793342590332
29,-0.3629198670387268,-2.1690118312835693,0.0001285976468352601,36.715037,3.1821749,63.93,-5.17,-7.63,-1.52,83,235,9.348498344421387,9.224084854125977
30,-0.06106958165764809,-2.167607545852661,0.03540072217583656,36.7149761,3.1820626,65.94,-3.63,-5.41,-1.0,83,235,6.600029945373535,6.522700786590576
31,-0.1556980013847351,-2.1255507469177246,0.027635972946882248,36.7149317,3.1819765,67.03,-2.22,-3.71,-0.27,83,238,4.338905334472656,4.330106735229492
32,-0.12294219434261322,-2.088428497314453,0.015889793634414673,36.7149035,3.1819149,67.19,-1.99,-3.67,-0.01,82,240,4.184816837310791,4.1847758293151855
33,-0.06697127223014832,-2.087822914123535,0.02693163976073265,36.7148724,3.1818441,67.18,-1.87,-3.43,-0.02,82,240,4.07942008972168,4.079281330108643
34,0.059668708592653275,-2.1879208087921143,-0.0679677352309227,36.7148512,3.1817988,66.81,-1.26,-1.86,0.67,82,234,2.356379270553589,2.2574169635772705
35,-0.01711086928844452,-2.4772465229034424,0.00573210883885622,36.7148354,3.1817774,64.91,-1.06,-0.85,1.49,81,218,2.026146411895752,1.3647898435592651
36,-0.05449753627181053,-2.471494436264038,-0.01592986285686493,36.714819,3.1817621,62.27,-1.03,-0.82,1.42,81,218,1.9421178102493286,1.322617769241333
37,-0.024720903486013412,-2.4696216583251953,0.025915617123246193,36.7148049,3.1817483,60.03,-1.06,-0.86,1.43,80,218,1.9872039556503296,1.3698595762252808
38,-0.05840655043721199,-2.470128297805786,0.008223453536629677,36.7147879,3.1817313,57.41,-1.06,-0.88,1.44,80,218,2.002413749694824,1.38955819606781
39,-0.007528126239776611,-2.46899676322937,0.0067126876674592495,36.7147734,3.1817167,55.17,-1.07,-0.87,1.45,80,218,2.0085580348968506,1.3890255689620972
40,-0.06292091310024261,-2.4697844982147217,0.0006165562081150711,36.7147588,3.1817021,52.93,-1.05,-0.88,1.46,79,218,2.0093891620635986,1.3788299560546875
41,-0.023626090958714485,-2.469524621963501,-0.019525570794939995,36.7147418,3.181685,50.3,-1.07,-0.88,1.46,79,218,2.020319938659668,1.3911523818969727
42,-0.04798794910311699,-2.4700934886932373,0.026443922892212868,36.7147273,3.1816703,48.06,-1.06,-0.88,1.47,79,218,2.018796443939209,1.382779598236084
43,-0.056666214019060135,-2.4689888954162598,-0.020019343122839928,36.7147102,3.1816531,45.44,-1.07,-0.88,1.47,78,218,2.0280911922454834,1.3932875394821167
44,-0.014413714408874512,-2.4691162109375,0.02046373300254345,36.7146956,3.1816384,43.19,-1.06,-0.87,1.47,78,218,2.0174331665039062,1.379688024520874
45,-0.0502980574965477,-2.4692981243133545,-0.016908366233110428,36.714681,3.1816237,40.94,-1.06,-0.88,1.46,78,218,2.0202414989471436,1.3871746063232422
46,-0.011664294637739658,-2.4696993827819824,-0.010286105796694756,36.7146641,3.1816065,38.32,-1.07,-0.87,1.48,77,218,2.0278289318084717,1.3859117031097412
47,-0.05884643271565437,-2.469717264175415,0.009128552861511707,36.7146494,3.1815918,36.07,-1.06,-0.88,1.47,77,218,2.0217208862304688,1.3809388875961304
48,-0.03237883746623993,-2.469397783279419,-0.027373764663934708,36.7146324,3.1815746,33.44,-1.07,-0.87,1.47,76,218,2.0220088958740234,1.3843308687210083
49,-0.03347090259194374,-2.469686985015869,0.02931596152484417,36.7146178,3.1815599,31.2,-1.05,-0.88,1.47,76,218,2.016841411590576,1.3734155893325806
50,-0.067168228328228,-2.6103367805480957,-0.09375903010368347,36.7146027,3.1815456,28.95,-1.3,-0.75,1.46,76,210,2.100057363510132,1.508181095123291
51,-0.21332663297653198,2.7082576751708984,-0.047079700976610184,36.7145708,3.1815462,27.23,-2.93,1.15,0.22,75,155,3.1601510047912598,3.1524596214294434
52,-0.21922530233860016,2.6802854537963867,-0.025665899738669395,36.7145223,3.1815746,27.26,-4.02,2.0,-0.06,75,153,4.49478816986084,4.494287014007568
53,-0.03844847157597542,2.777631998062134,0.08873969316482544,36.7144585,3.1816128,27.26,-3.84,1.44,0.06,75,159,4.111913204193115,4.111380577087402
54,-0.2696191966533661,-2.566523551940918,0.2622864544391632,36.7144119,3.1816137,27.22,-2.95,-1.84,0.03,74,212,3.4832608699798584,3.4831080436706543
55,-0.47816741466522217,-2.149080991744995,-0.015635479241609573,36.7143618,3.1815351,27.22,-3.75,-5.98,0.02,74,236,7.06688928604126,7.066849231719971
56,-0.5075296759605408,-2.149942636489868,0.015501201152801514,36.7143033,3.1814192,27.22,-4.73,-7.54,0.0,73,236,8.909391403198242,8.909391403198242
57,-0.38276049494743347,-2.151597738265991,0.012496924959123135,36.7142368,3.1812893,27.24,-4.93,-7.62,0.0,73,236,9.0864896774292,9.086488723754883
58,-0.2857761085033417,-2.1506543159484863,0.01410710345953703,36.7141642,3.1811498,27.26,-4.1,-6.39,0.02,73,236,7.600409984588623,7.600356101989746
59,-0.2528479993343353,-2.1266849040985107,0.03025752678513527,36.7141141,3.1810498,27.23,-3.46,-5.71,0.02,72,238,6.681186676025391,6.681119918823242
60,-0.3052472472190857,-2.102832794189453,0.019830351695418358,36.7140615,3.1809382,27.23,-3.24,-5.65,0.01,72,239,6.523843765258789,6.5238356590271
61,-0.22378812730312347,-2.0997519493103027,0.013117862865328789,36.7140178,3.1808427,27.23,-3.2,-5.62,0.0,71,239,6.476085662841797,6.476082801818848
62,0.03173379227519035,-2.100583076477051,0.024576403200626373,36.713973,3.1807452,27.22,-2.21,-3.86,0.03,71,239,4.450876712799072,4.4507341384887695
63,0.1664642095565796,-2.100714921951294,-0.02036178484559059,36.7139545,3.1807047,27.2,-0.57,-1.01,-0.01,71,239,1.1659197807312012,1.1657849550247192
64,-0.0103076733648777,-2.100783109664917,0.016965288668870926,36.7139525,3.1807002,27.21,0.1,0.15,0.0,70,239,0.18574132025241852,0.18549181520938873
