timestamp,pitch,yaw,roll,lat,lon,alt,velocity_x,velocity_y,velocity_z,battery,heading,airspeed,groundspeed
0,0.019703419879078865,0.02837502211332321,-0.02078424207866192,36.7156066,3.18463,28.9,-0.02,0.02,0.0,96,1,0.037282414734363556,0.036836110055446625
1,-0.06324191391468048,0.019869856536388397,0.12800168991088867,36.7156074,3.1846321,28.79,0.23,0.54,-0.03,95,1,0.5893020033836365,0.5883746147155762
2,-0.22526255249977112,1.6206306219100952,-0.09909667819738388,36.7156199,3.184662,28.81,1.42,2.74,-0.05,95,92,3.093514919281006,3.093055486679077
3,-0.14635972678661346,0.9347108602523804,-0.0071458974853158,36.7156435,3.1847181,28.83,1.91,3.68,-0.04,95,53,4.153947353363037,4.153652667999268
4,0.09196306020021439,1.0670933723449707,0.03587895631790161,36.7156732,3.1847877,28.84,1.52,2.9,-0.02,94,61,3.2864091396331787,3.2862982749938965
5,0.2544642686843872,1.6848363876342773,0.20780077576637268,36.7156808,3.1848082,28.83,-0.79,-0.96,0.0,94,96,1.2490359544754028,1.2490054368972778
6,-0.09812986105680466,-2.7396066188812256,0.06640736013650894,36.7156534,3.1847597,28.88,-2.24,-3.24,-0.02,93,203,3.9463229179382324,3.9462292194366455
7,-0.11177200824022293,-2.0878450870513916,0.06455491483211517,36.7156234,3.1847037,28.87,-2.1,-3.23,0.0,93,240,3.859565019607544,3.8595635890960693
8,-0.03373986482620239,-1.537553310394287,0.210641011595726,36.715607,3.1846507,28.86,0.07,-2.89,0.0,93,271,2.8966777324676514,2.896676540374756
9,-0.4073331654071808,-0.6496049761772156,0.0875469222664833,36.7156431,3.1845937,28.86,4.44,-3.28,0.0,92,322,5.526021480560303,5.52601957321167
10,-0.513956606388092,-0.6249743103981018,-0.018285660073161125,36.7157216,3.1845255,28.86,6.92,-4.79,0.0,92,324,8.422958374023438,8.422954559326172
11,-0.4817847013473511,-0.6177847385406494,0.03364918380975723,36.7158409,3.184422,28.89,7.89,-5.53,0.0,91,324,9.63829517364502,9.638293266296387
12,-0.34562182426452637,-0.6213120222091675,-0.016393348574638367,36.715947,3.1843291,28.91,7.5,-5.31,-0.01,91,324,9.194070816040039,9.194059371948242
13,-0.08375772833824158,-0.6235061287879944,-0.01964373141527176,36.716037,3.1842497,28.94,5.39,-3.87,0.05,91,324,6.6402764320373535,6.640066146850586
14,-0.03806920349597931,-1.290704369544983,-0.3166100084781647,36.7160894,3.1841874,29.09,0.76,-2.91,-0.29,90,286,3.0243031978607178,3.0103542804718018
15,-0.40153345465660095,-2.1328420639038086,-0.030411826446652412,36.7160725,3.1841286,30.02,-3.0,-4.49,-0.92,90,237,5.4836883544921875,5.40485143661499
16,-0.49094292521476746,-2.1617987155914307,-0.029010886326432228,36.7160059,3.1840115,32.24,-4.99,-7.25,-1.49,89,236,8.93272590637207,8.806087493896484
17,-0.48417529463768005,-2.163475513458252,0.011574577540159225,36.7159331,3.1838798,34.68,-5.49,-8.04,-1.6,89,236,9.873565673828125,9.74296760559082
18,-0.42589762806892395,-2.161644220352173,-0.014215592294931412,36.7158455,3.1837185,37.54,-5.55,-8.22,-1.57,88,236,10.03016185760498,9.905776977539062
19,-0.47603484988212585,-2.1634483337402344,-0.02495586685836315,36.71577,3.1835789,40.01,-5.55,-8.23,-1.58,88,236,10.061119079589844,9.934932708740234
20,-0.47655290365219116,-2.163116693496704,0.028208402916789055,36.7156953,3.1834397,42.49,-5.49,-8.25,-1.6,87,236,10.047222137451172,9.91891860961914
21,-0.4343505799770355,-2.1655831336975098,-0.017994552850723267,36.7156084,3.1832774,45.39,-5.55,-8.28,-1.6,87,235,10.10364818572998,9.974618911743164
22,-0.4874033033847809,-2.1655185222625732,-0.015827106311917305,36.7155333,3.1831376,47.89,-5.52,-8.29,-1.61,87,235,10.090751647949219,9.960958480834961
23,-0.42719006538391113,-2.1627357006073,0.02169065736234188,36.7154462,3.1829743,50.8,-5.49,-8.29,-1.62,86,236,10.085410118103027,9.953639030456543
24,-0.44386687874794006,-2.164926767349243,-0.02283996343612671,36.7153716,3.1828349,53.31,-5.53,-8.3,-1.61,86,235,10.106562614440918,9.976278305053711
25,-0.4912431240081787,-2.1651716232299805,-0.004471819382160902,36.7152967,3.182695,55.8,-5.52,-8.31,-1.62,85,235,10.119240760803223,9.987441062927246
26,-0.4258544147014618,-2.162355661392212,0.02276638150215149,36.7152095,3.1825316,58.72,-5.48,-8.27,-1.63,85,236,10.06191349029541,9.928130149841309
27,-0.45994842052459717,-2.1644492149353027,-0.031521301716566086,36.715135,3.1823922,61.23,-5.52,-8.29,-1.62,84,235,10.09689998626709,9.964752197265625
28,-0.44161292910575867,-2.164490222930908,0.033320870250463486,36.7150475,3.1822288,64.14,-5.5,-8.25,-1.63,84,235,10.057108879089355,9.923925399780273
29,-0.19764083623886108,-2.1683685779571533,-0.005626324098557234,36.7149772,3.1820985,66.5,-4.63,-6.88,-1.38,83,235,8.421533584594727,8.306296348571777
30,-0.09109039604663849,-2.161454200744629,-0.004766799975186586,36.7149259,3.1820024,68.14,-2.98,-4.55,-0.7,83,236,5.492596626281738,5.447421550750732
31,-0.12378747016191483,-2.1146650314331055,-0.00854558777064085,36.7148874,3.1819254,68.81,-2.17,-3.71,-0.12,83,238,4.304112434387207,4.3022308349609375
32,-0.18411433696746826,-2.101454973220825,0.014825111255049706,36.7148591,3.181864,68.84,-2.08,-3.69,-0.01,82,239,4.245189666748047,4.2451701164245605
33,0.0005449551390483975,-2.1064836978912354,-0.036849040538072586,36.7148281,3.1817964,68.81,-1.65,-2.87,0.1,82,239,3.3165347576141357,3.3149049282073975
34,0.02314189076423645,-2.339128017425537,-0.016777407377958298,36.7148094,3.1817621,67.89,-1.19,-1.33,1.19,82,225,2.1604995727539062,1.797580599784851
35,-0.034388184547424316,-2.4776344299316406,-0.0270712710916996,36.7147946,3.1817462,65.65,-1.03,-0.79,1.45,81,218,1.9524558782577515,1.305936574935913
36,-0.011305485852062702,-2.4700028896331787,0.007509099319577217,36.7147782,3.1817308,63.03,-1.04,-0.83,1.42,81,218,1.952521800994873,1.3396493196487427
37,-0.06227114051580429,-2.46972918510437,-0.008159104734659195,36.7147639,3.1817166,60.79,-1.06,-0.88,1.42,80,218,1.9875874519348145,1.3845899105072021
38,-0.021315012127161026,-2.470097303390503,-0.01866327039897442,36.7147469,3.1816996,58.18,-1.08,-0.87,1.44,80,218,2.0071306228637695,1.3932603597640991
39,-0.05629745498299599,-2.4693000316619873,0.018250592052936554,36.7147324,3.1816849,55.93,-1.06,-0.88,1.44,80,218,2.0020058155059814,1.3804492950439453
40,-0.053658559918403625,-2.469241142272949,-0.017884179949760437,36.7147154,3.1816679,53.31,-1.07,-0.88,1.45,79,218,2.016406297683716,1.3966809511184692
41,-0.022847088053822517,-2.4691972732543945,0.026880884543061256,36.7147008,3.1816531,51.07,-1.06,-0.88,1.46,79,218,2.014338254928589,1.3855023384094238
42,-0.04554657265543938,-2.469511032104492,-0.019853925332427025,36.7146862,3.1816384,48.83,-1.07,-0.88,1.47,79,218,2.026003122329712,1.3913321495056152
43,-0.011702071875333786,-2.4696171283721924,-0.006993892136961222,36.7146693,3.1816214,46.21,-1.07,-0.88,1.47,78,218,2.0238356590270996,1.3899556398391724
44,-0.06223871931433678,-2.469564914703369,0.003505800850689411,36.7146547,3.1816066,43.96,-1.06,-0.89,1.47,78,218,2.0253260135650635,1.3913352489471436
45,-0.03230218216776848,-2.4697177410125732,-0.023860760033130646,36.7146376,3.1815894,41.34,-1.06,-0.89,1.47,78,218,2.031738042831421,1.3936580419540405
46,-0.0422917902469635,-2.4699835777282715,0.028100421652197838,36.714623,3.1815746,39.09,-1.06,-0.87,1.47,77,218,2.020737648010254,1.3798102140426636
47,-0.058323584496974945,-2.469606876373291,-0.010964350774884224,36.714606,3.1815576,36.47,-1.06,-0.88,1.47,77,218,2.022677421569824,1.3836119174957275
48,-0.017445726320147514,-2.4690797328948975,0.01953374408185482,36.7145914,3.1815428,34.21,-1.06,-0.88,1.47,76,218,2.022480010986328,1.382463812828064
49,-0.05140932649374008,-2.4694809913635254,-0.018290231004357338,36.7145768,3.181528,31.96,-1.05,-0.88,1.47,76,218,2.0195460319519043,1.3809643983840942
50,-0.11785006523132324,3.1274619102478027,-0.12230991572141647,36.7145554,3.1815151,29.48,-1.94,-0.06,1.04,76,179,2.2078425884246826,1.9422268867492676
51,-0.25168851017951965,2.6682400703430176,-0.0006935868295840919,36.7145184,3.18153,28.85,-3.48,1.71,-0.04,75,152,3.885683059692383,3.885385036468506
52,-0.15151579678058624,2.671879529953003,-0.02062561921775341,36.7144568,3.1815687,28.96,-4.0,2.05,0.04,75,153,4.502685070037842,4.50249719619751
53,-0.02710055746138096,3.0353903770446777,0.23608721792697906,36.7144047,3.1815937,28.9,-3.48,0.36,0.05,75,173,3.5025603771209717,3.502139091491699
54,-0.4403192102909088,-2.200268030166626,0.09398795664310455,36.7143557,3.1815581,28.88,-3.07,-4.19,0.02,74,233,5.202295303344727,5.202256679534912
55,-0.47203484177589417,-2.153580665588379,0.029062960296869278,36.714306,3.1814629,28.88,-4.33,-6.81,0.0,74,236,8.073055267333984,8.073050498962402
56,-0.43870508670806885,-2.154268264770508,-0.03003978356719017,36.7142422,3.1813388,28.89,-4.98,-7.67,0.0,73,236,9.147574424743652,9.147575378417969
57,-0.3289744555950165,-2.1570513248443604,0.026193372905254364,36.7141642,3.1811898,28.92,-4.63,-7.08,0.0,73,236,8.468539237976074,8.468537330627441
58,-0.21266892552375793,-2.1469995975494385,-0.0031350809149444103,36.7141069,3.1810798,28.91,-3.76,-5.9,0.03,73,236,7.003974914550781,7.003875732421875
59,-0.27513083815574646,-2.1128742694854736,0.0423230417072773,36.714052,3.1809677,28.89,-3.3,-5.64,0.01,72,238,6.540020942687988,6.540003299713135
60,-0.2655946612358093,-2.0995070934295654,-0.018281735479831696,36.7140082,3.1808729,28.89,-3.22,-5.67,0.01,72,239,6.526821136474609,6.5268073081970215
61,-0.19158601760864258,-2.0999908447265625,0.006680022459477186,36.713965,3.1807784,28.89,-3.02,-5.31,0.0,71,239,6.1177592277526855,6.1177592277526855
62,0.15641610324382782,-2.100712776184082,-0.026857387274503708,36.7139271,3.180696,28.86,-1.48,-2.58,0.03,71,239,2.979449510574341,2.9792630672454834
63,0.10193701833486557,-2.100393533706665,0.0264904648065567,36.7139172,3.1806742,28.87,-0.13,-0.25,-0.01,71,239,0.29185566306114197,0.29125192761421204
64,-0.04004742205142975,-2.1032192707061768,0.06694980710744858,36.7139186,3.1806758,28.84,0.27,0.0,0.03,70,239,0.27700841426849365,0.2751094698905945
