timestamp,pitch,yaw,roll,lat,lon,alt,velocity_x,velocity_y,velocity_z,battery,heading,airspeed,groundspeed
0,-0.009319981560111046,0.04255572706460953,0.030104896053671837,36.7156066,3.1846299,27.8,-0.01,0.02,0.1,96,2,0.11380082368850708,0.03272886201739311
1,-0.12534330785274506,0.09005612879991531,0.08804060518741608,36.7156087,3.1846332,27.65,0.53,0.68,0.0,95,5,0.8686437010765076,0.8686401844024658
2,-0.21716485917568207,1.1908930540084839,-0.08501671254634857,36.7156267,3.1846591,27.63,2.19,2.56,-0.05,95,68,3.376054286956787,3.375617027282715
3,-0.24385808408260345,0.8804143667221069,0.007820433005690575,36.7156635,3.1847127,27.69,3.13,3.61,-0.07,95,50,4.7865495681762695,4.786022186279297
4,-0.06543093174695969,0.854526937007904,-0.030253618955612183,36.7157135,3.1847837,27.75,2.95,3.35,-0.04,94,48,4.470289707183838,4.4700398445129395
5,0.3356890082359314,0.6984330415725708,-0.04116671159863472,36.7157414,3.1848207,27.77,0.63,0.46,0.0,94,40,0.7888534069061279,0.7888531684875488
6,-0.047462280839681625,-0.8651906251907349,-0.2588595747947693,36.7157304,3.184797,27.8,-1.93,-2.79,-0.04,93,310,3.3969316482543945,3.39658784866333
7,-0.10927053540945053,-2.423372268676758,0.02533326856791973,36.7156958,3.1847347,27.82,-2.28,-3.29,0.01,93,221,4.0066118240356445,4.006579399108887
8,-0.042667899280786514,-1.928587555885315,0.15525417029857635,36.7156707,3.1846796,27.8,-1.07,-3.08,0.01,93,249,3.264039993286133,3.2640044689178467
9,-0.37007713317871094,-0.6782490015029907,0.0830409973859787,36.7156851,3.184623,27.79,3.15,-2.9,0.0,92,321,4.2865376472473145,4.286538124084473
10,-0.501652181148529,-0.6099329590797424,0.038824412971735,36.7157492,3.184564,27.79,6.16,-4.28,0.0,92,325,7.512576580047607,7.512573719024658
11,-0.5002316832542419,-0.6149089336395264,-0.028049811720848083,36.7158619,3.1844666,27.81,7.82,-5.4,0.0,91,324,9.509692192077637,9.509692192077637
12,-0.4686940610408783,-0.6207855939865112,0.01728631742298603,36.7159686,3.1843735,27.82,7.83,-5.53,0.0,91,324,9.588974952697754,9.588973999023438
13,-0.11025053262710571,-0.6221115589141846,-0.020129099488258362,36.7160811,3.1842745,27.86,6.01,-4.26,0.02,91,324,7.374701499938965,7.37464714050293
14,0.058162420988082886,-0.8705792427062988,-0.1725967675447464,36.7161413,3.1842155,27.89,2.51,-2.96,-0.11,90,310,3.8841819763183594,3.882441520690918
15,-0.3173237144947052,-2.082822561264038,-0.14953048527240753,36.7161457,3.1841634,28.49,-1.81,-3.68,-0.68,90,240,4.1657538414001465,4.109188079833984
16,-0.4798458516597748,-2.1718430519104004,0.04245338216423988,36.7160919,3.184065,30.36,-4.59,-6.5,-1.36,89,235,8.082706451416016,7.967224597930908
17,-0.44230276346206665,-2.164459466934204,0.012880941852927208,36.7160222,3.1839411,32.67,-5.5,-7.91,-1.6,89,235,9.771272659301758,9.63817310333252
18,-0.493204802274704,-2.16581392288208,0.0008245900389738381,36.7159341,3.183781,35.55,-5.52,-8.16,-1.57,88,235,9.986392974853516,9.861536026000977
19,-0.4572544991970062,-2.163114309310913,0.03926553949713707,36.7158592,3.1836418,38.02,-5.51,-8.24,-1.58,88,236,10.040276527404785,9.914843559265137
20,-0.4594637155532837,-2.163708209991455,-0.029198700562119484,36.7157721,3.1834795,40.89,-5.56,-8.29,-1.6,87,236,10.111660957336426,9.983746528625488
21,-0.49019479751586914,-2.166548490524292,0.012636343017220497,36.7156968,3.1833396,43.38,-5.54,-8.25,-1.6,87,235,10.077309608459473,9.947941780090332
22,-0.45304882526397705,-2.1653082370758057,0.03652375191450119,36.7156219,3.1831999,45.87,-5.48,-8.26,-1.62,87,235,10.054391860961914,9.922754287719727
23,-0.4636567533016205,-2.164569854736328,-0.02807021327316761,36.7155352,3.1830372,48.78,-5.51,-8.29,-1.62,86,235,10.093998908996582,9.962274551391602
24,-0.49369239807128906,-2.1633927822113037,0.012282520532608032,36.7154607,3.1828975,51.28,-5.52,-8.28,-1.63,86,236,10.090682029724121,9.957947731018066
25,-0.44954225420951843,-2.165041446685791,0.04283960908651352,36.7153857,3.1827577,53.79,-5.55,-8.27,-1.63,85,235,10.09602165222168,9.962430000305176
26,-0.46314945816993713,-2.16560697555542,-0.02843484841287136,36.7152983,3.1825947,56.7,-5.52,-8.29,-1.63,85,235,10.103117942810059,9.969873428344727
27,-0.4904381334781647,-2.1652069091796875,0.01771937869489193,36.7152236,3.1824546,59.21,-5.5,-8.31,-1.63,84,235,10.10637092590332,9.972636222839355
28,-0.4262346029281616,-2.1635947227478027,-0.0012092947727069259,36.7151365,3.1822912,62.14,-5.52,-8.28,-1.63,84,236,10.08960247039795,9.956083297729492
29,-0.34132254123687744,-2.167637348175049,-0.02268224023282528,36.7150634,3.1821553,64.58,-5.13,-7.59,-1.51,83,235,9.287792205810547,9.162833213806152
30,-0.048290468752384186,-2.1657633781433105,0.02257639542222023,36.7149957,3.1820296,66.81,-3.3,-4.98,-0.85,83,235,6.041589260101318,5.980185508728027
31,-0.154973566532135,-2.1313467025756836,-0.001775397453457117,36.7149593,3.1819586,67.64,-2.27,-3.72,-0.26,83,237,4.3697943687438965,4.3618340492248535
32,-0.139868825674057,-2.1035315990448,0.034758053719997406,36.7149303,3.1818969,67.78,-2.07,-3.64,-0.01,82,239,4.196624755859375,4.1966023445129395
33,-0.0780605897307396,-2.1032562255859375,0.004701424855738878,36.714898,3.1818266,67.78,-1.91,-3.38,-0.02,82,239,3.8911938667297363,3.8911304473876953
34,0.06370903551578522,-2.206265687942505,-0.043744154274463654,36.7148766,3.1817823,67.38,-1.28,-1.82,0.7,82,233,2.3372364044189453,2.2280447483062744
35,-0.04084247723221779,-2.48616886138916,0.019660495221614838,36.7148583,3.181759,65.06,-1.03,-0.8,1.47,81,217,1.9778900146484375,1.3125903606414795
36,-0.022167744114995003,-2.4718992710113525,-0.02052510529756546,36.7148443,3.1817459,62.82,-1.04,-0.81,1.42,81,218,1.9473015069961548,1.3232593536376953
37,-0.0577889159321785,-2.470094919204712,0.02306196838617325,36.7148301,3.1817321,60.58,-1.05,-0.86,1.44,80,218,1.9846467971801758,1.3608753681182861
38,-0.04649767652153969,-2.469710350036621,-0.020644059404730797,36.7148132,3.1817152,57.95,-1.07,-0.89,1.44,80,218,2.0109779834747314,1.396030068397522
39,-0.031972479075193405,-2.469174861907959,0.02939852885901928,36.7147986,3.1817006,55.72,-1.06,-0.88,1.45,80,218,2.0068061351776123,1.380434513092041
40,-0.06311389058828354,-2.4697811603546143,0.008121795952320099,36.7147816,3.1816836,53.1,-1.06,-0.88,1.46,79,218,2.0188283920288086,1.3862935304641724
41,-0.002135181101039052,-2.469167947769165,0.006390560884028673,36.7147671,3.1816689,50.85,-1.06,-0.88,1.46,79,218,2.0190138816833496,1.384158968925476
42,-0.04330215975642204,-2.469785690307617,0.02868327870965004,36.7147501,3.1816517,48.24,-1.07,-0.88,1.47,79,218,2.0299384593963623,1.393826961517334
43,-0.014588385820388794,-2.469611644744873,-0.019512061029672623,36.7147355,3.181637,45.99,-1.07,-0.88,1.47,78,218,2.0279994010925293,1.3889057636260986
44,-0.052692610770463943,-2.4697420597076416,0.022115280851721764,36.7147208,3.1816222,43.73,-1.06,-0.88,1.47,78,218,2.022198438644409,1.381730556488037
45,-0.05203108862042427,-2.469454050064087,-0.017497656866908073,36.7147038,3.1816051,41.11,-1.07,-0.88,1.47,78,218,2.0236990451812744,1.3876948356628418
46,-0.023772235959768295,-2.4696595668792725,0.026566393673419952,36.7146893,3.1815904,38.87,-1.06,-0.88,1.48,77,218,2.0276334285736084,1.3823612928390503
47,-0.05875959247350693,-2.4696826934814453,0.009030700661242008,36.7146722,3.1815732,36.24,-1.06,-0.89,1.47,77,218,2.027761936187744,1.3882226943969727
48,-0.010239270515739918,-2.4690909385681152,0.010122726671397686,36.7146577,3.1815585,33.99,-1.05,-0.87,1.47,76,218,2.0167324542999268,1.3753852844238281
49,-0.0625859797000885,-2.4695751667022705,-0.003259671153500676,36.7146431,3.1815439,31.74,-1.05,-0.88,1.47,76,218,2.0230841636657715,1.380833387374878
50,-0.0662616416811943,-2.7742204666137695,-0.11164101213216782,36.7146248,3.1815276,29.13,-1.48,-0.59,1.39,76,201,2.1179373264312744,1.597202181816101
51,-0.25111132860183716,2.696593761444092,-0.018871711567044258,36.7145955,3.1815312,27.82,-2.96,1.19,0.2,75,154,3.2021279335021973,3.1958463191986084
52,-0.18821534514427185,2.672682762145996,-0.027293365448713303,36.7145381,3.1815658,27.87,-4.01,2.03,-0.03,75,153,4.4987473487854,4.498599529266357
53,-0.039056308567523956,2.792107343673706,0.14722958207130432,36.7144843,3.1815979,27.85,-3.78,1.35,0.06,75,159,4.019177436828613,4.018682956695557
54,-0.3635697066783905,-2.3217785358428955,0.17632120847702026,36.714432,3.1815894,27.81,-2.92,-2.73,0.02,74,226,3.998724937438965,3.998645067214966
55,-0.44730260968208313,-2.1438143253326416,0.020244641229510307,36.7143881,3.181514,27.81,-3.83,-6.07,0.02,74,237,7.185272216796875,7.185244083404541
56,-0.4792802333831787,-2.149285316467285,-0.02724853903055191,36.7143289,3.1813972,27.82,-4.79,-7.59,0.0,73,236,8.979079246520996,8.979077339172363
57,-0.3717842102050781,-2.152057409286499,0.029382163658738136,36.7142513,3.181246,27.83,-4.84,-7.49,0.0,73,236,8.931520462036133,8.931517601013184
58,-0.24282951653003693,-2.150479793548584,-0.017464743927121162,36.7141905,3.1811286,27.84,-4.08,-6.35,0.02,73,236,7.553574085235596,7.553531169891357
59,-0.26539379358291626,-2.125542402267456,0.03984637185931206,36.7141324,3.1810129,27.81,-3.45,-5.7,0.01,72,238,6.667144298553467,6.66712760925293
60,-0.2695566415786743,-2.110332489013672,-0.020179327577352524,36.7140869,3.1809172,27.81,-3.28,-5.62,0.0,72,239,6.51185417175293,6.511852264404297
61,-0.2619751989841461,-2.1086366176605225,0.02046942710876465,36.7140424,3.1808222,27.81,-3.23,-5.58,0.0,71,239,6.454728603363037,6.454728126525879
62,0.051088809967041016,-2.1094346046447754,-0.03014395385980606,36.7139976,3.1807265,27.8,-2.16,-3.71,0.03,71,239,4.304001331329346,4.303856372833252
63,0.139686718583107,-2.1089510917663574,0.027759497985243797,36.7139797,3.1806884,27.79,-0.53,-0.93,-0.02,71,239,1.076830267906189,1.0766289234161377
64,-0.025277717038989067,-2.1093456745147705,0.006132049486041069,36.7139783,3.1806849,27.8,0.11,0.15,0.03,70,239,0.19363194704055786,0.19120436906814575
