timestamp,pitch,yaw,roll,lat,lon,alt,velocity_x,velocity_y,velocity_z,battery,heading,airspeed,groundspeed
0,-0.022173168137669563,-0.00735715264454484,-0.004745818208903074,36.7156067,3.1846299,18.13,-0.03,0.03,0.0,96,359,0.04845842719078064,0.047774046659469604
1,-0.032759226858615875,-0.010127050802111626,0.0922103300690651,36.7156077,3.1846319,18.15,0.3,0.48,0.0,95,359,0.5705353021621704,0.570490837097168
2,-0.14300912618637085,1.3959065675735474,-0.05466747283935547,36.7156223,3.1846573,18.12,1.59,2.16,-0.03,95,79,2.6882479190826416,2.6880335807800293
3,-0.1354348510503769,0.8689407110214233,-0.008266067132353783,36.7156473,3.1846991,18.16,1.94,2.63,-0.03,95,49,3.276827096939087,3.2766640186309814
4,0.28062912821769714,0.8879649043083191,-0.0393979549407959,36.7156728,3.1847406,18.18,0.7,0.83,0.0,94,50,1.0904297828674316,1.090429663658142
5,0.044605374336242676,-0.4098336398601532,-0.22198985517024994,36.7156645,3.184723,18.18,-1.8,-2.62,-0.03,94,336,3.1891279220581055,3.1888909339904785
6,-0.10596431791782379,-1.9448230266571045,-0.04097357764840126,36.7156355,3.1846704,18.21,-2.34,-3.31,0.0,93,248,4.059873580932617,4.059871196746826
7,-0.004800761118531227,-1.8639599084854126,0.14585205912590027,36.7156042,3.1846052,18.19,-1.2,-3.14,0.02,93,253,3.37113618850708,3.371072292327881
8,-0.3569343686103821,-0.7757862210273743,0.14844124019145966,36.7156101,3.1845557,18.18,2.39,-2.79,0.0,93,315,3.682588577270508,3.6825859546661377
9,-0.4590035676956177,-0.6076970100402832,-0.003712630132213235,36.7156791,3.1844888,18.18,6.1,-4.27,0.0,92,324,6.953898906707764,6.953896522521973
10,-0.5368142127990723,-0.6169559955596924,-0.018053660169243813,36.7157738,3.1844065,18.19,7.66,-5.32,0.0,92,324,9.33393383026123,9.333931922912598
11,-0.4744185209274292,-0.6210505962371826,0.03184535354375839,36.7158801,3.1843135,18.21,7.86,-5.55,0.0,91,324,9.629939079284668,9.629939079284668
12,-0.20657260715961456,-0.6246894001960754,-0.023946743458509445,36.7159959,3.1842106,18.26,6.43,-4.59,0.01,91,324,7.905574321746826,7.905561447143555
13,0.0588805228471756,-0.7630221843719482,-0.11804874241352081,36.7160639,3.1841472,18.25,3.24,-3.08,-0.04,91,316,4.482244491577148,4.482020854949951
14,-0.36917680501937866,-2.073411703109741,-0.13862060010433197,36.7160754,3.1840869,18.87,-1.76,-3.67,-0.67,90,241,4.1352739334106445,4.080231189727783
15,-0.4602457582950592,-2.178687334060669,0.040052443742752075,36.7160321,3.1840065,20.4,-4.31,-6.08,-1.27,90,235,7.570256233215332,7.461361408233643
16,-0.45272356271743774,-2.1678707599639893,-0.016781628131866455,36.7159648,3.183887,22.63,-5.42,-7.82,-1.58,89,235,9.649555206298828,9.51822566986084
17,-0.4868386685848236,-2.1662352085113525,0.02792537771165371,36.7158771,3.1837281,25.5,-5.52,-8.14,-1.58,89,235,9.965150833129883,9.837911605834961
18,-0.4385424852371216,-2.1634838581085205,0.027676967903971672,36.715802,3.183589,27.97,-5.54,-8.23,-1.59,88,236,10.051982879638672,9.924844741821289
19,-0.4222157299518585,-2.1635870933532715,-0.010400441475212574,36.715727,3.1834497,30.44,-5.53,-8.26,-1.59,88,236,10.072891235351562,9.945954322814941
20,-0.4873489439487457,-2.165090322494507,0.021800441667437553,36.7156397,3.1832868,33.33,-5.52,-8.27,-1.61,87,235,10.078368186950684,9.948339462280273
21,-0.44291025400161743,-2.1642425060272217,0.030461495742201805,36.7155649,3.1831475,35.83,-5.52,-8.24,-1.62,87,236,10.057821273803711,9.926119804382324
22,-0.46641483902931213,-2.163940906524658,-0.03509722277522087,36.7154776,3.1829844,38.74,-5.51,-8.3,-1.62,87,236,10.097237586975098,9.965897560119629
23,-0.482890784740448,-2.165178060531616,0.02838391810655594,36.7154028,3.1828443,41.24,-5.5,-8.28,-1.63,86,235,10.077066421508789,9.94416332244873
24,-0.4276401698589325,-2.163137674331665,-0.006973556708544493,36.7153158,3.1826813,44.15,-5.5,-8.27,-1.63,86,236,10.0726318359375,9.938563346862793
25,-0.4827217161655426,-2.1634185314178467,-0.02549826167523861,36.7152415,3.1825419,46.66,-5.52,-8.3,-1.63,85,236,10.107070922851562,9.974310874938965
26,-0.44216495752334595,-2.1636009216308594,0.036385055631399155,36.7151539,3.1823786,49.57,-5.52,-8.28,-1.64,85,236,10.089898109436035,9.954907417297363
27,-0.428445428609848,-2.16532826423645,-0.012032103724777699,36.715079,3.1822387,52.09,-5.52,-8.28,-1.64,84,235,10.095466613769531,9.961126327514648
28,-0.38095417618751526,-2.1660079956054688,-0.028017429634928703,36.7150051,3.1821009,54.57,-5.27,-7.85,-1.55,84,235,9.593304634094238,9.465689659118652
29,-0.0519879050552845,-2.1670923233032227,0.01545330323278904,36.7149335,3.1819676,56.96,-3.58,-5.36,-0.98,83,235,6.531369686126709,6.456408977508545
30,-0.11851363629102707,-2.1333088874816895,-0.0002905211877077818,36.7148946,3.1818925,57.94,-2.31,-3.77,-0.34,83,237,4.443542957305908,4.429836273193359
31,-0.12347245961427689,-2.088317394256592,0.005459554493427277,36.7148612,3.1818204,58.17,-1.99,-3.66,-0.01,83,240,4.170529842376709,4.170503616333008
32,-0.11291142553091049,-2.088043212890625,0.004282703157514334,36.7148343,3.1817593,58.16,-1.91,-3.56,-0.02,82,240,4.042679786682129,4.042568683624268
33,0.08059818297624588,-2.150298595428467,-0.03143840283155441,36.7148122,3.1817106,57.93,-1.32,-2.09,0.49,82,236,2.5236198902130127,2.475369453430176
34,-0.016953038051724434,-2.4795303344726562,0.011698131449520588,36.7147934,3.1816841,55.84,-1.06,-0.85,1.49,82,217,2.0263736248016357,1.3636804819107056
35,-0.016205141320824623,-2.4683475494384766,-0.010705791413784027,36.7147794,3.181671,53.57,-1.03,-0.8,1.42,81,218,1.935219168663025,1.3133394718170166
36,-0.025525161996483803,-2.469548463821411,0.02701120637357235,36.7147629,3.181655,50.96,-1.04,-0.87,1.44,81,218,1.9811499118804932,1.3577520847320557
37,-0.041956618428230286,-2.4693808555603027,-0.025495942682027817,36.7147485,3.1816404,48.72,-1.07,-0.88,1.45,81,218,2.009445905685425,1.3904964923858643
38,-0.009717881679534912,-2.4696438312530518,0.0029724668711423874,36.7147315,3.1816234,46.1,-1.08,-0.88,1.45,80,218,2.0162603855133057,1.397566795349121
39,-0.05596182867884636,-2.4689979553222656,-0.015582737512886524,36.7147168,3.1816088,43.86,-1.07,-0.88,1.46,80,218,2.0155375003814697,1.386614203453064
40,-0.012359054759144783,-2.4691548347473145,0.01754073053598404,36.7147022,3.1815942,41.62,-1.06,-0.87,1.47,79,218,2.012132167816162,1.3729701042175293
41,-0.055543750524520874,-2.4697959423065186,0.023332297801971436,36.7146854,3.181577,38.99,-1.06,-0.89,1.47,79,218,2.0219621658325195,1.3873844146728516
42,-0.010777540504932404,-2.4699528217315674,-0.014082656241953373,36.7146708,3.1815622,36.75,-1.07,-0.88,1.47,79,218,2.0300302505493164,1.3934504985809326
43,-0.03282782435417175,-2.469470500946045,0.02970120683312416,36.7146536,3.181545,34.13,-1.07,-0.88,1.47,78,218,2.031378746032715,1.3928301334381104
44,-0.0345202274620533,-2.469416856765747,-0.024028826504945755,36.714639,3.1815303,31.87,-1.06,-0.87,1.47,78,218,2.019728899002075,1.3791515827178955
45,-0.04082874208688736,-2.4694650173187256,0.027776392176747322,36.7146245,3.1815157,29.62,-1.05,-0.87,1.47,78,218,2.01228404045105,1.3717354536056519
46,-0.060275476425886154,-2.4694952964782715,-0.009922954253852367,36.7146075,3.1814985,27.01,-1.06,-0.88,1.48,77,218,2.0288572311401367,1.385202169418335
47,-0.013858519494533539,-2.4693009853363037,0.02381187491118908,36.7145929,3.1814837,24.75,-1.05,-0.88,1.47,77,218,2.0210318565368652,1.3782366514205933
48,-0.0587877482175827,-2.4694159030914307,0.00899463053792715,36.7145758,3.1814666,22.12,-1.05,-0.87,1.47,76,218,2.014853000640869,1.375209927558899
49,-0.05224190652370453,-2.526862621307373,-0.02434168942272663,36.7145635,3.1814544,20.25,-1.17,-0.81,1.47,76,215,2.0543711185455322,1.4306080341339111
50,-0.2289559245109558,2.7026681900024414,-0.01243712566792965,36.7145282,3.1814538,18.21,-2.96,1.19,0.2,76,154,3.1984596252441406,3.192157745361328
51,-0.19290491938591003,2.678846597671509,-0.033633649349212646,36.7144795,3.1814823,18.24,-4.03,2.0,-0.06,75,153,4.507692813873291,4.507201671600342
52,-0.09922496229410172,2.725001573562622,0.09824424982070923,36.7144245,3.1815159,18.25,-3.91,1.68,0.06,75,156,4.262558460235596,4.262071132659912
53,-0.2793940603733063,-2.5378451347351074,0.2217920869588852,36.7143695,3.18152,18.2,-2.93,-1.91,0.02,75,214,3.5060787200927734,3.505955457687378
54,-0.46833813190460205,-2.1615331172943115,0.07148599624633789,36.7143276,3.1814561,18.2,-3.53,-5.57,0.02,74,236,6.602457046508789,6.602412223815918
55,-0.4995623528957367,-2.149700403213501,-0.025098128244280815,36.7142604,3.1813238,18.21,-4.77,-7.55,0.0,74,236,8.937844276428223,8.937843322753906
56,-0.43456071615219116,-2.1520779132843018,0.024624988436698914,36.714194,3.1811943,18.22,-4.93,-7.65,0.0,73,236,9.10521125793457,9.10521125793457
57,-0.2511180639266968,-2.1499834060668945,-0.017999498173594475,36.7141219,3.181055,18.23,-4.11,-6.39,0.02,73,236,7.6073832511901855,7.607336044311523
58,-0.29344382882118225,-2.1270573139190674,0.03953715041279793,36.7140715,3.1809546,18.21,-3.47,-5.72,0.02,73,238,6.694406509399414,6.694357395172119
59,-0.2453521192073822,-2.1040658950805664,0.002336055040359497,36.7140263,3.1808589,18.2,-3.24,-5.62,0.0,72,239,6.4936909675598145,6.493686676025391
60,-0.2622622847557068,-2.100698947906494,0.030779024586081505,36.7139755,3.1807482,18.2,-3.2,-5.62,0.0,72,239,6.475231170654297,6.475230693817139
61,0.02732391655445099,-2.100428342819214,-0.00879430491477251,36.713936,3.1806623,18.2,-2.41,-4.23,0.02,71,239,4.876960754394531,4.876900672912598
62,0.14929792284965515,-2.1004486083984375,0.0286776851862669,36.7139127,3.1806114,18.18,-0.55,-0.96,-0.02,71,239,1.1123520135879517,1.1121442317962646
63,0.013835448771715164,-2.100277900695801,-0.02448083460330963,36.7139109,3.1806073,18.19,0.11,0.14,0.0,71,239,0.18654125928878784,0.18631884455680847
