timestamp,pitch,yaw,roll,lat,lon,alt,velocity_x,velocity_y,velocity_z,battery,heading,airspeed,groundspeed
0,-0.005583092570304871,-0.01119177881628275,-0.025540128350257874,36.7156067,3.18463,13.57,-0.03,0.01,-0.03,96,359,0.0496361143887043,0.03608231246471405
1,-0.042135730385780334,-0.012023582123219967,0.13822434842586517,36.7156076,3.1846322,13.58,0.27,0.54,-0.01,95,359,0.6094555258750916,0.6091403365135193
2,-0.23129989206790924,1.5994610786437988,-0.09289639443159103,36.7156218,3.1846642,13.6,1.62,2.93,-0.04,95,91,3.35683012008667,3.3565070629119873
3,-0.19807085394859314,0.9253575205802917,-0.013977592810988426,36.7156487,3.1847241,13.58,2.21,3.97,-0.01,95,53,4.544637680053711,4.544618129730225
4,0.03942575678229332,1.0373584032058716,0.0032328180968761444,36.7156836,3.1848004,13.59,1.95,3.41,0.0,94,59,3.936845064163208,3.936842918395996
5,0.32036086916923523,1.328407645225525,0.12227047234773636,36.7156982,3.1848328,13.61,-0.25,-0.15,-0.03,94,76,0.3015947639942169,0.29956626892089844
6,-0.03612392023205757,2.906059980392456,0.20321963727474213,36.7156801,3.1848014,13.61,-2.07,-2.98,0.06,93,166,3.632755756378174,3.6322546005249023
7,-0.11650023609399796,-1.9235690832138062,0.01687478832900524,36.7156454,3.1847374,13.63,-2.23,-3.25,-0.03,93,249,3.9450314044952393,3.9448859691619873
8,-0.02700892463326454,-1.7633858919143677,0.14998376369476318,36.7156239,3.1846833,13.59,-0.58,-3.01,0.03,93,258,3.067420482635498,3.0672450065612793
9,-0.3581455647945404,-0.646800696849823,0.08260584622621536,36.715648,3.1846269,13.58,3.71,-3.04,0.0,92,322,4.808907985687256,4.808900356292725
10,-0.5337162613868713,-0.6175057291984558,-0.003521581180393696,36.7157183,3.1845641,13.58,6.52,-4.51,0.0,92,324,7.937352180480957,7.937352180480957
11,-0.4698801338672638,-0.616262674331665,0.015384783037006855,36.7158343,3.184464,13.6,7.87,-5.47,0.0,91,324,9.592432975769043,9.592428207397461
12,-0.4123595952987671,-0.6199696660041809,-0.026987256482243538,36.715941,3.1843708,13.61,7.69,-5.45,-0.01,91,324,9.431021690368652,9.431002616882324
13,-0.15784607827663422,-0.621894359588623,0.016924088820815086,36.7160362,3.1842868,13.65,6.0,-4.26,0.01,91,324,7.369641304016113,7.369614124298096
14,0.04942193254828453,-1.0185930728912354,-0.2680996060371399,36.7161014,3.1842197,13.71,1.77,-2.88,-0.19,90,301,3.3917245864868164,3.386323928833008
15,-0.35223129391670227,-2.1229567527770996,-0.07129090279340744,36.7160963,3.1841655,14.46,-2.35,-3.99,-0.79,90,238,4.709383010864258,4.641592502593994
16,-0.5044713616371155,-2.163283348083496,-0.01427463162690401,36.7160365,3.1840593,16.49,-4.77,-6.85,-1.42,89,236,8.475269317626953,8.354447364807129
17,-0.48972150683403015,-2.163433313369751,0.02186504751443863,36.7159653,3.1839315,18.86,-5.5,-7.98,-1.6,89,236,9.830540657043457,9.697875022888184
18,-0.4323522746562958,-2.165389060974121,0.02031119167804718,36.7158901,3.1837944,21.33,-5.54,-8.17,-1.57,88,235,9.99974536895752,9.87458324432373
19,-0.4945778250694275,-2.162891387939453,-0.014141966588795185,36.7158026,3.1836318,24.18,-5.55,-8.27,-1.59,88,236,10.091193199157715,9.965024948120117
20,-0.4639550745487213,-2.1641178131103516,0.03801184892654419,36.7157275,3.1834922,26.65,-5.53,-8.26,-1.61,88,236,10.077412605285645,9.946773529052734
21,-0.4454105496406555,-2.1644580364227295,-0.025071486830711365,36.7156403,3.1833296,29.56,-5.5,-8.23,-1.61,87,235,10.037060737609863,9.905914306640625
22,-0.48912373185157776,-2.164074420928955,-0.008796832524240017,36.7155655,3.1831901,32.06,-5.51,-8.27,-1.61,87,236,10.072127342224121,9.941081047058105
23,-0.42751169204711914,-2.164543867111206,0.01873461715877056,36.7154783,3.183027,34.97,-5.51,-8.28,-1.63,86,235,10.086261749267578,9.95334529876709
24,-0.45331281423568726,-2.1618876457214355,-0.03464846685528755,36.7154038,3.1828872,37.47,-5.51,-8.28,-1.63,86,236,10.087592124938965,9.954264640808105
25,-0.4943574070930481,-2.1650900840759277,0.00708352867513895,36.715329,3.1827477,39.98,-5.52,-8.25,-1.62,85,235,10.062849998474121,9.930092811584473
26,-0.4346931278705597,-2.1642239093780518,0.017999080941081047,36.7152417,3.1825847,42.9,-5.53,-8.3,-1.63,85,236,10.108804702758789,9.97576904296875
27,-0.46417778730392456,-2.164447784423828,-0.03005545772612095,36.7151671,3.1824447,45.39,-5.52,-8.31,-1.63,84,235,10.117655754089355,9.984078407287598
28,-0.4646958112716675,-2.1642367839813232,0.04010671377182007,36.71508,3.1822814,48.31,-5.53,-8.29,-1.64,84,236,10.109343528747559,9.973807334899902
29,-0.2562255859375,-2.16892671585083,-0.0011186219053342938,36.7150075,3.1821472,50.74,-4.95,-7.32,-1.47,84,235,8.96712875366211,8.84423828125
30,-0.088116854429245,-2.1654767990112305,-0.013192852027714252,36.7149511,3.1820421,52.6,-3.29,-4.98,-0.85,83,235,6.037914752960205,5.976941108703613
31,-0.121360644698143,-2.122960329055786,-0.0028710546903312206,36.7149097,3.1819609,53.48,-2.23,-3.71,-0.19,83,238,4.335546970367432,4.3310227394104
32,-0.17537222802639008,-2.102271318435669,0.012052214704453945,36.7148811,3.1818994,53.57,-2.06,-3.66,0.0,82,239,4.208602428436279,4.2086005210876465
33,-0.01853545755147934,-2.1029510498046875,-0.02713797055184841,36.7148491,3.1818298,53.56,-1.8,-3.18,0.01,82,239,3.6587347984313965,3.6587140560150146
34,0.015361352823674679,-2.2589614391326904,-0.020997287705540657,36.714829,3.1817899,52.97,-1.23,-1.59,0.93,82,230,2.2200872898101807,2.0151007175445557
35,-0.05224167928099632,-2.480238676071167,-0.019583452492952347,36.7148112,3.1817692,50.48,-1.03,-0.8,1.45,81,217,1.9608416557312012,1.311757206916809
36,-0.01732257753610611,-2.471916675567627,0.021969646215438843,36.7147972,3.181756,48.25,-1.03,-0.81,1.43,81,218,1.9473965167999268,1.3207813501358032
37,-0.05460570007562637,-2.4701061248779297,-0.018400995060801506,36.7147829,3.1817421,46.01,-1.06,-0.87,1.44,81,218,1.9976862668991089,1.3780851364135742
38,-0.011258963495492935,-2.470219373703003,-0.00818378385156393,36.714766,3.1817252,43.39,-1.07,-0.87,1.45,80,218,2.007167100906372,1.3873714208602905
39,-0.06359771639108658,-2.4693188667297363,0.0034106927923858166,36.7147515,3.1817105,41.14,-1.06,-0.89,1.45,80,218,2.0148138999938965,1.3929572105407715
40,-0.03805340453982353,-2.4695560932159424,-0.025369146838784218,36.7147345,3.1816935,38.53,-1.07,-0.88,1.46,79,218,2.0188746452331543,1.392657995223999
41,-0.04622691124677658,-2.4695262908935547,0.029291793704032898,36.7147199,3.1816787,36.28,-1.06,-0.89,1.46,79,218,2.0212104320526123,1.3918731212615967
42,-0.023307984694838524,-2.4699196815490723,-0.022882305085659027,36.7147053,3.181664,34.03,-1.07,-0.89,1.46,79,218,2.0242016315460205,1.3950858116149902
43,-0.01326554175466299,-2.4689934253692627,0.023481853306293488,36.7146883,3.1816469,31.41,-1.06,-0.88,1.47,78,218,2.017676591873169,1.3812130689620972
44,-0.055475909262895584,-2.4694907665252686,-0.01686806045472622,36.7146738,3.1816322,29.16,-1.06,-0.89,1.47,78,218,2.02494478225708,1.3878413438796997
45,-0.015410475432872772,-2.469301462173462,-0.013820277526974678,36.7146568,3.181615,26.55,-1.06,-0.87,1.47,78,218,2.0243542194366455,1.3817026615142822
46,-0.059279751032590866,-2.4699716567993164,0.013848869130015373,36.7146421,3.1816003,24.3,-1.06,-0.89,1.48,77,218,2.0381786823272705,1.3947442770004272
47,-0.03934364765882492,-2.4699294567108154,-0.02527248114347458,36.7146252,3.1815831,21.67,-1.06,-0.88,1.48,77,218,2.029433488845825,1.3877754211425781
48,-0.042525872588157654,-2.4693779945373535,0.025264805182814598,36.7146106,3.1815683,19.42,-1.06,-0.88,1.47,77,218,2.024160623550415,1.3832011222839355
49,-0.029303936287760735,-2.469684600830078,-0.02558618038892746,36.714596,3.1815537,17.17,-1.06,-0.88,1.47,76,218,2.025031805038452,1.3862159252166748
50,-0.07948708534240723,-2.931339740753174,-0.08507092297077179,36.7145765,3.1815384,14.59,-1.66,-0.41,1.27,76,192,2.13901424407959,1.71583092212677
51,-0.25837793946266174,2.6783876419067383,-0.04690283536911011,36.714544,3.1815468,13.57,-3.21,1.45,0.05,75,153,3.532590866088867,3.5321366786956787
52,-0.14973536133766174,2.6796438694000244,-0.015881819650530815,36.7144839,3.181583,13.67,-4.07,2.02,0.0,75,153,4.5513434410095215,4.5513434410095215
53,-0.06544703990221024,2.8606977462768555,0.1539250761270523,36.7144301,3.1816128,13.63,-3.73,1.04,0.05,75,163,3.88288950920105,3.882457733154297
54,-0.29439568519592285,-2.344511032104492,0.17577241361141205,36.7143855,3.1816033,13.6,-2.94,-2.57,0.02,74,225,3.9148097038269043,3.9147305488586426
55,-0.4958038330078125,-2.139742851257324,0.029505543410778046,36.714333,3.1815124,13.6,-3.99,-6.37,0.01,74,237,7.52501916885376,7.52500581741333
56,-0.4427891671657562,-2.1464293003082275,-0.00254167802631855,36.7142723,3.1813922,13.61,-4.83,-7.62,0.0,73,237,9.027572631835938,9.027572631835938
57,-0.3768961727619171,-2.150716543197632,-0.0001614413340575993,36.7141946,3.1812415,13.63,-4.77,-7.37,-0.01,73,236,8.781654357910156,8.781646728515625
58,-0.21153651177883148,-2.1470446586608887,0.02664520964026451,36.7141351,3.1811266,13.63,-3.95,-6.18,0.02,73,236,7.336781024932861,7.336731910705566
59,-0.28615602850914,-2.122288465499878,-0.007206314243376255,36.7140862,3.1810283,13.6,-3.4,-5.68,0.02,72,238,6.623815059661865,6.623777866363525
60,-0.2525770664215088,-2.100724220275879,0.01855763979256153,36.7140343,3.1809173,13.6,-3.22,-5.65,0.0,72,239,6.508695602416992,6.508691310882568
61,-0.2312157154083252,-2.0997517108917236,-0.020790763199329376,36.7139908,3.1808221,13.6,-3.14,-5.53,0.0,71,239,6.365173816680908,6.365173816680908
62,0.1347033679485321,-2.1011111736297607,-0.010485272854566574,36.7139488,3.1807307,13.59,-1.9,-3.34,0.04,71,239,3.850154161453247,3.849926471710205
63,0.10167482495307922,-2.1000707149505615,0.0018650389974936843,36.7139341,3.1806986,13.58,-0.37,-0.66,-0.02,71,239,0.7668306827545166,0.7665009498596191
64,0.0017282048938795924,-2.100728750228882,0.004432498011738062,36.7139338,3.1806975,13.58,0.14,0.13,0.04,70,239,0.20169894397258759,0.19734910130500793
