timestamp,pitch,yaw,roll,lat,lon,alt,velocity_x,velocity_y,velocity_z,battery,heading,airspeed,groundspeed
0,0.010759471915662289,0.027900349348783493,0.029164399951696396,36.7156066,3.1846299,16.14,-0.02,0.02,-0.05,96,1,0.06710641831159592,0.03897145763039589
1,-0.08946385234594345,0.034457623958587646,0.1047113761305809,36.715608,3.1846329,16.18,0.35,0.6,-0.02,95,1,0.7035927772521973,0.7031363248825073
2,-0.19892269372940063,1.4419206380844116,-0.11873415857553482,36.7156202,3.1846558,16.18,1.5,2.37,-0.02,95,82,2.813357353210449,2.8132221698760986
3,-0.1856747716665268,0.8878310918807983,0.04086220636963844,36.7156466,3.1847079,16.19,2.25,3.59,-0.01,95,50,4.2445478439331055,4.244505405426025
4,-0.08046147227287292,0.978873074054718,-0.016165386885404587,36.7156836,3.184779,16.2,2.24,3.41,0.0,94,56,4.082309722900391,4.082304954528809
5,0.3737378418445587,1.015261173248291,0.026930909603834152,36.715704,3.1848169,16.21,0.28,0.46,-0.04,94,58,0.5495617985725403,0.5479051470756531
6,-0.02713651768863201,2.634445905685425,0.2419610470533371,36.7156867,3.1847852,16.22,-2.07,-2.99,0.06,93,150,3.6418137550354004,3.641282796859741
7,-0.11989258229732513,-2.1364893913269043,-0.03274870291352272,36.7156565,3.1847303,16.23,-2.22,-3.28,-0.05,93,237,3.965897560119629,3.9654502868652344
8,0.0012500350130721927,-1.9978961944580078,0.18803925812244415,36.7156319,3.1846759,16.21,-1.01,-3.08,0.03,93,245,3.250748872756958,3.2505054473876953
9,-0.3901985287666321,-0.683683454990387,0.10488243401050568,36.715647,3.1846194,16.18,3.18,-2.9,0.0,92,320,4.310200214385986,4.310198783874512
10,-0.4743580222129822,-0.610781192779541,0.02639268897473812,36.715711,3.1845604,16.19,6.17,-4.3,0.0,92,325,7.529255390167236,7.529254913330078
11,-0.5416184663772583,-0.616521954536438,-0.013071181252598763,36.7158239,3.1844631,16.2,7.79,-5.4,0.0,91,324,9.482810020446777,9.482809066772461
12,-0.432941198348999,-0.6184279322624207,0.029896367341279984,36.7159311,3.1843695,16.22,7.8,-5.5,-0.02,91,324,9.54985523223877,9.54983139038086
13,-0.16810087859630585,-0.6216009855270386,-0.016553586348891258,36.7160293,3.1842831,16.26,6.39,-4.55,0.0,91,324,7.855587482452393,7.855585098266602
14,0.09257467091083527,-0.8793262243270874,-0.17236225306987762,36.7161031,3.1842121,16.29,2.47,-2.97,-0.11,90,309,3.8697876930236816,3.867976665496826
15,-0.3606102764606476,-2.0793628692626953,-0.15915237367153168,36.7161074,3.1841603,16.89,-1.81,-3.7,-0.68,90,240,4.1796393394470215,4.122547626495361
16,-0.442562997341156,-2.1719613075256348,0.028948236256837845,36.7160529,3.1840612,18.76,-4.57,-6.49,-1.36,89,235,8.064520835876465,7.947332859039307
17,-0.44579702615737915,-2.1644513607025146,-0.03667654097080231,36.7159834,3.183937,21.07,-5.46,-7.93,-1.6,89,235,9.769858360290527,9.636446952819824
18,-0.47044873237609863,-2.165194034576416,0.032211899757385254,36.7158957,3.1837773,23.95,-5.55,-8.2,-1.58,88,235,10.030862808227539,9.9041109085083
19,-0.4301621615886688,-2.1642637252807617,0.014753114432096481,36.7158205,3.1836381,26.41,-5.53,-8.24,-1.58,88,236,10.058732986450195,9.932446479797363
20,-0.45261111855506897,-2.1624386310577393,-0.030887208878993988,36.7157455,3.1834983,28.89,-5.48,-8.21,-1.59,88,236,10.008380889892578,9.880592346191406
21,-0.46155351400375366,-2.1645524501800537,0.0382995679974556,36.7156586,3.183336,31.78,-5.54,-8.24,-1.62,87,235,10.06318187713623,9.931585311889648
22,-0.42204633355140686,-2.165388822555542,0.006020674016326666,36.7155836,3.1831965,34.27,-5.53,-8.28,-1.62,87,235,10.093518257141113,9.961552619934082
23,-0.4961845576763153,-2.1643879413604736,-7.10777094354853e-05,36.7154967,3.1830339,37.19,-5.5,-8.31,-1.62,86,235,10.10248851776123,9.971563339233398
24,-0.4600669741630554,-2.1631996631622314,0.035715825855731964,36.7154219,3.1828938,39.69,-5.49,-8.26,-1.63,86,236,10.059544563293457,9.926135063171387
25,-0.4242417812347412,-2.163501739501953,-0.0006768932216800749,36.7153472,3.1827539,42.19,-5.52,-8.27,-1.63,85,236,10.082646369934082,9.9487943649292
26,-0.49323028326034546,-2.164004325866699,-0.007690291851758957,36.7152599,3.182591,45.11,-5.54,-8.28,-1.63,85,236,10.103350639343262,9.970497131347656
27,-0.4549387991428375,-2.1653106212615967,0.04034334421157837,36.7151852,3.1824515,47.61,-5.52,-8.31,-1.64,84,235,10.120743751525879,9.9862060546875
28,-0.4691663682460785,-2.163362979888916,-0.024265563115477562,36.715098,3.1822878,50.54,-5.49,-8.29,-1.63,84,236,10.08509635925293,9.952143669128418
29,-0.3475743234157562,-2.1686017513275146,0.01887349970638752,36.7150247,3.1821513,53.0,-5.11,-7.54,-1.51,84,235,9.234701156616211,9.1102876663208
30,-0.05883428081870079,-2.1657609939575195,-0.017073895782232285,36.7149574,3.1820262,55.21,-3.32,-4.99,-0.85,83,235,6.0629072189331055,6.002073764801025
31,-0.15407325327396393,-2.131436347961426,0.032803814858198166,36.7149209,3.1819551,56.03,-2.27,-3.72,-0.26,83,237,4.377753257751465,4.369612216949463
32,-0.1316981464624405,-2.1036856174468994,-0.0017122648423537612,36.7148918,3.1818937,56.18,-2.07,-3.65,-0.01,82,239,4.207329750061035,4.207303047180176
33,-0.04934064298868179,-2.1031301021575928,0.028384551405906677,36.7148595,3.1818229,56.17,-1.89,-3.36,-0.02,82,239,3.8561432361602783,3.856071710586548
34,0.04343691095709801,-2.2062528133392334,-0.07273108512163162,36.7148381,3.1817789,55.78,-1.28,-1.82,0.7,82,233,2.338477373123169,2.228524923324585
35,-0.01307923998683691,-2.4796745777130127,0.011413667351007462,36.7148222,3.1817579,53.85,-1.05,-0.85,1.5,81,217,2.0281755924224854,1.3616737127304077
36,-0.05853170529007912,-2.471849203109741,-0.013881471008062363,36.714806,3.1817426,51.2,-1.03,-0.82,1.42,81,218,1.9461417198181152,1.328363060951233
37,-0.01855793595314026,-2.469883441925049,0.024501577019691467,36.7147917,3.1817288,48.97,-1.05,-0.86,1.44,81,218,1.9868156909942627,1.366215467453003
38,-0.058777257800102234,-2.470590114593506,0.011326756328344345,36.7147748,3.1817118,46.35,-1.06,-0.88,1.44,80,218,2.003558397293091,1.383421778678894
39,-0.0072991265915334225,-2.469651460647583,-0.0009072033572010696,36.7147603,3.1816973,44.11,-1.07,-0.87,1.45,80,218,2.0077295303344727,1.3878065347671509
40,-0.03195865824818611,-2.4698400497436523,0.029650934040546417,36.7147432,3.1816802,41.49,-1.07,-0.88,1.46,79,218,2.0199053287506104,1.3920395374298096
41,-0.02613164857029915,-2.46997332572937,-0.026517553254961967,36.7147287,3.1816656,39.25,-1.06,-0.88,1.46,79,218,2.0179548263549805,1.3854953050613403
42,-0.04095164313912392,-2.4703609943389893,0.026730334386229515,36.7147141,3.1816508,36.99,-1.06,-0.88,1.46,79,218,2.014780044555664,1.3828651905059814
43,-0.057173069566488266,-2.4694437980651855,-0.020026979967951775,36.7146971,3.1816337,34.38,-1.07,-0.89,1.47,78,218,2.0324039459228516,1.3996317386627197
44,-0.014822456054389477,-2.4697377681732178,0.019496886059641838,36.7146825,3.1816189,32.13,-1.07,-0.88,1.47,78,218,2.0276601314544678,1.387470006942749
45,-0.05582140386104584,-2.469949245452881,0.01806088536977768,36.7146655,3.1816018,29.51,-1.06,-0.89,1.47,78,218,2.025559186935425,1.390271544456482
46,-0.010547162964940071,-2.4700944423675537,-0.01098988950252533,36.7146509,3.1815871,27.26,-1.06,-0.87,1.47,77,218,2.018240451812744,1.3756872415542603
47,-0.028531299903988838,-2.4701335430145264,0.026187827810645103,36.7146339,3.1815699,24.64,-1.05,-0.88,1.48,77,218,2.024627685546875,1.3764984607696533
48,-0.026171451434493065,-2.469897508621216,-0.023229539394378662,36.7146193,3.1815552,22.38,-1.06,-0.88,1.47,77,218,2.0250673294067383,1.3845690488815308
49,-0.042629458010196686,-2.470041275024414,0.028865423053503036,36.7146047,3.1815406,20.13,-1.06,-0.88,1.47,76,218,2.017702102661133,1.3796230554580688
50,-0.10661248117685318,-2.771944046020508,-0.09871470183134079,36.7145863,3.1815244,17.53,-1.48,-0.58,1.38,76,201,2.1183249950408936,1.598885178565979
51,-0.2092583179473877,2.69525408744812,-0.039206814020872116,36.7145569,3.181528,16.22,-2.95,1.2,0.19,75,154,3.1956686973571777,3.1894888877868652
52,-0.19376523792743683,2.6730144023895264,0.010911231860518456,36.7144997,3.1815626,16.27,-4.02,2.03,-0.04,75,153,4.508078098297119,4.507875919342041
53,-0.027384266257286072,2.7940685749053955,0.10504946112632751,36.7144458,3.1815945,16.25,-3.77,1.34,0.06,75,160,4.0074992179870605,4.006989479064941
54,-0.30856674909591675,-2.501995801925659,0.23663540184497833,36.7144003,3.1815929,16.21,-2.92,-2.03,0.02,74,216,3.5618438720703125,3.5617318153381348
55,-0.46199262142181396,-2.1434803009033203,-0.02176027186214924,36.7143496,3.1815104,16.21,-3.81,-6.06,0.01,74,237,7.160403728485107,7.1603803634643555
56,-0.5062886476516724,-2.1485636234283447,0.0013636978110298514,36.7142905,3.1813938,16.21,-4.78,-7.6,0.0,73,236,8.979606628417969,8.979606628417969
57,-0.34416279196739197,-2.151505708694458,-0.005545130465179682,36.7142128,3.1812424,16.23,-4.85,-7.5,-0.01,73,236,8.939458847045898,8.939451217651367
58,-0.28953686356544495,-2.150672435760498,-0.002547602402046323,36.7141521,3.1811257,16.24,-4.08,-6.35,0.03,73,236,7.552459239959717,7.552396297454834
59,-0.2514469623565674,-2.1249325275421143,0.0025090614799410105,36.7140939,3.1810092,16.21,-3.42,-5.67,0.01,72,237,6.668910026550293,6.668867588043213
60,-0.3052997291088104,-2.110112190246582,-0.0006769424071535468,36.7140486,3.180914,16.21,-3.29,-5.62,0.0,72,239,6.522295951843262,6.52229118347168
61,-0.22139686346054077,-2.108421564102173,0.025599222630262375,36.7140041,3.180819,16.21,-3.26,-5.6,0.0,71,239,6.481415748596191,6.481415748596191
62,0.03048761561512947,-2.1091468334198,0.009584798477590084,36.7139592,3.1807233,16.21,-2.18,-3.73,0.03,71,239,4.323970317840576,4.323815822601318
63,0.17083585262298584,-2.108802080154419,-0.0005162811139598489,36.7139413,3.1806847,16.19,-0.53,-0.92,-0.01,71,239,1.0682775974273682,1.0681034326553345
64,-0.0007594935013912618,-2.1092758178710938,0.03808007761836052,36.7139399,3.1806815,16.19,0.11,0.15,0.02,70,239,0.194487065076828,0.19227109849452972
