timestamp,pitch,yaw,roll,lat,lon,alt,velocity_x,velocity_y,velocity_z,battery,heading,airspeed,groundspeed
0,0.03248453512787819,0.03965175524353981,0.0010186765575781465,36.7156067,3.1846299,15.59,-0.03,0.02,-0.05,96,2,0.06888464838266373,0.04080305993556976
1,-0.07554735988378525,0.08043155819177628,0.13616402447223663,36.7156084,3.1846332,15.62,0.42,0.66,-0.02,95,4,0.7920237183570862,0.7916644811630249
2,-0.22044943273067474,1.3874452114105225,-0.10832561552524567,36.7156227,3.1846582,15.62,1.71,2.44,-0.02,95,79,2.9847819805145264,2.9846673011779785
3,-0.12518759071826935,0.9139447808265686,0.004154480993747711,36.715651,3.1847084,15.63,2.29,3.27,-0.01,95,52,4.001744270324707,4.001715660095215
4,0.06441560387611389,0.9423859715461731,0.02507561258971691,36.7156865,3.1847698,15.63,1.84,2.52,0.0,94,53,3.1278083324432373,3.1278064250946045
5,0.3496306836605072,0.6239470839500427,-0.13525505363941193,36.7156962,3.1847844,15.65,-0.76,-1.22,-0.01,94,35,1.4469212293624878,1.4468404054641724
6,-0.05889163911342621,-1.2811000347137451,-0.11473262310028076,36.715669,3.1847341,15.62,-2.25,-3.27,0.01,93,286,3.9720847606658936,3.9720442295074463
7,-0.10202988237142563,-2.3984265327453613,0.06503357738256454,36.7156386,3.1846783,15.68,-2.08,-3.26,0.01,93,222,3.878345251083374,3.8783118724823
8,-0.027976153418421745,-1.5282565355300903,0.2526553273200989,36.7156233,3.1846253,15.62,0.2,-2.86,0.02,93,272,2.87528657913208,2.875190258026123
9,-0.4333949685096741,-0.658833384513855,0.0923038199543953,36.7156619,3.1845677,15.62,4.57,-3.32,0.0,92,322,5.65499210357666,5.654991149902344
10,-0.48855045437812805,-0.6272220015525818,-0.0021935056429356337,36.7157412,3.184499,15.62,6.99,-4.8,0.0,92,324,8.488696098327637,8.488691329956055
11,-0.5189401507377625,-0.6192659735679626,0.016931183636188507,36.715861,3.1843953,15.64,7.87,-5.51,0.0,91,324,9.617884635925293,9.617883682250977
12,-0.3311745822429657,-0.6197399497032166,0.014035076834261417,36.715967,3.1843022,15.66,7.42,-5.25,-0.03,91,324,9.098421096801758,9.098366737365723
13,-0.05339961126446724,-0.6243367791175842,-0.050260987132787704,36.7160553,3.1842243,15.68,5.3,-3.8,0.04,91,324,6.531437397003174,6.531278133392334
14,-0.023310821503400803,-1.3530527353286743,-0.29999515414237976,36.7161056,3.1841621,15.86,0.63,-2.92,-0.32,90,282,3.005885601043701,2.9887707233428955
15,-0.4354395270347595,-2.130160093307495,-0.06428329646587372,36.7160871,3.1841023,16.84,-3.07,-4.54,-0.94,90,237,5.5668816566467285,5.485226154327393
16,-0.4501332938671112,-2.1624903678894043,-0.006701814942061901,36.7160197,3.1839837,19.09,-5.05,-7.26,-1.5,89,236,8.981417655944824,8.854927062988281
17,-0.4601297676563263,-2.1626298427581787,-0.033103007823228836,36.7159467,3.1838519,21.51,-5.53,-8.06,-1.6,89,236,9.907744407653809,9.777519226074219
18,-0.4877784550189972,-2.164236068725586,0.02545490674674511,36.7158716,3.1837143,23.97,-5.56,-8.22,-1.58,88,236,10.056565284729004,9.930971145629883
19,-0.43445995450019836,-2.1648173332214355,-0.01447969488799572,36.7157837,3.1835516,26.85,-5.54,-8.24,-1.59,88,235,10.062261581420898,9.935540199279785
20,-0.48039597272872925,-2.1659090518951416,-0.01766275241971016,36.7157085,3.1834117,29.33,-5.49,-8.23,-1.59,88,235,10.02660083770752,9.898421287536621
21,-0.43488216400146484,-2.1641600131988525,0.03035399317741394,36.7156217,3.1832491,32.22,-5.51,-8.29,-1.62,87,236,10.094542503356934,9.963165283203125
22,-0.430429071187973,-2.162947177886963,-0.017676545307040215,36.715547,3.1831095,34.72,-5.52,-8.27,-1.62,87,236,10.081178665161133,9.949557304382324
23,-0.4882785379886627,-2.164349317550659,0.02667352370917797,36.7154601,3.1829473,37.63,-5.51,-8.29,-1.62,86,236,10.081254005432129,9.95035171508789
24,-0.4337118864059448,-2.1656203269958496,0.03205724433064461,36.7153849,3.1828072,40.13,-5.5,-8.29,-1.63,86,235,10.089327812194824,9.955492973327637
25,-0.43584907054901123,-2.165381669998169,-0.0215954277664423,36.7153101,3.1826669,42.64,-5.49,-8.32,-1.63,85,235,10.104681968688965,9.971359252929688
26,-0.48008647561073303,-2.1628496646881104,0.02385639026761055,36.7152233,3.1825038,45.56,-5.51,-8.28,-1.63,85,236,10.08713150024414,9.953911781311035
27,-0.43116965889930725,-2.1640398502349854,0.023875543847680092,36.7151486,3.1823646,48.06,-5.53,-8.3,-1.64,84,236,10.115181922912598,9.98079776763916
28,-0.46014878153800964,-2.1639668941497803,-0.02170342579483986,36.7150611,3.1822014,50.99,-5.48,-8.23,-1.62,84,236,10.02144718170166,9.88883113861084
29,-0.21894823014736176,-2.167569398880005,0.029996471479535103,36.7149913,3.1820715,53.34,-4.56,-6.82,-1.36,84,235,8.3192777633667,8.20666217803955
30,-0.04000675305724144,-2.160797357559204,0.001159156672656536,36.7149409,3.1819768,54.93,-2.97,-4.52,-0.68,83,236,5.459226131439209,5.416444778442383
31,-0.13192516565322876,-2.1143364906311035,0.040208108723163605,36.7149024,3.1818999,55.57,-2.17,-3.69,-0.12,83,238,4.289346218109131,4.287590980529785
32,-0.15567556023597717,-2.102116107940674,-0.02064410038292408,36.7148741,3.1818387,55.6,-2.07,-3.67,0.0,82,239,4.223621368408203,4.22361421585083
33,0.03620287403464317,-2.108213424682617,-0.0013545395340770483,36.7148433,3.1817717,55.56,-1.61,-2.79,0.12,82,239,3.2347660064697266,3.2322371006011963
34,-0.0008612949750386178,-2.3498477935791016,-0.05511949211359024,36.7148249,3.1817383,54.59,-1.19,-1.31,1.23,82,225,2.1671595573425293,1.7803034782409668
35,-0.005145980045199394,-2.4657514095306396,-0.01071856264024973,36.7148077,3.1817203,51.96,-1.03,-0.8,1.43,81,218,1.940837025642395,1.3055076599121094
36,-0.06186674162745476,-2.4700169563293457,0.019949890673160553,36.7147937,3.1817071,49.72,-1.03,-0.83,1.42,81,218,1.9549528360366821,1.3351116180419922
37,-0.01059745904058218,-2.4699692726135254,-0.005034768022596836,36.7147794,3.181693,47.49,-1.06,-0.87,1.44,81,218,1.9946010112762451,1.3751685619354248
38,-0.035268500447273254,-2.469970941543579,0.029114993289113045,36.7147624,3.1816759,44.87,-1.06,-0.87,1.45,80,218,2.0021982192993164,1.3787788152694702
39,-0.027056686580181122,-2.4695277214050293,-0.023004192858934402,36.714748,3.1816613,42.63,-1.08,-0.88,1.45,80,218,2.016847610473633,1.3980718851089478
40,-0.009207851253449917,-2.4695377349853516,0.009095786139369011,36.714731,3.1816442,40.01,-1.07,-0.89,1.46,79,218,2.026766300201416,1.3990964889526367
41,-0.06298229843378067,-2.4693260192871094,-0.014308049343526363,36.7147163,3.1816295,37.76,-1.07,-0.88,1.46,79,218,2.0247130393981934,1.3934745788574219
42,-0.017611196264624596,-2.469727039337158,-0.018162958323955536,36.7146993,3.1816124,35.14,-1.06,-0.88,1.46,79,218,2.014096260070801,1.3808369636535645
43,-0.06407967954874039,-2.469697952270508,0.015792176127433777,36.7146848,3.1815977,32.9,-1.06,-0.89,1.47,78,218,2.031881332397461,1.396925687789917
44,-0.00927784200757742,-2.469407320022583,-0.006843670271337032,36.7146702,3.1815829,30.65,-1.07,-0.88,1.47,78,218,2.033297061920166,1.3942999839782715
45,-0.03113562799990177,-2.4694976806640625,0.026294253766536713,36.7146532,3.1815657,28.02,-1.05,-0.88,1.47,78,218,2.018799304962158,1.3787778615951538
46,-0.03436217084527016,-2.4699959754943848,-0.023267358541488647,36.7146385,3.181551,25.77,-1.06,-0.88,1.47,77,218,2.0237557888031006,1.3835880756378174
47,-0.03856801614165306,-2.4694063663482666,0.0251987986266613,36.714624,3.1815363,23.53,-1.06,-0.88,1.48,77,218,2.0280277729034424,1.382680892944336
48,-0.05429732799530029,-2.4692654609680176,-0.01709621027112007,36.7146069,3.1815191,20.9,-1.07,-0.88,1.47,77,218,2.0312693119049072,1.3929468393325806
49,-0.014481592923402786,-2.4695208072662354,0.018523283302783966,36.7145924,3.1815044,18.65,-1.06,-0.88,1.47,76,218,2.0196127891540527,1.382597804069519
50,-0.1746363639831543,3.1062395572662354,-0.09549593180418015,36.7145704,3.1814918,16.19,-1.98,-0.01,1.02,76,177,2.230807304382324,1.9831531047821045
51,-0.20347842574119568,2.674626588821411,-0.032618630677461624,36.7145324,3.1815077,15.62,-3.53,1.72,-0.05,75,153,3.9351043701171875,3.934769868850708
52,-0.1502816528081894,2.6792783737182617,0.030161527916789055,36.71447,3.1815459,15.71,-4.05,2.03,0.03,75,153,4.542873859405518,4.542718887329102
53,-0.027779027819633484,3.0446274280548096,0.17194193601608276,36.7144176,3.1815704,15.65,-3.5,0.34,0.04,75,174,3.5228235721588135,3.5225532054901123
54,-0.3919200599193573,-2.2115519046783447,0.14711010456085205,36.7143753,3.1815451,15.64,-2.97,-3.56,0.01,74,233,4.644636154174805,4.644608020782471
55,-0.5025407075881958,-2.1515493392944336,-0.01775095984339714,36.7143189,3.1814388,15.64,-4.28,-6.82,0.0,74,236,8.058232307434082,8.058228492736816
56,-0.4833291172981262,-2.1486167907714844,0.018142003566026688,36.7142558,3.1813143,15.65,-4.94,-7.73,0.0,73,236,9.18064022064209,9.180641174316406
57,-0.3066997230052948,-2.1530659198760986,-0.022344060242176056,36.7141787,3.1811652,15.67,-4.6,-7.07,0.0,73,236,8.442684173583984,8.442683219909668
58,-0.2761353850364685,-2.1442043781280518,0.030864056199789047,36.7141223,3.181056,15.66,-3.73,-5.92,0.03,73,237,7.003084182739258,7.003001689910889
59,-0.2377222776412964,-2.114534616470337,0.018541349098086357,36.7140746,3.1809585,15.64,-3.33,-5.65,0.01,72,238,6.566658020019531,6.56664514541626
60,-0.30280783772468567,-2.099867105484009,0.024567946791648865,36.7140234,3.1808477,15.64,-3.21,-5.65,0.0,72,239,6.509699821472168,6.509693145751953
61,-0.1332767754793167,-2.100109100341797,0.0008389970753341913,36.7139803,3.1807537,15.65,-3.02,-5.27,0.0,71,239,6.080690860748291,6.080690860748291
62,0.15152287483215332,-2.1008141040802,0.030645204707980156,36.713943,3.1806725,15.62,-1.45,-2.55,0.02,71,239,2.940181016921997,2.9400503635406494
63,0.11416016519069672,-2.1005897521972656,-0.025822723284363747,36.7139332,3.1806509,15.63,-0.13,-0.25,-0.01,71,239,0.2924953103065491,0.29189056158065796
64,-0.018107576295733452,-2.101693868637085,0.07465988397598267,36.713934,3.1806521,15.61,0.17,0.09,0.03,70,239,0.2055392861366272,0.20168423652648926
