timestamp,pitch,yaw,roll,lat,lon,alt,velocity_x,velocity_y,velocity_z,battery,heading,airspeed,groundspeed
0,0.03146090731024742,0.015112966299057007,0.006864398717880249,36.7156067,3.1846299,18.03,-0.03,0.03,0.0,96,0,0.04584731161594391,0.04562460631132126
1,-0.06337117403745651,0.05440600588917732,0.14099405705928802,36.7156081,3.1846336,18.06,0.36,0.71,0.0,95,0,0.5561052560806274,0.5558629035949707
2,-0.16184212267398834,1.581913948059082,-0.10228706151247025,36.7156194,3.1846593,18.03,1.27,2.31,-0.03,95,90,2.6438534259796143,2.6436567306518555
3,-0.0713856890797615,0.9095278978347778,0.012414464727044106,36.7156392,3.1847028,18.06,1.51,2.7,-0.02,95,52,3.0983145236968994,3.0981762409210205
4,0.32211506366729736,1.222236156463623,0.11189576983451843,36.7156556,3.1847398,18.07,-0.02,0.19,0.0,94,70,0.19849109649658203,0.19833655655384064
5,-0.05467149242758751,2.7655556201934814,0.1973777562379837,36.71564,3.1847127,18.09,-2.01,-2.89,-0.04,94,158,3.5275111198425293,3.5272228717803955
6,-0.14839453995227814,-2.014850616455078,0.0090333865955472,36.7156101,3.1846581,18.1,-2.26,-3.33,0.0,93,244,4.03031063079834,4.030308723449707
7,-0.04218744486570358,-1.8020864725112915,0.20239035785198212,36.7155823,3.1845935,18.08,-0.64,-3.07,0.01,93,256,3.1435399055480957,3.1435232162475586
8,-0.3252589702606201,-0.6741770505905151,0.10561913251876831,36.7155979,3.1845447,18.07,3.12,-2.92,0.0,93,321,4.282317161560059,4.282315731048584
9,-0.5266541838645935,-0.6172126531600952,0.03391759470105171,36.7156766,3.1844731,18.08,6.55,-4.52,0.0,92,324,7.962844371795654,7.962841510772705
10,-0.47353023290634155,-0.6155810356140137,0.0017916472861543298,36.7157755,3.184388,18.09,7.8,-5.42,-0.01,92,324,9.504117012023926,9.504111289978027
11,-0.4467596709728241,-0.618030309677124,-0.029615657404065132,36.7158824,3.1842945,18.11,7.81,-5.51,-0.01,91,324,9.567911148071289,9.567900657653809
12,-0.11462718993425369,-0.622061550617218,0.020284144207835197,36.7159947,3.1841954,18.15,6.01,-4.27,0.02,91,324,7.383362770080566,7.383327960968018
13,0.06441405415534973,-0.8717485666275024,-0.21939633786678314,36.716055,3.1841365,18.18,2.5,-2.96,-0.11,91,310,3.8851587772369385,3.883432388305664
14,-0.342550128698349,-2.12676739692688,-0.11723419278860092,36.7160546,3.1840739,18.97,-2.38,-4.02,-0.79,90,238,4.748126029968262,4.680379390716553
15,-0.5098215341567993,-2.17214298248291,-0.0005484219291247427,36.7160052,3.1839863,20.65,-4.59,-6.5,-1.35,90,235,8.082324028015137,7.967119216918945
16,-0.43054190278053284,-2.1677067279815674,0.010370086878538132,36.7159228,3.1838397,23.37,-5.54,-8.0,-1.61,89,235,9.867127418518066,9.734066009521484
17,-0.4509488642215729,-2.1664297580718994,-0.024414174258708954,36.7158474,3.1837024,25.83,-5.55,-8.18,-1.58,89,235,10.019824028015137,9.893852233886719
18,-0.4891173839569092,-2.165781259536743,0.00965444091707468,36.7157721,3.183563,28.29,-5.53,-8.22,-1.58,88,235,10.045186996459961,9.918725967407227
19,-0.425561785697937,-2.1649653911590576,0.004279488231986761,36.7156846,3.1834007,31.18,-5.53,-8.25,-1.6,88,235,10.064374923706055,9.93623161315918
20,-0.465262234210968,-2.167858839035034,-0.02979688160121441,36.7156096,3.1832613,33.65,-5.54,-8.26,-1.61,87,235,10.08419418334961,9.954346656799316
21,-0.45505908131599426,-2.165875196456909,0.03808492794632912,36.7155224,3.1830988,36.56,-5.51,-8.28,-1.62,87,235,10.08735179901123,9.955695152282715
22,-0.42636409401893616,-2.163645029067993,-0.0040145255625247955,36.7154476,3.182959,39.06,-5.53,-8.28,-1.62,87,236,10.091765403747559,9.9596529006958
23,-0.4748397171497345,-2.1647379398345947,-0.027861589565873146,36.7153726,3.1828194,41.55,-5.53,-8.27,-1.63,86,235,10.083538055419922,9.95053768157959
24,-0.4412171244621277,-2.166415214538574,0.03492208942770958,36.715285,3.1826564,44.47,-5.51,-8.27,-1.64,86,235,10.076868057250977,9.942225456237793
25,-0.43339279294013977,-2.164320468902588,-0.017744015902280807,36.7152107,3.1825172,46.98,-5.5,-8.3,-1.63,85,236,10.097126960754395,9.964033126831055
26,-0.48847469687461853,-2.164159059524536,0.0008536757668480277,36.7151232,3.1823538,49.89,-5.56,-8.27,-1.63,85,236,10.10503101348877,9.971242904663086
27,-0.4351429045200348,-2.166560173034668,0.03370073065161705,36.7150478,3.182214,52.39,-5.52,-8.27,-1.64,84,235,10.086859703063965,9.951532363891602
28,-0.3091231882572174,-2.167386054992676,-0.022357553243637085,36.7149746,3.1820776,54.86,-5.11,-7.6,-1.52,84,235,9.293954849243164,9.168590545654297
29,-0.07113904505968094,-2.167175531387329,0.0362754687666893,36.7149069,3.1819518,57.09,-3.33,-4.98,-0.86,83,235,6.0643744468688965,6.002956390380859
30,-0.11507990211248398,-2.1230316162109375,-0.004593838471919298,36.7148704,3.1818807,57.92,-2.23,-3.73,-0.27,83,238,4.359624862670898,4.351150035858154
31,-0.1278281807899475,-2.085874319076538,0.02358393557369709,36.7148377,3.1818087,58.07,-1.99,-3.66,0.0,83,240,4.176695346832275,4.176692962646484
32,-0.06350873410701752,-2.086775302886963,-0.02528998628258705,36.7148109,3.1817479,58.06,-1.84,-3.39,-0.02,82,240,3.8643295764923096,3.864274740219116
33,0.044566184282302856,-2.2522668838500977,-0.0614197812974453,36.7147873,3.1816987,57.46,-1.22,-1.59,0.93,82,230,2.2195117473602295,2.012322187423706
34,-0.0523940846323967,-2.4870765209198,-0.00017370593559462577,36.714772,3.1816801,55.36,-1.03,-0.81,1.48,82,217,1.9790531396865845,1.3108196258544922
35,-0.011986875906586647,-2.472062587738037,0.0012711952440440655,36.714758,3.1816671,53.11,-1.04,-0.81,1.42,81,218,1.9430500268936157,1.3231959342956543
36,-0.041415341198444366,-2.470459222793579,0.03045729361474514,36.7147414,3.1816509,50.5,-1.05,-0.87,1.44,81,218,1.987509846687317,1.3665088415145874
37,-0.026310360059142113,-2.470264434814453,-0.02468016743659973,36.7147268,3.1816364,48.26,-1.07,-0.88,1.45,81,218,2.0124568939208984,1.3946473598480225
38,-0.011559197679162025,-2.4700515270233154,0.01340419054031372,36.7147099,3.1816194,45.63,-1.07,-0.87,1.45,80,218,2.0100605487823486,1.3877121210098267
39,-0.0522022508084774,-2.4694700241088867,-0.018589207902550697,36.7146953,3.1816047,43.4,-1.07,-0.89,1.46,80,218,2.0260138511657715,1.4022146463394165
40,-0.015533451922237873,-2.470060110092163,-0.016792530193924904,36.7146783,3.1815876,40.78,-1.07,-0.88,1.47,79,218,2.0199170112609863,1.3836063146591187
41,-0.061190929263830185,-2.470039129257202,0.014713709242641926,36.7146637,3.1815729,38.53,-1.06,-0.89,1.47,79,218,2.024402141571045,1.3890079259872437
42,-0.012736242264509201,-2.47051739692688,-0.008361244574189186,36.7146491,3.1815582,36.29,-1.07,-0.88,1.47,79,218,2.0272061824798584,1.388550877571106
43,-0.031067339703440666,-2.469811201095581,0.03148219361901283,36.7146321,3.181541,33.66,-1.06,-0.88,1.47,78,218,2.0233147144317627,1.3801099061965942
44,-0.03458487242460251,-2.4699997901916504,-0.02503225766122341,36.7146175,3.1815263,31.41,-1.08,-0.88,1.47,78,218,2.034529209136963,1.3992762565612793
45,-0.04679630696773529,-2.4696953296661377,0.023392697796225548,36.714603,3.1815116,29.16,-1.06,-0.88,1.47,78,218,2.022519826889038,1.3857091665267944
46,-0.059587206691503525,-2.469898223876953,-0.010599466040730476,36.7145859,3.1814945,26.54,-1.06,-0.88,1.48,77,218,2.030578374862671,1.3867918252944946
47,-0.014869783073663712,-2.4694130420684814,0.021469278261065483,36.7145714,3.1814798,24.29,-1.06,-0.88,1.47,77,218,2.02365779876709,1.38154935836792
48,-0.05624185502529144,-2.4699578285217285,0.01891084387898445,36.7145544,3.1814626,21.66,-1.06,-0.89,1.47,77,218,2.023160934448242,1.3867803812026978
49,-0.06369239836931229,-2.7680883407592773,-0.10832958668470383,36.7145384,3.1814487,19.43,-1.49,-0.59,1.38,76,201,2.1247239112854004,1.6078428030014038
50,-0.26125583052635193,2.7052531242370605,-0.03452624753117561,36.7145092,3.1814521,18.11,-2.95,1.19,0.2,76,154,3.195268392562866,3.188542604446411
51,-0.19048073887825012,2.6791505813598633,-0.030786018818616867,36.7144516,3.1814863,18.16,-4.08,2.03,-0.04,75,153,4.558953285217285,4.558767795562744
52,-0.06293362379074097,2.781872272491455,0.13859213888645172,36.7143969,3.1815184,18.14,-3.84,1.4,0.06,75,159,4.095515251159668,4.095052242279053
53,-0.3510945439338684,-2.354339838027954,0.1837778240442276,36.7143438,3.1815122,18.1,-2.93,-2.6,0.02,75,225,3.9215540885925293,3.921475887298584
54,-0.4533034861087799,-2.143507957458496,0.029493795707821846,36.7143002,3.1814386,18.1,-3.76,-5.99,0.02,74,237,7.0758185386657715,7.075789451599121
55,-0.5048347115516663,-2.146925687789917,-0.013623779639601707,36.7142307,3.1813013,18.1,-4.85,-7.65,0.0,74,237,9.067044258117676,9.067044258117676
56,-0.38756057620048523,-2.150137186050415,0.023515185341238976,36.7141639,3.1811714,18.12,-4.86,-7.51,-0.01,73,236,8.954459190368652,8.95445442199707
57,-0.24133624136447906,-2.1500167846679688,-0.012216747738420963,36.7141027,3.1810534,18.13,-4.11,-6.39,0.02,73,236,7.598461151123047,7.598418235778809
58,-0.266357421875,-2.1215598583221436,0.04547372832894325,36.7140446,3.1809371,18.1,-3.4,-5.69,0.01,73,238,6.638982772827148,6.63895320892334
59,-0.2642771303653717,-2.1027119159698486,-0.01669022999703884,36.7139999,3.1808417,18.1,-3.22,-5.64,0.0,72,239,6.500550746917725,6.500545501708984
60,-0.20527774095535278,-2.10030198097229,0.028829939663410187,36.7139493,3.180731,18.1,-3.13,-5.53,0.0,72,239,6.360569477081299,6.360569000244141
61,0.051027022302150726,-2.100649118423462,-0.028353793546557426,36.7139118,3.1806494,18.1,-2.19,-3.81,0.03,71,239,4.404559135437012,4.404405117034912
62,0.15722188353538513,-2.100860118865967,-0.002595322672277689,36.7138925,3.1806073,18.08,-0.36,-0.64,-0.02,71,239,0.7374177575111389,0.7370845079421997
63,-0.02416400797665119,-2.100414752960205,-0.001294070272706449,36.7138919,3.1806059,18.09,0.1,0.15,0.02,71,239,0.19032226502895355,0.18851053714752197
