timestamp,pitch,yaw,roll,lat,lon,alt,velocity_x,velocity_y,velocity_z,battery,heading,airspeed,groundspeed
0,0.02519569918513298,-0.04873422905802727,0.023536765947937965,36.7156066,3.18463,18.86,-0.02,0.02,0.04,96,357,0.055435143411159515,0.03038816712796688
1,-0.09296669811010361,-0.05551677197217941,0.0666298121213913,36.715608,3.1846318,18.85,0.39,0.44,0.0,95,356,0.594336211681366,0.5943168997764587
2,-0.22305582463741302,1.1310968399047852,-0.10684644430875778,36.7156276,3.1846563,18.81,2.23,2.23,-0.03,95,64,3.161987781524658,3.161844491958618
3,-0.1674077957868576,0.8025429248809814,0.017980707809329033,36.7156644,3.184702,18.85,3.04,3.01,-0.04,95,45,4.287168979644775,4.286957263946533
4,0.003880696836858988,0.7747927308082581,-0.007430936675518751,36.7157121,3.1847599,18.89,2.61,2.53,-0.02,94,44,3.6486408710479736,3.6485719680786133
5,0.29902252554893494,0.0942782610654831,-0.26648077368736267,36.715732,3.1847795,18.89,-0.16,-0.74,0.01,94,5,0.7595750689506531,0.7594884634017944
6,-0.18422085046768188,-1.5342841148376465,-0.1240445226430893,36.7157133,3.1847421,18.92,-2.22,-3.17,-0.03,93,272,3.8761744499206543,3.876041889190674
7,-0.11481554806232452,-2.143301248550415,0.005626925267279148,36.7156775,3.1846769,18.92,-2.21,-3.31,0.01,93,237,3.989882707595825,3.989856243133545
8,-0.024363959208130836,-1.64174485206604,0.25947844982147217,36.7156584,3.1846225,18.91,-0.16,-2.93,0.01,93,265,2.939688205718994,2.9396541118621826
9,-0.44408494234085083,-0.6599263548851013,0.061777107417583466,36.7156912,3.1845654,18.9,4.27,-3.22,0.0,92,322,5.353747844696045,5.353747844696045
10,-0.5003043413162231,-0.6265411376953125,0.042846374213695526,36.7157675,3.1844985,18.9,6.83,-4.73,0.0,92,324,8.30965518951416,8.309653282165527
11,-0.47031643986701965,-0.6216028332710266,-0.021087193861603737,36.7158683,3.1844108,18.92,7.85,-5.51,0.0,91,324,9.59733772277832,9.59733772277832
12,-0.3961853086948395,-0.6223822832107544,0.019358079880475998,36.715992,3.1843017,18.95,7.5,-5.33,-0.01,91,324,9.206561088562012,9.20654296875
13,-0.04574782773852348,-0.6261497735977173,-0.004315017722547054,36.7160823,3.1842215,18.97,5.49,-3.95,0.04,91,324,6.774268627166748,6.774115085601807
14,-0.023220648989081383,-1.2440682649612427,-0.25106486678123474,36.7161366,3.1841578,19.11,0.94,-2.89,-0.27,90,288,3.0532824993133545,3.0406911373138428
15,-0.3697325587272644,-2.1297221183776855,-0.0991586446762085,36.7161219,3.1840996,20.02,-2.9,-4.4,-0.9,90,237,5.352771759033203,5.2753214836120605
16,-0.49272292852401733,-2.1606855392456055,0.04066714644432068,36.7160566,3.1839848,22.21,-5.0,-7.19,-1.48,89,236,8.892078399658203,8.767158508300781
17,-0.4227096140384674,-2.164479970932007,0.019969133660197258,36.7159835,3.1838534,24.63,-5.55,-8.04,-1.61,89,235,9.909981727600098,9.778144836425781
18,-0.44886764883995056,-2.164443016052246,-0.025812635198235512,36.7159082,3.1837153,27.1,-5.52,-8.18,-1.57,88,235,9.999515533447266,9.874865531921387
19,-0.4724738299846649,-2.164381265640259,0.035582467913627625,36.7158205,3.1835527,29.98,-5.53,-8.24,-1.58,88,236,10.054448127746582,9.928854942321777
20,-0.4254705011844635,-2.163501024246216,0.018604988232254982,36.7157459,3.1834138,32.45,-5.53,-8.28,-1.6,88,236,10.092999458312988,9.96471881866455
21,-0.48372721672058105,-2.1653051376342773,-0.013466696254909039,36.7156584,3.1832506,35.36,-5.52,-8.29,-1.6,87,235,10.095314979553223,9.967153549194336
22,-0.4843987226486206,-2.1645946502685547,0.02377898618578911,36.7155836,3.1831109,37.85,-5.5,-8.25,-1.61,87,235,10.055179595947266,9.925057411193848
23,-0.4340784251689911,-2.164438009262085,-0.01948513649404049,36.7154967,3.1829484,40.75,-5.51,-8.3,-1.62,86,235,10.101689338684082,9.969830513000488
24,-0.4809302091598511,-2.1633973121643066,-0.022206928580999374,36.7154218,3.1828084,43.26,-5.52,-8.3,-1.62,86,236,10.105887413024902,9.97376823425293
25,-0.479957640171051,-2.1668663024902344,0.03540028631687164,36.7153471,3.1826685,45.77,-5.5,-8.29,-1.62,85,235,10.092609405517578,9.960468292236328
26,-0.42924758791923523,-2.1644554138183594,-0.009020140394568443,36.71526,3.1825054,48.68,-5.53,-8.28,-1.63,85,235,10.097883224487305,9.964930534362793
27,-0.4785945415496826,-2.164708137512207,-0.024331092834472656,36.7151852,3.1823657,51.19,-5.51,-8.3,-1.63,84,235,10.104068756103516,9.970702171325684
28,-0.4302228093147278,-2.163717031478882,0.03349186107516289,36.7150979,3.1822023,54.11,-5.5,-8.26,-1.62,84,236,10.066454887390137,9.933634757995605
29,-0.2127220630645752,-2.1677961349487305,-0.017569324001669884,36.7150276,3.1820717,56.47,-4.69,-6.97,-1.4,83,235,8.523093223571777,8.407163619995117
30,-0.09408891201019287,-2.1616761684417725,0.007052890956401825,36.7149753,3.1819741,58.14,-3.03,-4.61,-0.72,83,236,5.572677135467529,5.525115013122559
31,-0.11649692058563232,-2.1033284664154053,0.0012977165170013905,36.7149368,3.1818964,58.84,-2.12,-3.69,-0.13,83,239,4.261050224304199,4.25887393951416
32,-0.17829468846321106,-2.0858428478240967,0.011739781126379967,36.7149094,3.181835,58.88,-1.99,-3.68,0.0,82,240,4.1889424324035645,4.188934326171875
33,0.0028539157938212156,-2.09032940864563,-0.035728953778743744,36.7148794,3.1817673,58.85,-1.61,-2.94,0.09,82,240,3.3632736206054688,3.361910343170166
34,0.011966237798333168,-2.3253750801086426,-0.023694055154919624,36.714861,3.1817318,57.96,-1.2,-1.38,1.17,82,226,2.177060604095459,1.8324579000473022
35,-0.012467216700315475,-2.4794511795043945,-0.017558539286255836,36.7148461,3.1817155,55.73,-1.03,-0.79,1.45,81,217,1.9501104354858398,1.3029155731201172
36,-0.02017735317349434,-2.4701554775238037,0.027243275195360184,36.7148297,3.1817002,53.12,-1.04,-0.82,1.42,81,218,1.9553018808364868,1.3355045318603516
37,-0.04747963696718216,-2.4698410034179688,-0.020895814523100853,36.7148154,3.1816861,50.88,-1.06,-0.87,1.44,81,218,1.9939637184143066,1.3788323402404785
38,-0.007950549013912678,-2.4697303771972656,0.0005692775594070554,36.7147985,3.1816691,48.26,-1.06,-0.88,1.44,80,218,2.0015923976898193,1.387633204460144
39,-0.05574781075119972,-2.4690287113189697,-0.018245697021484375,36.7147839,3.1816543,46.02,-1.06,-0.87,1.45,80,218,2.0064072608947754,1.3845442533493042
40,-0.012130457907915115,-2.469270706176758,0.02263164333999157,36.7147693,3.1816398,43.78,-1.07,-0.87,1.46,79,218,2.01230525970459,1.3824043273925781
41,-0.05493362993001938,-2.4695584774017334,0.016970789059996605,36.7147523,3.1816227,41.16,-1.06,-0.89,1.46,79,218,2.0168914794921875,1.3868144750595093
42,-0.008719181641936302,-2.470104217529297,-0.009306130930781364,36.7147378,3.181608,38.92,-1.07,-0.89,1.47,79,218,2.0295982360839844,1.3980937004089355
43,-0.035170890390872955,-2.469752550125122,0.031110752373933792,36.7147207,3.1815908,36.3,-1.06,-0.88,1.47,78,218,2.023676872253418,1.3853471279144287
44,-0.024275533854961395,-2.4697494506835938,-0.020533887669444084,36.7147061,3.1815761,34.04,-1.06,-0.88,1.47,78,218,2.0226268768310547,1.3858953714370728
45,-0.015161045826971531,-2.469119071960449,0.02349921502172947,36.7146891,3.1815589,31.42,-1.06,-0.88,1.47,78,218,2.019120931625366,1.3829278945922852
46,-0.05203193426132202,-2.4694883823394775,-0.02020665816962719,36.7146746,3.1815442,29.18,-1.06,-0.88,1.48,77,218,2.02770733833313,1.3858110904693604
47,-0.03310653194785118,-2.469353437423706,0.03009430691599846,36.71466,3.1815295,26.92,-1.07,-0.88,1.47,77,218,2.0286805629730225,1.3920665979385376
48,-0.05641830340027809,-2.469188690185547,-0.004726787097752094,36.7146428,3.1815122,24.29,-1.06,-0.88,1.47,76,218,2.019183874130249,1.3805081844329834
49,-0.01039834413677454,-2.4691779613494873,0.01420353539288044,36.7146283,3.1814977,22.05,-1.05,-0.86,1.47,76,218,2.0123159885406494,1.3676999807357788
50,-0.15668439865112305,-3.126262903213501,-0.0823972225189209,36.7146071,3.1814844,19.56,-1.9,-0.13,1.08,76,180,2.200857162475586,1.913873314857483
51,-0.20960737764835358,2.674206495285034,-0.04220694303512573,36.7145703,3.1814983,18.89,-3.48,1.67,-0.04,75,153,3.8692004680633545,3.8689634799957275
52,-0.20131206512451172,2.679558277130127,0.0003182108630426228,36.7145175,3.1815307,18.99,-4.06,2.04,0.0,75,153,4.546647071838379,4.546645641326904
53,-0.02248893864452839,2.998889446258545,0.1629352569580078,36.7144554,3.1815625,18.94,-3.56,0.51,0.05,75,171,3.6000640392303467,3.599715232849121
54,-0.3875463902950287,-2.2297356128692627,0.1618134081363678,36.7144128,3.1815407,18.92,-2.95,-3.36,0.02,74,232,4.478537559509277,4.478477954864502
55,-0.49256187677383423,-2.1485819816589355,-0.023776452988386154,36.7143576,3.181438,18.92,-4.25,-6.75,0.01,74,236,7.9816389083862305,7.981627941131592
56,-0.49403855204582214,-2.149385452270508,0.006352248601615429,36.7142947,3.1813141,18.93,-4.93,-7.7,0.0,73,236,9.147151947021484,9.147151947021484
57,-0.29975953698158264,-2.1527295112609863,-0.015242441557347775,36.7142174,3.1811645,18.96,-4.63,-7.12,0.0,73,236,8.500371932983398,8.500371932983398
58,-0.2623130977153778,-2.144167184829712,0.00950822327286005,36.7141602,3.1810534,18.95,-3.77,-5.97,0.03,73,237,7.069609642028809,7.069528579711914
59,-0.25141915678977966,-2.1159398555755615,0.037173353135585785,36.7141127,3.1809568,18.93,-3.36,-5.67,0.01,72,238,6.600508213043213,6.600484848022461
60,-0.31136462092399597,-2.1002073287963867,0.004728015977889299,36.7140611,3.1808457,18.93,-3.21,-5.66,0.01,72,239,6.511509895324707,6.511497497558594
61,-0.1572045534849167,-2.0998876094818115,0.027238590642809868,36.7140178,3.1807511,18.93,-3.04,-5.34,0.0,71,239,6.149130821228027,6.1491312980651855
62,0.12447407841682434,-2.1009275913238525,0.009688976220786572,36.7139793,3.1806674,18.9,-1.55,-2.71,0.03,71,239,3.1323564052581787,3.132169485092163
63,0.13586440682411194,-2.0997142791748047,0.0037889445666223764,36.7139685,3.1806437,18.91,-0.18,-0.33,-0.01,71,239,0.3831627666950226,0.3826580345630646
64,-0.015489094890654087,-2.1019537448883057,0.09541840851306915,36.7139696,3.1806447,18.88,0.24,0.03,0.03,70,239,0.2517274022102356,0.2487679123878479
