timestamp,pitch,yaw,roll,lat,lon,alt,velocity_x,velocity_y,velocity_z,battery,heading,airspeed,groundspeed
0,0.02375960536301136,0.036123160272836685,0.021095160394906998,36.7156064,3.1846301,11.79,0.0,0.01,-0.77,98,2,0.7790653705596924,0.016672413796186447
1,-0.13385383784770966,0.07066896557807922,0.08639392256736755,36.7156088,3.1846326,12.43,0.61,0.49,-0.12,97,4,0.80226069688797,0.7923393845558167
2,-0.2119649052619934,0.7946304082870483,-0.04771610349416733,36.7156284,3.1846513,12.5,2.35,1.85,0.0,97,45,3.00018048286438,3.00018048286438
3,-0.16468070447444916,0.6856552362442017,0.022526521235704422,36.715667,3.1846893,12.42,3.15,2.49,0.04,97,39,4.022292613983154,4.022032260894775
4,0.06637206673622131,0.6346281170845032,-0.042421888560056686,36.7157155,3.1847358,12.31,2.51,1.82,0.03,96,36,3.1049625873565674,3.1047470569610596
5,0.0911487564444542,-0.5278872847557068,-0.33317166566848755,36.7157309,3.1847418,12.28,-0.65,-1.48,-0.01,96,329,1.6252540349960327,1.6251522302627563
6,-0.16240274906158447,-2.297595500946045,0.04871327430009842,36.7157026,3.1846876,12.24,-2.36,-3.33,0.0,95,228,4.086467266082764,4.0864667892456055
7,-0.07332025468349457,-2.0604677200317383,0.03607361391186714,36.7156718,3.1846302,12.3,-2.06,-3.27,0.0,95,241,3.8736393451690674,3.8736352920532227
8,-0.11742624640464783,-1.3401870727539062,0.2948583662509918,36.7156592,3.1845774,12.26,0.65,-2.82,0.01,95,283,2.894094944000244,2.8940482139587402
9,-0.4825124144554138,-0.6416414380073547,0.010426264256238937,36.7157045,3.1845186,12.26,4.98,-3.55,0.0,94,323,6.120752811431885,6.120752811431885
10,-0.514687716960907,-0.6264522671699524,0.04373782500624657,36.7157885,3.1844455,12.26,7.18,-4.97,-0.01,94,324,8.743124961853027,8.74311637878418
11,-0.4912663996219635,-0.6195745468139648,-0.03316175192594528,36.7159101,3.1843397,12.29,7.89,-5.57,0.0,93,324,9.665459632873535,9.665458679199219
12,-0.34712833166122437,-0.6249574422836304,0.01831207424402237,36.7160143,3.1842472,12.32,7.21,-5.15,-0.01,93,324,8.86807918548584,8.86806869506836
13,0.031006956472992897,-0.668820321559906,-0.11714234948158264,36.7161084,3.1841629,12.32,4.22,-3.35,0.02,93,321,5.393402099609375,5.393329620361328
14,-0.16622060537338257,-1.5873854160308838,-0.246320903301239,36.7161382,3.1841123,12.59,-0.06,-3.03,-0.4,92,269,3.062927484512329,3.0359628200531006
15,-0.40532562136650085,-2.146860361099243,-0.0684632882475853,36.7161122,3.1840475,13.72,-3.5,-4.95,-1.04,92,237,6.158679485321045,6.069267272949219
16,-0.49873459339141846,-2.165332555770874,0.040808625519275665,36.7160408,3.1839222,16.1,-5.2,-7.5,-1.54,91,235,9.260001182556152,9.13053035736084
17,-0.4261275827884674,-2.1645143032073975,0.010978776030242443,36.715967,3.1837884,18.55,-5.53,-8.07,-1.59,91,235,9.921065330505371,9.79232406616211
18,-0.4890590012073517,-2.1633245944976807,-0.02564212679862976,36.715879,3.1836268,21.41,-5.56,-8.21,-1.57,90,236,10.043050765991211,9.918853759765625
19,-0.46508437395095825,-2.1651782989501953,0.03726150467991829,36.7158037,3.1834871,23.88,-5.52,-8.24,-1.59,90,235,10.053035736083984,9.926070213317871
20,-0.44158196449279785,-2.164060592651367,-0.029967384412884712,36.7157165,3.1833244,26.77,-5.52,-8.25,-1.6,89,236,10.065315246582031,9.936514854431152
21,-0.4894973933696747,-2.1640875339508057,-0.0016744256718084216,36.7156419,3.1831851,29.25,-5.49,-8.27,-1.61,89,236,10.068266868591309,9.937655448913574
22,-0.46878713369369507,-2.163714647293091,0.04100758209824562,36.7155674,3.1830456,31.75,-5.49,-8.27,-1.62,89,236,10.069042205810547,9.937469482421875
23,-0.44896528124809265,-2.164121389389038,-0.023232780396938324,36.7154802,3.1828828,34.67,-5.52,-8.29,-1.62,88,236,10.096752166748047,9.965475082397461
24,-0.49231529235839844,-2.163418769836426,-0.005543078295886517,36.7154054,3.182743,37.17,-5.52,-8.3,-1.62,88,236,10.110011100769043,9.978228569030762
25,-0.42505812644958496,-2.1654443740844727,0.02071383409202099,36.715318,3.1825798,40.09,-5.51,-8.3,-1.63,87,235,10.102387428283691,9.96930980682373
26,-0.4532131850719452,-2.1663575172424316,-0.022385399788618088,36.7152435,3.1824403,42.6,-5.53,-8.33,-1.62,87,235,10.137153625488281,10.005764961242676
27,-0.48401057720184326,-2.1652536392211914,0.030504629015922546,36.7151685,3.1822998,45.1,-5.51,-8.29,-1.62,86,235,10.09642505645752,9.964494705200195
28,-0.37273719906806946,-2.164763927459717,0.008043890818953514,36.7150815,3.182137,48.02,-5.42,-8.1,-1.61,86,235,9.886223793029785,9.753799438476562
29,-0.17507381737232208,-2.1673619747161865,-0.025717489421367645,36.715014,3.1820118,50.29,-4.35,-6.46,-1.28,85,235,7.897342681884766,7.791950225830078
30,-0.04222049564123154,-2.147083044052124,0.03303788602352142,36.7149607,3.1819113,51.86,-2.55,-4.0,-0.49,85,236,4.76991081237793,4.744610786437988
31,-0.14849470555782318,-2.0963616371154785,-0.013240795582532883,36.7149306,3.1818484,52.23,-2.05,-3.69,-0.08,85,239,4.231297016143799,4.230481147766113
32,-0.14507295191287994,-2.0867042541503906,0.026870235800743103,36.7149035,3.1817869,52.24,-2.01,-3.71,-0.01,84,240,4.225458145141602,4.225419521331787
33,0.0034703181590884924,-2.104952096939087,-0.02580484002828598,36.7148747,3.1817223,52.15,-1.48,-2.57,0.23,84,239,2.9813201427459717,2.971806764602661
34,0.037559814751148224,-2.401197671890259,-0.0335974358022213,36.7148574,3.1816927,50.89,-1.15,-1.15,1.37,84,222,2.1377406120300293,1.6338751316070557
35,-0.04632948711514473,-2.463042736053467,0.028372175991535187,36.7148407,3.181676,48.22,-1.02,-0.79,1.41,83,218,1.9230551719665527,1.2975748777389526
36,-0.02185284160077572,-2.4689106941223145,-0.01808840222656727,36.7148267,3.1816626,45.98,-1.05,-0.84,1.42,83,218,1.9635409116744995,1.350079894065857
37,-0.016991831362247467,-2.468886613845825,0.022306760773062706,36.7148098,3.1816457,43.38,-1.07,-0.88,1.44,82,218,2.0018398761749268,1.390195369720459
38,-0.046081993728876114,-2.469632863998413,-0.021895630285143852,36.7147952,3.1816312,41.13,-1.07,-0.87,1.45,82,218,2.0064620971679688,1.3860821723937988
39,-0.031492654234170914,-2.4694902896881104,0.03181317076086998,36.7147806,3.1816167,38.89,-1.06,-0.87,1.45,82,218,2.004905939102173,1.379091501235962
40,-0.059200845658779144,-2.4691576957702637,-0.00436061667278409,36.7147637,3.1815996,36.27,-1.06,-0.89,1.45,81,218,2.016890287399292,1.392287254333496
41,-0.009888839907944202,-2.4691803455352783,0.00976395234465599,36.7147491,3.1815848,34.02,-1.06,-0.88,1.46,81,218,2.014934778213501,1.3845802545547485
42,-0.054390862584114075,-2.4695651531219482,0.02543914131820202,36.7147321,3.1815677,31.4,-1.06,-0.89,1.46,81,218,2.0194685459136963,1.3892693519592285
43,-0.019276686012744904,-2.4702160358428955,-0.016912147402763367,36.7147175,3.181553,29.15,-1.07,-0.88,1.46,80,218,2.020247459411621,1.3896405696868896
44,-0.05975740775465965,-2.4694559574127197,0.0077672190964221954,36.7147029,3.1815382,26.91,-1.05,-0.88,1.47,80,218,2.018904685974121,1.3835946321487427
45,-0.042725447565317154,-2.469789981842041,-0.02292211912572384,36.7146859,3.1815211,24.28,-1.06,-0.88,1.47,80,218,2.025449275970459,1.3887213468551636
46,-0.038776643574237823,-2.469398260116577,0.02874433808028698,36.7146713,3.1815063,22.04,-1.05,-0.88,1.47,79,218,2.0197834968566895,1.3791913986206055
47,-0.06108570098876953,-2.4695026874542236,-0.0023717088624835014,36.7146543,3.1814892,19.42,-1.06,-0.88,1.48,79,218,2.029104232788086,1.3853580951690674
48,-0.00906478613615036,-2.4689993858337402,0.015194830484688282,36.7146397,3.1814745,17.17,-1.06,-0.87,1.47,78,218,2.0195703506469727,1.37637460231781
49,-0.07233364880084991,-2.4940524101257324,-0.014851202256977558,36.7146226,3.1814573,14.54,-1.12,-0.85,1.47,78,217,2.0445454120635986,1.4146159887313843
50,-0.16223514080047607,2.9488418102264404,-0.13194547593593597,36.7146008,3.1814499,12.6,-2.24,0.3,0.78,78,168,2.392782211303711,2.261857271194458
51,-0.24702754616737366,2.6773295402526855,0.01507109496742487,36.7145596,3.1814703,12.27,-3.71,1.83,-0.06,77,153,4.142192363739014,4.141682147979736
52,-0.1299198865890503,2.6840109825134277,0.008596966043114662,36.7144962,3.1815094,12.34,-4.02,1.97,0.05,77,153,4.484828948974609,4.48445463180542
53,-0.05115043744444847,-3.077646493911743,0.2754938304424286,36.714445,3.1815287,12.29,-3.31,-0.21,0.04,77,183,3.3208494186401367,3.320600748062134
54,-0.4683915972709656,-2.18941068649292,0.06489328294992447,36.7143968,3.1814799,12.28,-3.2,-4.77,0.02,76,234,5.749870777130127,5.749829292297363
55,-0.4913661777973175,-2.155546188354492,0.03717820718884468,36.7143447,3.1813776,12.28,-4.47,-7.09,0.0,76,236,8.390117645263672,8.390116691589355
56,-0.4589386582374573,-2.1536529064178467,-0.02651301957666874,36.7142687,3.1812289,12.3,-4.97,-7.7,0.0,75,236,9.153812408447266,9.153812408447266
57,-0.32966992259025574,-2.15339732170105,0.030412396416068077,36.7142038,3.1811039,12.32,-4.46,-6.88,0.0,75,236,8.206010818481445,8.206005096435547
58,-0.21988458931446075,-2.1385700702667236,0.009325427003204823,36.7141491,3.1809969,12.3,-3.63,-5.8,0.03,75,237,6.847032070159912,6.8469414710998535
59,-0.2890738248825073,-2.1081595420837402,0.036219317466020584,36.7140951,3.1808851,12.29,-3.27,-5.63,0.01,74,239,6.521189212799072,6.52117919921875
60,-0.25714558362960815,-2.099712610244751,-0.006452796049416065,36.7140514,3.18079,12.29,-3.22,-5.68,0.01,74,239,6.529994487762451,6.5299811363220215
61,-0.0882776752114296,-2.1004655361175537,0.028518477454781532,36.7140027,3.1806835,12.29,-2.74,-4.78,0.0,73,239,5.512477874755859,5.51246976852417
62,0.18334738910198212,-2.1011147499084473,-0.025302549824118614,36.7139751,3.1806235,12.26,-1.16,-2.03,0.01,73,239,2.339864492416382,2.339813709259033
63,0.05940944328904152,-2.1002893447875977,0.02195962704718113,36.7139682,3.1806082,12.27,-0.01,-0.04,-0.01,73,239,0.05224132910370827,0.05083954706788063
64,-0.02907724678516388,-2.102813482284546,0.08531350642442703,36.7139706,3.1806102,12.23,0.45,-0.15,0.01,72,239,0.4790666997432709,0.4789590835571289
