timestamp,pitch,yaw,roll,lat,lon,alt,velocity_x,velocity_y,velocity_z,battery,heading,airspeed,groundspeed
0,-0.017104707658290863,0.0242078248411417,0.019619625061750412,36.7156066,3.18463,14.91,-0.02,0.03,-0.05,96,1,0.06386850774288177,0.037324897944927216
1,-0.12700988352298737,0.08805124461650848,0.07683246582746506,36.7156089,3.1846333,14.94,0.57,0.65,-0.02,95,5,0.8743800520896912,0.8740745782852173
2,-0.16088257730007172,1.1352189779281616,-0.048266973346471786,36.7156271,3.1846576,14.94,2.04,2.25,-0.02,95,65,3.0436618328094482,3.0435683727264404
3,-0.1527405083179474,0.8536134362220764,-1.8425842426950112e-05,36.7156588,3.1847013,14.95,2.47,2.7,-0.01,95,48,3.6678383350372314,3.6678223609924316
4,0.25163283944129944,0.748794674873352,-0.06981965154409409,36.7156927,3.1847454,14.95,1.22,1.08,0.0,94,42,1.635409951210022,1.63540518283844
5,-0.019605066627264023,-0.7207733392715454,-0.24717441201210022,36.7156893,3.1847317,14.98,-1.65,-2.51,0.0,94,318,3.0114192962646484,3.0114142894744873
6,-0.15800359845161438,-2.392859935760498,0.018820445984601974,36.7156554,3.1846699,14.96,-2.31,-3.32,-0.07,93,222,4.05121374130249,4.050538063049316
7,-0.0018703375244513154,-1.9703477621078491,0.13033121824264526,36.715628,3.1846138,14.98,-1.41,-3.16,0.05,93,247,3.464552164077759,3.464191198348999
8,-0.33894264698028564,-0.8579565286636353,0.17927034199237823,36.7156302,3.1845641,14.94,2.08,-2.78,0.0,93,310,3.4787356853485107,3.478729724884033
9,-0.46748510003089905,-0.6053479313850403,-0.017570246011018753,36.7156955,3.1844992,14.94,5.93,-4.12,0.0,92,325,7.227060794830322,7.227056980133057
10,-0.5433506965637207,-0.614500105381012,-0.012970905750989914,36.7157886,3.1844187,14.95,7.6,-5.27,0.0,92,324,9.255105018615723,9.255104064941406
11,-0.4282950758934021,-0.6168256402015686,0.013166138902306557,36.7159125,3.1843109,14.97,7.9,-5.55,0.0,91,324,9.659955024719238,9.659953117370605
12,-0.23325973749160767,-0.6217817664146423,-0.026352113112807274,36.7160131,3.1842223,15.01,6.65,-4.73,0.0,91,324,8.164828300476074,8.164827346801758
13,0.048643968999385834,-0.7166623473167419,-0.09657806158065796,36.7160852,3.1841565,15.0,3.6,-3.15,-0.01,91,318,4.7943949699401855,4.794367790222168
14,-0.3501974642276764,-2.009523391723633,-0.17794659733772278,36.7161032,3.1840972,15.54,-1.41,-3.5,-0.6,90,244,3.8309237957000732,3.782274007797241
15,-0.4496287405490875,-2.178953170776367,0.03968358412384987,36.716063,3.1840206,16.97,-4.15,-5.84,-1.23,90,235,7.27510929107666,7.170265197753906
16,-0.4882567822933197,-2.165475606918335,-0.02431507408618927,36.7159847,3.1838818,19.57,-5.39,-7.84,-1.59,89,235,9.659040451049805,9.526666641235352
17,-0.4976423978805542,-2.166006088256836,0.016500674188137054,36.7159102,3.1837461,22.05,-5.52,-8.13,-1.57,89,235,9.95970630645752,9.835031509399414
18,-0.4277020990848541,-2.1633965969085693,-0.002389603992924094,36.7158223,3.1835835,24.9,-5.57,-8.26,-1.58,88,236,10.099509239196777,9.97456169128418
19,-0.4593769907951355,-2.1635003089904785,-0.03169843181967735,36.7157471,3.1834437,27.37,-5.53,-8.21,-1.59,88,236,10.03935432434082,9.911310195922852
20,-0.48713088035583496,-2.1673152446746826,0.02408352680504322,36.7156722,3.1833047,29.86,-5.51,-8.24,-1.6,88,235,10.046121597290039,9.916646003723145
21,-0.427094966173172,-2.164527654647827,0.0007930680294521153,36.7155853,3.1831423,32.77,-5.52,-8.29,-1.61,87,235,10.099785804748535,9.969793319702148
22,-0.46166324615478516,-2.1642723083496094,-0.025359753519296646,36.7155105,3.1830021,35.26,-5.51,-8.3,-1.62,87,236,10.095283508300781,9.964338302612305
23,-0.4519575536251068,-2.1646456718444824,0.040604475885629654,36.7154232,3.1828391,38.18,-5.51,-8.27,-1.63,86,235,10.072397232055664,9.939413070678711
24,-0.4257226288318634,-2.1652417182922363,0.0007795336423441768,36.7153486,3.1826997,40.69,-5.51,-8.31,-1.62,86,235,10.107035636901855,9.97532844543457
25,-0.4661841094493866,-2.1662397384643555,-0.0240896325558424,36.7152739,3.1825597,43.18,-5.52,-8.3,-1.62,85,235,10.108098983764648,9.975934982299805
26,-0.4755096435546875,-2.164689779281616,0.03346987068653107,36.7151867,3.1823965,46.1,-5.51,-8.27,-1.63,85,235,10.080832481384277,9.947246551513672
27,-0.42370229959487915,-2.1647746562957764,0.002980269491672516,36.7151119,3.1822567,48.61,-5.52,-8.3,-1.63,84,235,10.11047649383545,9.977201461791992
28,-0.37121468782424927,-2.1652145385742188,3.5425480746198446e-05,36.7150256,3.1820956,51.5,-5.2,-7.74,-1.54,84,235,9.45777702331543,9.331180572509766
29,-0.06645015627145767,-2.1677393913269043,0.031351156532764435,36.7149637,3.1819809,53.57,-3.75,-5.57,-1.05,84,235,6.8097147941589355,6.7269606590271
30,-0.15225926041603088,-2.1365928649902344,0.014273151755332947,36.7149179,3.1818928,54.74,-2.3,-3.75,-0.31,83,237,4.414910793304443,4.403895854949951
31,-0.12104225158691406,-2.1041877269744873,0.0193341001868248,36.7148885,3.1818308,54.93,-2.09,-3.67,-0.02,83,239,4.2297234535217285,4.229649066925049
32,-0.11202161759138107,-2.1028549671173096,-0.013911738060414791,36.7148603,3.1817693,54.92,-2.03,-3.61,-0.03,82,239,4.1437249183654785,4.143605709075928
33,0.07315865159034729,-2.177030563354492,-0.05110368877649307,36.7148336,3.1817127,54.63,-1.31,-1.96,0.56,82,235,2.4343831539154053,2.368882656097412
34,-0.018443509936332703,-2.467637777328491,-0.01799674890935421,36.7148173,3.1816901,52.85,-1.08,-0.9,1.49,82,218,2.0580556392669678,1.4093986749649048
35,-0.02601577341556549,-2.4701638221740723,-0.02073606662452221,36.7148009,3.1816746,50.19,-1.03,-0.8,1.42,81,218,1.9361566305160522,1.3143749237060547
36,-0.04955316707491875,-2.4699623584747314,0.027768364176154137,36.7147868,3.1816608,47.95,-1.04,-0.86,1.43,81,218,1.9766677618026733,1.3614449501037598
37,-0.018504224717617035,-2.470136880874634,-0.01892208121716976,36.7147724,3.1816465,45.7,-1.07,-0.87,1.43,81,218,1.9966291189193726,1.3886018991470337
38,-0.023819267749786377,-2.4699864387512207,0.02503179758787155,36.7147554,3.1816295,43.1,-1.05,-0.87,1.45,80,218,1.9982274770736694,1.3725069761276245
39,-0.03735426813364029,-2.4698121547698975,-0.02626820281147957,36.7147409,3.1816149,40.85,-1.07,-0.88,1.45,80,218,2.016016960144043,1.3921664953231812
40,-0.007353899069130421,-2.469747304916382,0.0037146599497646093,36.7147239,3.1815977,38.23,-1.08,-0.88,1.46,79,218,2.0215559005737305,1.3972004652023315
41,-0.056016989052295685,-2.4694390296936035,-0.01084939856082201,36.7147092,3.181583,35.99,-1.07,-0.88,1.46,79,218,2.022524118423462,1.3902250528335571
42,-0.014473780989646912,-2.4700703620910645,0.01745377667248249,36.7146946,3.1815684,33.75,-1.06,-0.87,1.47,79,218,2.0191688537597656,1.376171350479126
43,-0.058364398777484894,-2.4701526165008545,0.019258571788668633,36.7146777,3.1815512,31.12,-1.06,-0.89,1.47,78,218,2.024930715560913,1.3881559371948242
44,-0.008115874603390694,-2.4699063301086426,-0.006976076401770115,36.7146631,3.1815365,28.87,-1.08,-0.88,1.47,78,218,2.031362295150757,1.3989208936691284
45,-0.03395164757966995,-2.4700586795806885,0.02989296428859234,36.714646,3.1815193,26.25,-1.05,-0.87,1.48,78,218,2.020064115524292,1.374576210975647
46,-0.03147304058074951,-2.470203161239624,-0.023209577426314354,36.7146315,3.1815046,24.0,-1.06,-0.88,1.47,77,218,2.0260655879974365,1.385189414024353
47,-0.050787586718797684,-2.4699480533599854,0.024252282455563545,36.7146169,3.1814898,21.75,-1.06,-0.88,1.47,77,218,2.0213630199432373,1.3829315900802612
48,-0.05102173611521721,-2.4696717262268066,-0.018340008333325386,36.7145998,3.1814727,19.13,-1.07,-0.88,1.47,77,218,2.026887893676758,1.387364387512207
49,-0.051913727074861526,-2.557483673095703,-0.03525682911276817,36.7145849,3.1814582,16.87,-1.21,-0.79,1.46,76,213,2.065641164779663,1.4524257183074951
50,-0.2696716785430908,2.7425172328948975,-0.056773606687784195,36.7145549,3.1814563,15.0,-2.78,0.99,0.31,76,157,2.977982759475708,2.9613797664642334
51,-0.17547722160816193,2.6791911125183105,-0.007286406587809324,36.7145076,3.1814834,14.99,-3.97,1.96,-0.06,75,153,4.435777187347412,4.435245037078857
52,-0.09302262216806412,2.742497444152832,0.12128248810768127,36.7144437,3.1815221,15.01,-3.88,1.58,0.06,75,157,4.1946916580200195,4.194149971008301
53,-0.1726321280002594,-2.6664581298828125,0.24453707039356232,36.7143962,3.1815274,14.96,-3.0,-1.47,0.03,75,207,3.3524434566497803,3.352271556854248
54,-0.4902583658695221,-2.177694320678711,0.06741799414157867,36.7143547,3.1814701,14.96,-3.39,-5.26,0.02,74,235,6.265735626220703,6.265684604644775
55,-0.45504072308540344,-2.152298927307129,-0.017209377139806747,36.7142895,3.1813411,14.97,-4.7,-7.45,0.0,74,236,8.820391654968262,8.820391654968262
56,-0.46243253350257874,-2.151564598083496,-0.01768122985959053,36.7142234,3.1812124,14.98,-4.96,-7.69,0.01,73,236,9.161365509033203,9.161359786987305
57,-0.24338431656360626,-2.151061773300171,0.019695350900292397,36.7141499,3.1810706,15.0,-4.2,-6.53,0.02,73,236,7.768828868865967,7.768792152404785
58,-0.29595741629600525,-2.1306047439575195,-0.006776830181479454,36.7140986,3.1809689,14.97,-3.49,-5.71,0.03,73,237,6.696880340576172,6.696795463562012
59,-0.27183210849761963,-2.1054134368896484,0.038054026663303375,36.7140533,3.1808733,14.97,-3.24,-5.63,0.0,72,239,6.500036716461182,6.500029563903809
60,-0.2844226658344269,-2.1000893115997314,-0.019954361021518707,36.7140025,3.1807624,14.96,-3.23,-5.66,0.0,72,239,6.522698879241943,6.522694110870361
61,-0.025868192315101624,-2.100261688232422,0.02673480287194252,36.7139619,3.1806743,14.97,-2.54,-4.46,0.01,71,239,5.139622688293457,5.139591217041016
62,0.11912177503108978,-2.100259780883789,-0.004206381738185883,36.713936,3.1806177,14.94,-0.67,-1.2,-0.01,71,239,1.3783042430877686,1.3782202005386353
63,0.055614933371543884,-2.1001346111297607,0.010309618897736073,36.7139331,3.1806113,14.95,0.09,0.14,0.0,71,239,0.17381055653095245,0.1737605631351471
64,-0.04263533279299736,-2.093015432357788,0.11238272488117218,36.7139362,3.1806126,14.91,0.61,-0.29,-0.01,70,240,0.6835416555404663,0.6834515333175659
