timestamp,pitch,yaw,roll,lat,lon,alt,velocity_x,velocity_y,velocity_z,battery,heading,airspeed,groundspeed
0,-0.02504212036728859,0.038296278566122055,0.007098000962287188,36.7156066,3.1846299,24.55,-0.01,0.02,-0.11,96,2,0.11785835027694702,0.02926594763994217
1,-0.06725878268480301,0.058472394943237305,0.07530605047941208,36.7156081,3.1846333,24.64,0.31,0.66,-0.07,95,3,0.7428157329559326,0.7387491464614868
2,-0.14675873517990112,1.5742275714874268,-0.06302083283662796,36.7156188,3.1846583,24.66,1.25,2.39,-0.04,95,90,2.705029249191284,2.704725980758667
3,-0.1421741098165512,0.9179043769836426,0.016000499948859215,36.7156391,3.1847057,24.66,1.59,3.02,-0.01,95,52,3.4207825660705566,3.4207303524017334
4,0.24609830975532532,1.0997995138168335,-0.003007920691743493,36.7156607,3.1847563,24.65,0.66,1.37,0.0,94,63,1.5230320692062378,1.5230058431625366
5,0.03556258603930473,2.3899178504943848,0.29794415831565857,36.7156536,3.1847459,24.68,-1.66,-2.4,-0.01,94,136,2.9272842407226562,2.9272537231445312
6,-0.15978100895881653,-2.0851829051971436,-0.03219934180378914,36.7156203,3.184685,24.66,-2.26,-3.3,-0.08,93,240,4.007247447967529,4.006336688995361
7,0.004241296090185642,-2.091212034225464,0.13100561499595642,36.7155928,3.1846291,24.68,-1.4,-3.2,0.03,93,240,3.494286298751831,3.494091749191284
8,-0.34657227993011475,-0.7454224228858948,0.16709408164024353,36.7155993,3.1845714,24.64,2.61,-2.84,0.0,93,317,3.864915609359741,3.864915609359741
9,-0.45623353123664856,-0.6090635061264038,-0.005917137023061514,36.7156578,3.184515,24.65,5.86,-4.07,0.0,92,325,7.137218475341797,7.137214660644531
10,-0.5401297211647034,-0.6152711510658264,-0.017043523490428925,36.7157503,3.1844353,24.66,7.59,-5.22,0.0,92,324,9.217556953430176,9.217555046081543
11,-0.44026628136634827,-0.6177985668182373,0.01828078366816044,36.715874,3.1843278,24.68,7.9,-5.57,0.0,91,324,9.673393249511719,9.67339038848877
12,-0.2418951541185379,-0.6216265559196472,-0.025739636272192,36.7159752,3.1842387,24.72,6.7,-4.77,0.0,91,324,8.229239463806152,8.229239463806152
13,0.10203234106302261,-0.7860033512115479,-0.13193221390247345,36.7160564,3.1841634,24.72,3.05,-3.03,-0.06,91,314,4.3052825927734375,4.304803371429443
14,-0.33824852108955383,-1.982958436012268,-0.18916089832782745,36.7160686,3.184113,25.21,-1.32,-3.43,-0.59,90,246,3.725299596786499,3.6779282093048096
15,-0.450910359621048,-2.1790733337402344,0.0447881817817688,36.7160296,3.184038,26.62,-4.09,-5.75,-1.21,90,235,7.172239303588867,7.0683512687683105
16,-0.48700177669525146,-2.1667778491973877,-0.025118328630924225,36.7159519,3.1839001,29.19,-5.38,-7.83,-1.59,89,235,9.64289665222168,9.509605407714844
17,-0.4910571277141571,-2.165802001953125,0.01702922023832798,36.7158772,3.1837642,31.66,-5.5,-8.11,-1.58,89,235,9.933595657348633,9.806546211242676
18,-0.43132612109184265,-2.1624691486358643,-0.004985442850738764,36.7157898,3.1836023,34.53,-5.57,-8.26,-1.58,88,236,10.09426212310791,9.968902587890625
19,-0.4632992446422577,-2.163055181503296,-0.032702796161174774,36.7157144,3.1834624,37.0,-5.55,-8.24,-1.6,88,236,10.073095321655273,9.944502830505371
20,-0.44616591930389404,-2.1661248207092285,0.04229956865310669,36.7156269,3.1832999,39.9,-5.5,-8.26,-1.61,87,235,10.064105033874512,9.933063507080078
21,-0.42802396416664124,-2.165524959564209,-0.0019898212049156427,36.7155525,3.1831606,42.4,-5.52,-8.29,-1.61,87,235,10.092820167541504,9.962934494018555
22,-0.46803244948387146,-2.1641600131988525,-0.03123692236840725,36.7154778,3.1830206,44.89,-5.51,-8.29,-1.61,87,236,10.094600677490234,9.96395206451416
23,-0.447430282831192,-2.164954900741577,0.03545079752802849,36.7153904,3.1828573,47.8,-5.51,-8.27,-1.64,86,235,10.07956600189209,9.944999694824219
24,-0.43020716309547424,-2.1630825996398926,-0.011163451708853245,36.7153159,3.1827179,50.31,-5.51,-8.29,-1.63,86,236,10.091897964477539,9.958537101745605
25,-0.49107086658477783,-2.163259506225586,0.012034911662340164,36.7152288,3.1825547,53.23,-5.51,-8.28,-1.63,85,236,10.086685180664062,9.95407485961914
26,-0.45304057002067566,-2.1638410091400146,0.033741891384124756,36.7151538,3.1824148,55.72,-5.51,-8.27,-1.64,85,236,10.084060668945312,9.94894790649414
27,-0.4655592441558838,-2.164808511734009,-0.02395225316286087,36.7150666,3.1822518,58.65,-5.51,-8.29,-1.63,84,235,10.09462833404541,9.960689544677734
28,-0.38553011417388916,-2.1651270389556885,0.005061877425760031,36.7149928,3.1821142,61.13,-5.25,-7.82,-1.55,84,235,9.55632209777832,9.42943286895752
29,-0.0662863701581955,-2.1672589778900146,0.020867491140961647,36.7149301,3.1819978,63.22,-3.8,-5.68,-1.08,83,235,6.928832530975342,6.8433613777160645
30,-0.1427113115787506,-2.13832950592041,0.028616072610020638,36.7148836,3.1819083,64.43,-2.31,-3.75,-0.33,83,237,4.424770832061768,4.4124064445495605
31,-0.11913971602916718,-2.105194568634033,0.009765362367033958,36.7148542,3.1818465,64.64,-2.09,-3.66,-0.02,83,239,4.223326206207275,4.223237037658691
32,-0.08759603649377823,-2.1030373573303223,0.028247961774468422,36.7148215,3.1817751,64.63,-1.98,-3.51,-0.02,82,239,4.032288551330566,4.032180309295654
33,0.06975612789392471,-2.169020175933838,-0.05758696421980858,36.7147989,3.1817276,64.37,-1.33,-2.01,0.52,82,235,2.4768941402435303,2.4199559688568115
34,-0.014040165580809116,-2.4630908966064453,-0.008385241962969303,36.7147826,3.1817043,62.63,-1.07,-0.91,1.49,82,218,2.0616648197174072,1.4177510738372803
35,-0.03781069815158844,-2.469249963760376,-0.025552470237016678,36.7147662,3.1816888,59.98,-1.03,-0.81,1.42,81,218,1.9399851560592651,1.31815505027771
36,-0.03710000589489937,-2.469407081604004,0.030950583517551422,36.714752,3.1816751,57.74,-1.06,-0.86,1.44,81,218,1.9873679876327515,1.3668367862701416
37,-0.05948358774185181,-2.4695346355438232,-0.011686315760016441,36.7147352,3.1816584,55.12,-1.07,-0.88,1.44,80,218,2.0021755695343018,1.3890914916992188
38,-0.015362918376922607,-2.469935417175293,0.015416845679283142,36.7147206,3.1816438,52.88,-1.06,-0.87,1.45,80,218,2.000504732131958,1.377646803855896
39,-0.05532005429267883,-2.470097780227661,0.021493034437298775,36.7147037,3.1816266,50.27,-1.06,-0.88,1.46,80,218,2.0205941200256348,1.393305778503418
40,-0.009226087480783463,-2.469878673553467,-0.010236911475658417,36.7146891,3.181612,48.02,-1.07,-0.88,1.46,79,218,2.0249040126800537,1.395238995552063
41,-0.06064791604876518,-2.4695801734924316,0.0005033533088862896,36.7146745,3.1815974,45.77,-1.07,-0.89,1.46,79,218,2.0226223468780518,1.3922349214553833
42,-0.03393225371837616,-2.4702389240264893,-0.02377491630613804,36.7146575,3.1815802,43.16,-1.07,-0.88,1.47,79,218,2.0291504859924316,1.3896795511245728
43,-0.046205826103687286,-2.4701080322265625,0.02980167232453823,36.7146429,3.1815654,40.91,-1.06,-0.89,1.47,78,218,2.0261447429656982,1.3850995302200317
44,-0.050680384039878845,-2.469649314880371,-0.01599390059709549,36.7146259,3.1815483,38.28,-1.07,-0.89,1.47,78,218,2.0333409309387207,1.4006097316741943
45,-0.018635611981153488,-2.4696950912475586,0.02249344252049923,36.7146113,3.1815336,36.03,-1.06,-0.87,1.47,78,218,2.020129919052124,1.375074863433838
46,-0.04646751284599304,-2.4701108932495117,-0.02226014994084835,36.7145967,3.1815189,33.78,-1.06,-0.88,1.47,77,218,2.0285661220550537,1.3880207538604736
47,-0.0069443779066205025,-2.469877004623413,-0.003362300107255578,36.7145798,3.1815017,31.15,-1.06,-0.88,1.47,77,218,2.020530939102173,1.3840066194534302
48,-0.05787457153201103,-2.469698190689087,-0.00639005284756422,36.7145651,3.1814869,28.91,-1.07,-0.88,1.47,76,218,2.0281689167022705,1.3937746286392212
49,-0.06137098744511604,-2.6526167392730713,-0.09838265925645828,36.7145474,3.1814702,26.29,-1.35,-0.7,1.44,76,208,2.10481333732605,1.5278102159500122
50,-0.25673186779022217,2.749030113220215,-0.0483558364212513,36.7145208,3.1814699,24.73,-2.72,0.95,0.35,76,157,2.913494348526001,2.8912899494171143
51,-0.18228566646575928,2.670990228652954,-0.021120183169841766,36.7144745,3.1814968,24.7,-3.91,1.97,-0.07,75,153,4.384002208709717,4.3833770751953125
52,-0.07040895521640778,2.7378718852996826,0.1150672510266304,36.7144113,3.1815357,24.72,-3.84,1.59,0.06,75,156,4.162055015563965,4.161491394042969
53,-0.19291722774505615,-2.6749911308288574,0.237282395362854,36.7143641,3.1815412,24.67,-3.0,-1.45,0.03,75,206,3.3365514278411865,3.3363890647888184
54,-0.45063579082489014,-2.159271717071533,0.044023025780916214,36.7143144,3.1814687,24.67,-3.66,-5.73,0.02,74,236,6.802937984466553,6.802900314331055
55,-0.4807448387145996,-2.157891035079956,-0.027218462899327278,36.7142565,3.1813556,24.67,-4.74,-7.43,0.0,74,236,8.822347640991211,8.822344779968262
56,-0.45397236943244934,-2.154460906982422,-0.00678170844912529,36.7141898,3.1812264,24.69,-4.96,-7.67,0.0,73,236,9.140584945678711,9.140584945678711
57,-0.24685636162757874,-2.1553447246551514,-0.006394021213054657,36.7141158,3.1810854,24.7,-4.24,-6.52,0.02,73,236,7.7846150398254395,7.784582138061523
58,-0.30305546522140503,-2.1336658000946045,0.014010402373969555,36.714064,3.1809837,24.68,-3.5,-5.71,0.02,73,237,6.702479839324951,6.702414035797119
59,-0.25251394510269165,-2.103576421737671,-0.00786774605512619,36.7140112,3.1808723,24.67,-3.24,-5.62,0.0,72,239,6.496235370635986,6.496230125427246
60,-0.29570236802101135,-2.1005799770355225,0.0031374969985336065,36.7139676,3.1807773,24.67,-3.23,-5.68,0.0,72,239,6.535751819610596,6.535747051239014
61,0.037542909383773804,-2.1007184982299805,-0.019472554326057434,36.7139215,3.1806769,24.67,-2.34,-4.09,0.02,71,239,4.718479633331299,4.718396186828613
62,0.12959006428718567,-2.100822925567627,0.021290360018610954,36.7139008,3.1806319,24.64,-0.7,-1.23,-0.01,71,239,1.4172484874725342,1.41713547706604
63,-0.000868135888595134,-2.100193738937378,-0.029808368533849716,36.7138981,3.1806257,24.66,0.11,0.17,0.01,71,239,0.2098875790834427,0.20957766473293304
