timestamp,pitch,yaw,roll,lat,lon,alt,velocity_x,velocity_y,velocity_z,battery,heading,airspeed,groundspeed
0,0.00808725692331791,-0.0008324925438500941,0.02828323282301426,36.7156066,3.1846299,13.15,-0.02,0.02,-0.02,96,359,0.04555569589138031,0.03449340909719467
1,-0.09134354442358017,0.013070140033960342,0.10554686188697815,36.7156083,3.1846329,13.16,0.4,0.6,-0.01,95,0,0.7283793091773987,0.7281548380851746
2,-0.21260051429271698,1.3903173208236694,-0.12894207239151,36.7156218,3.1846561,13.16,1.72,2.39,-0.06,95,79,2.9531772136688232,2.95249080657959
3,-0.22133365273475647,0.8587201833724976,0.03651750460267067,36.7156525,3.1847093,13.16,2.66,3.71,0.0,95,49,4.572901725769043,4.572895526885986
4,-0.14555621147155762,0.9265114068984985,-0.015004250220954418,36.715697,3.1847844,13.17,2.76,3.74,0.0,94,53,4.6604413986206055,4.6604323387146
5,0.2995314300060272,0.9142009615898132,0.016366668045520782,36.7157269,3.1848336,13.17,1.14,1.48,-0.01,94,52,1.878022313117981,1.8779934644699097
6,0.10884925723075867,-0.1500285416841507,-0.2591008245944977,36.7157229,3.184824,13.2,-1.63,-2.37,0.0,93,351,2.8788580894470215,2.8788535594940186
7,-0.11127592623233795,-1.9808509349822998,-0.042170844972133636,36.7156901,3.1847647,13.18,-2.28,-3.24,-0.07,93,246,3.973640203475952,3.9729087352752686
8,-0.0626763179898262,-1.9976240396499634,0.12366236746311188,36.7156623,3.1847096,13.2,-1.57,-3.18,0.04,93,245,3.5521528720855713,3.551806926727295
9,-0.3410526514053345,-0.818596601486206,0.15366899967193604,36.7156634,3.1846517,13.16,2.18,-2.76,0.0,92,313,3.5258841514587402,3.525881767272949
10,-0.4542258679866791,-0.6141902804374695,0.02652237005531788,36.7157164,3.1845977,13.16,5.5,-3.87,0.0,92,324,6.7304463386535645,6.730443954467773
11,-0.5446376204490662,-0.6185505390167236,-0.008856118656694889,36.7158219,3.1845057,13.17,7.6,-5.25,0.0,91,324,9.245065689086914,9.245064735412598
12,-0.473375529050827,-0.6205328702926636,0.02978617511689663,36.7159276,3.1844134,13.19,7.87,-5.55,0.0,91,324,9.637011528015137,9.63701057434082
13,-0.24608559906482697,-0.624236524105072,-0.008550040423870087,36.7160296,3.184323,13.22,6.88,-4.91,0.0,91,324,8.457829475402832,8.45782470703125
14,0.06494742631912231,-0.7341434955596924,-0.10028211772441864,36.7161153,3.1842446,13.22,3.49,-3.14,-0.02,90,317,4.70399284362793,4.703898906707764
15,-0.2765073776245117,-1.8679609298706055,-0.24747253954410553,36.716134,3.1841943,13.63,-0.86,-3.27,-0.52,90,252,3.426182270050049,3.3855228424072266
16,-0.43639835715293884,-2.1796751022338867,0.028810814023017883,36.7160903,3.1841068,15.25,-4.21,-5.9,-1.24,89,235,7.359811305999756,7.25334358215332
17,-0.45764076709747314,-2.1656992435455322,-0.029647616669535637,36.7160241,3.1839897,17.45,-5.36,-7.73,-1.57,89,235,9.546957969665527,9.415534973144531
18,-0.47268086671829224,-2.1665804386138916,0.03673827648162842,36.7159364,3.1838312,20.32,-5.53,-8.12,-1.58,88,235,9.961904525756836,9.834330558776855
19,-0.4247942864894867,-2.1643598079681396,0.013600815087556839,36.7158609,3.183692,22.78,-5.54,-8.23,-1.58,88,236,10.051624298095703,9.925601959228516
20,-0.4523337185382843,-2.1637330055236816,-0.029354998841881752,36.7157862,3.1835526,25.26,-5.5,-8.26,-1.59,88,236,10.053559303283691,9.926706314086914
21,-0.47013160586357117,-2.16328501701355,0.034482840448617935,36.7156994,3.1833902,28.14,-5.52,-8.26,-1.61,87,236,10.073651313781738,9.94297981262207
22,-0.4245091676712036,-2.163275957107544,0.015616289339959621,36.7156244,3.1832505,30.64,-5.52,-8.25,-1.61,87,236,10.069296836853027,9.938210487365723
23,-0.4909602999687195,-2.1649703979492188,-0.0021417231764644384,36.715537,3.1830879,33.55,-5.5,-8.27,-1.62,86,235,10.072547912597656,9.941183090209961
24,-0.4618675708770752,-2.165789842605591,0.039077404886484146,36.7154624,3.1829483,36.05,-5.51,-8.31,-1.63,86,235,10.106287002563477,9.97293472290039
25,-0.4231194853782654,-2.1645588874816895,0.008945079520344734,36.7153877,3.1828081,38.55,-5.51,-8.31,-1.63,85,235,10.11515998840332,9.981477737426758
26,-0.48931941390037537,-2.1647913455963135,-0.003970853053033352,36.7153005,3.1826449,41.47,-5.51,-8.28,-1.63,85,235,10.08150863647461,9.948517799377441
27,-0.45825275778770447,-2.163858652114868,0.03857600316405296,36.7152259,3.1825053,43.97,-5.51,-8.3,-1.64,84,236,10.102241516113281,9.967453002929688
28,-0.4480338394641876,-2.1648011207580566,-0.03273379057645798,36.7151385,3.1823422,46.9,-5.54,-8.29,-1.63,84,235,10.109820365905762,9.976542472839355
29,-0.4021073579788208,-2.166942834854126,0.0012255263281986117,36.7150642,3.1822035,49.39,-5.32,-7.92,-1.57,84,235,9.67706298828125,9.548619270324707
30,-0.10706182569265366,-2.1667535305023193,0.02809290774166584,36.715,3.1820841,51.55,-4.01,-5.97,-1.16,83,235,7.291857719421387,7.197761535644531
31,-0.11781783401966095,-2.1376638412475586,0.02400483377277851,36.7149511,3.1819909,52.89,-2.36,-3.81,-0.38,83,237,4.505444049835205,4.489104747772217
32,-0.11075937002897263,-2.091397762298584,0.019925951957702637,36.714922,3.1819286,53.15,-2.02,-3.65,-0.04,82,240,4.181251525878906,4.181038856506348
33,-0.11525995284318924,-2.087721586227417,0.024717630818486214,36.7148905,3.1818571,53.14,-1.94,-3.59,-0.03,82,240,4.089903831481934,4.089792728424072
34,0.07588613033294678,-2.1351354122161865,-0.047376375645399094,36.7148679,3.181807,52.95,-1.36,-2.23,0.4,82,237,2.651806592941284,2.620030164718628
35,0.006205933168530464,-2.472508430480957,0.00951195415109396,36.7148488,3.1817789,50.98,-1.07,-0.89,1.49,81,218,2.0513367652893066,1.4003978967666626
36,-0.04071744903922081,-2.466770887374878,-0.02158208005130291,36.7148347,3.1817657,48.7,-1.03,-0.79,1.42,81,218,1.9295121431350708,1.3025531768798828
37,-0.04081433638930321,-2.469296455383301,0.03041946515440941,36.7148207,3.1817522,46.47,-1.05,-0.85,1.44,81,218,1.978454828262329,1.3532973527908325
38,-0.06249081715941429,-2.4700818061828613,-0.0025431260000914335,36.7148039,3.1817353,43.85,-1.08,-0.88,1.44,80,218,2.0128965377807617,1.3985893726348877
39,-0.01764596998691559,-2.4694504737854004,0.020384494215250015,36.7147892,3.1817206,41.61,-1.07,-0.87,1.44,80,218,2.0042073726654053,1.3838906288146973
40,-0.054991766810417175,-2.4703352451324463,0.022768666967749596,36.7147723,3.1817037,38.99,-1.07,-0.88,1.46,79,218,2.0153026580810547,1.3867591619491577
41,-0.010623378679156303,-2.4699087142944336,-0.010634739883244038,36.7147577,3.181689,36.75,-1.07,-0.88,1.46,79,218,2.0195021629333496,1.388688564300537
42,-0.057975731790065765,-2.4706602096557617,0.012749319896101952,36.7147431,3.1816743,34.5,-1.06,-0.89,1.46,79,218,2.022291898727417,1.3927874565124512
43,-0.03817405551671982,-2.4696552753448486,-0.029731832444667816,36.7147262,3.1816571,31.89,-1.07,-0.88,1.47,78,218,2.0329670906066895,1.3956023454666138
44,-0.038769807666540146,-2.4701828956604004,0.030590588226914406,36.7147114,3.1816424,29.63,-1.06,-0.88,1.47,78,218,2.0252673625946045,1.3832051753997803
45,-0.059241022914648056,-2.46962308883667,-0.008372902870178223,36.7146944,3.1816253,27.01,-1.06,-0.88,1.47,78,218,2.0211055278778076,1.3820267915725708
46,-0.01416774932295084,-2.469815492630005,0.01671002432703972,36.71468,3.1816106,24.76,-1.05,-0.87,1.47,77,218,2.020629405975342,1.37690269947052
47,-0.05341704934835434,-2.4704549312591553,0.022107288241386414,36.7146629,3.1815934,22.14,-1.06,-0.89,1.48,77,218,2.0336945056915283,1.3908888101577759
48,-0.00953921489417553,-2.4696736335754395,-0.002905219327658415,36.7146483,3.1815787,19.88,-1.06,-0.87,1.47,77,218,2.0195517539978027,1.3779278993606567
49,-0.061822909861803055,-2.4700896739959717,0.009070856496691704,36.7146337,3.181564,17.63,-1.05,-0.87,1.47,76,218,2.016416072845459,1.3738433122634888
50,-0.06568371504545212,-2.579458475112915,-0.08899883180856705,36.7146163,3.1815472,15.02,-1.26,-0.78,1.47,76,212,2.0903213024139404,1.4848737716674805
51,-0.2261817902326584,2.8089261054992676,-0.05629447475075722,36.7145915,3.181544,13.32,-2.54,0.71,0.5,75,160,2.6894023418426514,2.6424314975738525
52,-0.22759220004081726,2.6795568466186523,-0.01407360378652811,36.7145376,3.1815741,13.21,-3.99,1.97,-0.06,75,153,4.459651947021484,4.4591193199157715
53,-0.07134955376386642,2.7116546630859375,0.09051567316055298,36.7144826,3.1816079,13.23,-3.95,1.77,0.06,75,155,4.3382158279418945,4.337744235992432
54,-0.24562206864356995,-2.6281676292419434,0.2756568193435669,36.7144267,3.1816159,13.18,-2.98,-1.63,0.03,74,209,3.401268243789673,3.401125192642212
55,-0.4318641722202301,-2.169603109359741,0.04422784224152565,36.7143849,3.1815558,13.18,-3.44,-5.36,0.02,74,235,6.379606246948242,6.379569053649902
56,-0.5065131187438965,-2.1552956104278564,-0.02236182428896427,36.7143298,3.1814472,13.18,-4.61,-7.36,0.0,73,236,8.692562103271484,8.692558288574219
57,-0.4005262851715088,-2.1515939235687256,0.024264099076390266,36.7142527,3.1812965,13.2,-4.94,-7.68,0.0,73,236,9.144533157348633,9.14453125
58,-0.28629758954048157,-2.152757167816162,-0.021550634875893593,36.7141893,3.1811742,13.21,-4.3,-6.66,0.01,73,236,7.935125827789307,7.935103416442871
59,-0.25888973474502563,-2.1326305866241455,0.03522060811519623,36.7141287,3.1810547,13.19,-3.51,-5.7,0.02,72,237,6.69942045211792,6.699373245239258
60,-0.27931851148605347,-2.1130807399749756,-0.018714847043156624,36.7140828,3.1809592,13.18,-3.31,-5.64,0.0,72,238,6.542727470397949,6.542724609375
61,-0.3003070652484894,-2.1085360050201416,0.028554853051900864,36.7140382,3.180864,13.18,-3.28,-5.65,0.0,71,239,6.534077167510986,6.534073352813721
62,-0.037672389298677444,-2.1089484691619873,-0.02626788429915905,36.71399,3.1807612,13.18,-2.54,-4.37,0.01,71,239,5.058166980743408,5.058136940002441
63,0.16156679391860962,-2.10943341255188,0.025947121903300285,36.7139663,3.1807106,13.15,-0.89,-1.53,0.0,71,239,1.7757066488265991,1.7756839990615845
64,-0.003867924213409424,-2.1096079349517822,0.004166464786976576,36.7139619,3.180701,13.17,0.1,0.14,0.0,70,239,0.1790575534105301,0.17897456884384155
65,0.0004764388722833246,-2.0839521884918213,0.15839827060699463,36.7139653,3.180702,13.13,0.67,-0.32,-0.01,70,240,0.7464156150817871,0.7463282942771912
