timestamp,pitch,yaw,roll,lat,lon,alt,velocity_x,velocity_y,velocity_z,battery,heading,airspeed,groundspeed
0,-0.012564768083393574,0.017040351405739784,-0.021946636959910393,36.7156067,3.18463,25.66,-0.02,0.02,0.01,96,0,0.03385135158896446,0.029712200164794922
1,-0.05947629362344742,0.06668616086244583,0.08719363063573837,36.7156084,3.1846335,25.68,0.41,0.7,0.0,95,3,0.8209859728813171,0.8209550380706787
2,-0.2296288013458252,1.493695616722107,-0.09460068494081497,36.7156219,3.1846605,25.64,1.7,2.69,-0.04,95,85,3.194530487060547,3.1942670345306396
3,-0.2286016196012497,0.9097395539283752,-0.01798602193593979,36.7156513,3.184718,25.69,2.5,3.94,-0.05,95,52,4.679954528808594,4.67959451675415
4,-0.059016402810811996,0.9872915744781494,-0.0009613762958906591,36.7156922,3.1847965,25.73,2.44,3.77,-0.03,94,56,4.49989128112793,4.499730587005615
5,0.29675713181495667,1.0087897777557373,0.01979861594736576,36.7157165,3.1848424,25.75,0.61,1.0,0.0,94,57,1.1764291524887085,1.176424264907837
6,-0.0012879051500931382,2.483729362487793,0.19570496678352356,36.7157026,3.1848179,25.77,-2.0,-2.87,-0.04,93,142,3.505979299545288,3.505667209625244
7,-0.1235036849975586,-2.283379316329956,0.04124967381358147,36.7156727,3.1847637,25.78,-2.2,-3.26,0.0,93,229,3.9334311485290527,3.9334239959716797
8,-0.024246634915471077,-1.9529634714126587,0.18542110919952393,36.715644,3.1847001,25.76,-0.88,-3.02,0.0,93,248,3.15134596824646,3.1513376235961914
9,-0.31743040680885315,-0.7292619347572327,0.11678817868232727,36.7156547,3.1846524,25.76,2.73,-2.83,0.0,92,318,3.9392385482788086,3.9392383098602295
10,-0.519769012928009,-0.6079534888267517,0.0036776107735931873,36.7157141,3.1845961,25.76,5.89,-4.1,0.0,92,325,7.18550968170166,7.18550443649292
11,-0.4799320101737976,-0.6146748065948486,-0.009063920937478542,36.7158241,3.184501,25.77,7.7,-5.36,0.0,91,324,9.390151023864746,9.39014720916748
12,-0.4836047291755676,-0.6182735562324524,-0.01716412417590618,36.7159305,3.184408,25.79,7.84,-5.54,0.0,91,324,9.609018325805664,9.60901927947998
13,-0.14700350165367126,-0.6207826137542725,0.017763357609510422,36.7160458,3.1843066,25.84,6.31,-4.48,0.01,91,324,8.193264961242676,8.193264961242676
14,0.05602588504552841,-0.7890956997871399,-0.17345517873764038,36.7161116,3.1842448,25.84,2.99,-3.04,-0.06,90,314,4.267061233520508,4.266617298126221
15,-0.2904808223247528,-2.0082223415374756,-0.148127019405365,36.7161225,3.1841944,26.34,-1.4,-3.46,-0.6,90,244,3.790386915206909,3.7421791553497314
16,-0.5009398460388184,-2.180464029312134,0.02941596694290638,36.7160732,3.184102,28.08,-4.38,-6.26,-1.3,89,235,7.752807140350342,7.642205715179443
17,-0.4531307816505432,-2.1656408309936523,0.040413741022348404,36.716005,3.1839806,30.34,-5.39,-7.85,-1.6,89,235,9.662596702575684,9.529075622558594
18,-0.4823109209537506,-2.165917158126831,-0.020715689286589622,36.7159174,3.1838214,33.22,-5.54,-8.12,-1.57,88,235,9.956140518188477,9.831344604492188
19,-0.48239123821258545,-2.165815830230713,0.036163389682769775,36.715842,3.1836826,35.68,-5.56,-8.25,-1.57,88,235,10.078097343444824,9.953810691833496
20,-0.4219130873680115,-2.1632933616638184,0.014924801886081696,36.715767,3.1835429,38.15,-5.53,-8.26,-1.59,88,236,10.074475288391113,9.94772720336914
21,-0.48765841126441956,-2.1665093898773193,-0.006644153501838446,36.7156794,3.1833804,41.04,-5.53,-8.21,-1.6,87,235,10.02979850769043,9.900379180908203
22,-0.47413161396980286,-2.1650424003601074,0.031982142478227615,36.7156048,3.1832415,43.53,-5.52,-8.29,-1.61,87,235,10.093924522399902,9.964311599731445
23,-0.44688472151756287,-2.1651275157928467,-0.03196914494037628,36.7155174,3.1830782,46.44,-5.53,-8.29,-1.61,86,235,10.096919059753418,9.966704368591309
24,-0.48866745829582214,-2.166933536529541,0.006140833720564842,36.7154423,3.1829386,48.94,-5.51,-8.27,-1.62,86,235,10.072870254516602,9.941014289855957
25,-0.4516037404537201,-2.1667287349700928,0.03889370337128639,36.7153675,3.1827989,51.44,-5.5,-8.29,-1.63,85,235,10.090201377868652,9.95700740814209
26,-0.45264244079589844,-2.164213180541992,-0.039354175329208374,36.7152804,3.1826362,54.36,-5.53,-8.27,-1.62,85,236,10.092544555664062,9.960890769958496
27,-0.48922058939933777,-2.1659657955169678,0.020552001893520355,36.7152053,3.1824963,56.86,-5.53,-8.3,-1.63,84,235,10.114537239074707,9.981965065002441
28,-0.42462846636772156,-2.16481614112854,-0.001937545370310545,36.7151179,3.182333,59.78,-5.52,-8.28,-1.63,84,235,10.087454795837402,9.954292297363281
29,-0.3720335364341736,-2.1688790321350098,-0.02497807703912258,36.715044,3.1821958,62.26,-5.27,-7.79,-1.54,83,235,9.537225723266602,9.412047386169434
30,-0.042911071330308914,-2.1678972244262695,0.016125399619340897,36.7149729,3.1820642,64.6,-3.5,-5.24,-0.95,83,235,6.376113414764404,6.304547309875488
31,-0.13802309334278107,-2.1318094730377197,0.004590879660099745,36.7149349,3.1819906,65.55,-2.27,-3.74,-0.32,83,237,4.39206075668335,4.380011081695557
32,-0.13545486330986023,-2.090214252471924,0.03904487565159798,36.7149064,3.181929,65.75,-2.01,-3.69,-0.02,82,240,4.2073845863342285,4.207277774810791
33,-0.10093249380588531,-2.0877137184143066,0.009534455835819244,36.714875,3.1818574,65.74,-1.92,-3.52,-0.03,82,240,4.01980447769165,4.0196533203125
34,0.08260975033044815,-2.1601784229278564,-0.0447784960269928,36.7148529,3.1818096,65.47,-1.3,-2.01,0.53,82,236,2.4597256183624268,2.399876832962036
35,-0.01446028146892786,-2.4822306632995605,0.013143251650035381,36.7148345,3.1817842,63.31,-1.04,-0.83,1.49,81,217,2.001885175704956,1.3358720541000366
36,-0.032641105353832245,-2.4697489738464355,-0.021892134100198746,36.7148205,3.1817711,61.04,-1.04,-0.82,1.41,81,218,1.936275601387024,1.3259389400482178
37,-0.04733851179480553,-2.4693853855133057,0.028715860098600388,36.7148063,3.1817573,58.81,-1.05,-0.86,1.43,80,218,1.9795178174972534,1.3651407957077026
38,-0.0582304410636425,-2.4698486328125,-0.010174223221838474,36.7147894,3.1817404,56.19,-1.07,-0.88,1.44,80,218,2.0025320053100586,1.390470027923584
39,-0.017302043735980988,-2.4690258502960205,0.020800260826945305,36.7147748,3.1817258,53.95,-1.06,-0.86,1.44,80,218,1.9948972463607788,1.3766471147537231
40,-0.05531500279903412,-2.4697105884552,0.022859148681163788,36.7147578,3.1817088,51.34,-1.06,-0.87,1.45,79,218,2.00706148147583,1.3799686431884766
41,-0.01146759558469057,-2.469494104385376,-0.011867065913975239,36.7147433,3.1816941,49.09,-1.07,-0.88,1.46,79,218,2.017503261566162,1.3906341791152954
42,-0.05982055142521858,-2.469984292984009,0.012230861000716686,36.7147287,3.1816794,46.84,-1.06,-0.88,1.46,79,218,2.0156540870666504,1.3875253200531006
43,-0.04324830695986748,-2.469486951828003,-0.02396772988140583,36.7147117,3.1816622,44.23,-1.07,-0.88,1.47,78,218,2.0278429985046387,1.3918302059173584
44,-0.029173599556088448,-2.4694533348083496,0.029157022014260292,36.714697,3.1816475,41.98,-1.06,-0.87,1.47,78,218,2.0169875621795654,1.3753230571746826
45,-0.062312014400959015,-2.4694716930389404,0.003517178352922201,36.7146801,3.1816304,39.35,-1.06,-0.88,1.46,78,218,2.019653081893921,1.3849620819091797
46,-0.00894848257303238,-2.469421148300171,0.005084161646664143,36.7146655,3.1816157,37.11,-1.06,-0.88,1.47,77,218,2.0208804607391357,1.3838471174240112
47,-0.04304339364171028,-2.4700348377227783,0.027460163459181786,36.7146485,3.1815984,34.49,-1.06,-0.88,1.48,77,218,2.0271921157836914,1.38481867313385
48,-0.014712439849972725,-2.4694836139678955,-0.020736463367938995,36.7146339,3.1815837,32.23,-1.06,-0.87,1.47,76,218,2.019092321395874,1.380113959312439
49,-0.04893774166703224,-2.469639539718628,0.024665553122758865,36.7146193,3.1815691,29.98,-1.06,-0.87,1.47,76,218,2.014918327331543,1.3747437000274658
50,-0.09174033254384995,-2.6585288047790527,-0.0970657542347908,36.7146015,3.1815523,27.37,-1.36,-0.71,1.44,76,207,2.106050968170166,1.5355513095855713
51,-0.21446485817432404,2.746692419052124,-0.05212698131799698,36.7145747,3.181552,25.84,-2.75,0.96,0.34,75,157,2.9375226497650146,2.9176738262176514
52,-0.21533289551734924,2.6798043251037598,0.012171448208391666,36.7145188,3.1815844,25.83,-4.05,2.01,-0.06,75,153,4.524643898010254,4.524204254150391
53,-0.0489116907119751,2.7409210205078125,0.08003544062376022,36.7144638,3.1816178,25.82,-3.89,1.61,0.06,75,157,4.219822883605957,4.219305515289307
54,-0.2722330391407013,-2.4759719371795654,0.254839152097702,36.7144093,3.1816194,25.78,-2.92,-2.09,0.02,74,218,3.5986602306365967,3.598548173904419
55,-0.4624798893928528,-2.157331943511963,-0.0038741554599255323,36.7143671,3.1815527,25.78,-3.6,-5.73,0.02,74,236,6.767356872558594,6.767319202423096
56,-0.5195817947387695,-2.1514463424682617,0.0024402840062975883,36.71431,3.1814397,25.78,-4.7,-7.42,0.0,73,236,8.791056632995605,8.791055679321289
57,-0.37777411937713623,-2.1512904167175293,-0.01579432748258114,36.7142325,3.1812889,25.8,-4.9,-7.59,0.0,73,236,9.039405822753906,9.039403915405273
58,-0.28186625242233276,-2.152383804321289,-0.0224424060434103,36.7141799,3.1811875,25.82,-4.35,-6.73,0.01,73,236,8.017930030822754,8.017908096313477
59,-0.2482341229915619,-2.1248066425323486,0.0020826775580644608,36.714111,3.181051,25.79,-3.44,-5.69,0.03,72,238,6.656278610229492,6.656208038330078
60,-0.302746057510376,-2.1041476726531982,0.01320380438119173,36.714066,3.1809556,25.79,-3.23,-5.65,0.01,72,239,6.5155816078186035,6.515567779541016
61,-0.21922282874584198,-2.100155830383301,-0.014776790514588356,36.7140152,3.1808447,25.79,-3.2,-5.61,0.0,71,239,6.532011985778809,6.5320024490356445
62,-0.004332308191806078,-2.1007819175720215,0.01613130420446396,36.7139762,3.1807597,25.79,-2.35,-4.13,0.02,71,239,4.760378837585449,4.760285377502441
63,0.1772933006286621,-2.1007940769195557,-0.012235461734235287,36.7139553,3.1807141,25.76,-0.7,-1.22,-0.01,71,239,1.4192888736724854,1.4192347526550293
64,0.016264569014310837,-2.1004292964935303,0.029578326269984245,36.7139526,3.180708,25.77,0.1,0.16,0.01,70,239,0.20058591663837433,0.2001311480998993
