timestamp,pitch,yaw,roll,lat,lon,alt,velocity_x,velocity_y,velocity_z,battery,heading,airspeed,groundspeed
0,0.012338186614215374,-0.041900429874658585,-0.02307703159749508,36.7156066,3.18463,13.62,-0.02,0.02,-0.03,96,357,0.0486518070101738,0.03345322236418724
1,-0.04972029849886894,-0.04688725247979164,0.11585324257612228,36.7156073,3.1846318,13.63,0.21,0.48,-0.02,95,357,0.5251497030258179,0.5247387290000916
2,-0.20784002542495728,1.6155803203582764,-0.09711825847625732,36.7156189,3.1846592,13.63,1.34,2.5,-0.01,95,92,2.8466875553131104,2.846618175506592
3,-0.1272909939289093,0.8894240856170654,-0.010443419218063354,36.7156413,3.1847106,13.64,1.82,3.39,-0.01,95,50,3.8519911766052246,3.851971387863159
4,0.1346256285905838,1.0502629280090332,0.028941992670297623,36.715669,3.1847737,13.64,1.33,2.49,0.0,94,60,2.8249146938323975,2.824913263320923
5,0.20212385058403015,1.811787486076355,0.23455359041690826,36.7156729,3.1847854,13.67,-1.05,-1.42,-0.01,94,103,1.7779690027236938,1.7779114246368408
6,-0.09037405997514725,-2.8728108406066895,0.12887737154960632,36.7156487,3.1847425,13.63,-2.23,-3.22,0.05,93,195,3.9257583618164062,3.925405979156494
7,-0.0837169885635376,-2.140622138977051,0.10095281153917313,36.7156138,3.1846772,13.68,-2.0,-3.25,0.01,93,237,3.8274121284484863,3.827387571334839
8,-0.0884869396686554,-1.396459937095642,0.22661609947681427,36.7156011,3.1846246,13.63,0.52,-2.84,0.01,93,279,2.8878397941589355,2.887784957885742
9,-0.419038325548172,-0.6472072601318359,0.07132363319396973,36.7156442,3.1845661,13.63,4.8,-3.46,0.0,92,322,5.920780181884766,5.920780181884766
10,-0.5205197334289551,-0.6281864047050476,-0.01712246611714363,36.7157264,3.1844944,13.63,7.1,-4.92,0.0,92,324,8.647263526916504,8.647257804870605
11,-0.47666579484939575,-0.6193212270736694,0.0267705749720335,36.7158473,3.1843893,13.65,7.87,-5.55,-0.01,91,324,9.63425350189209,9.634248733520508
12,-0.3255206048488617,-0.6233789324760437,-0.022604642435908318,36.7159516,3.184297,13.68,7.3,-5.2,-0.02,91,324,8.972749710083008,8.972716331481934
13,-0.04558658227324486,-0.6330186128616333,-0.038771241903305054,36.7160373,3.1842205,13.69,4.97,-3.66,0.03,91,323,6.176835060119629,6.176722049713135
14,-0.13263633847236633,-1.5108691453933716,-0.31089261174201965,36.7160806,3.1841594,13.93,0.13,-2.97,-0.38,90,273,3.0057852268218994,2.9811344146728516
15,-0.4178779423236847,-2.140782594680786,-0.017009327188134193,36.7160568,3.1840964,15.01,-3.36,-4.8,-1.01,90,237,5.9504804611206055,5.862682819366455
16,-0.4935666024684906,-2.164473533630371,-0.03006504662334919,36.7159867,3.1839733,17.34,-5.17,-7.44,-1.53,89,235,9.19912052154541,9.070096015930176
17,-0.4847303330898285,-2.165294647216797,0.017771320417523384,36.7159127,3.18384,19.8,-5.51,-8.06,-1.59,89,235,9.90038776397705,9.770567893981934
18,-0.42892149090766907,-2.1622493267059326,-0.00934095773845911,36.7158252,3.1836786,22.66,-5.54,-8.23,-1.58,88,236,10.052571296691895,9.926973342895508
19,-0.47790655493736267,-2.1629598140716553,-0.02873953804373741,36.7157499,3.1835391,25.12,-5.56,-8.26,-1.6,88,236,10.09522819519043,9.967141151428223
20,-0.4804832935333252,-2.1639888286590576,0.028026623651385307,36.7156748,3.1833993,27.6,-5.5,-8.26,-1.61,88,236,10.060101509094238,9.9298677444458
21,-0.43516308069229126,-2.163658380508423,-0.015212249010801315,36.715588,3.183237,30.51,-5.49,-8.25,-1.61,87,236,10.049720764160156,9.918742179870605
22,-0.48502206802368164,-2.1640396118164062,-0.02363746426999569,36.7155134,3.1830975,33.0,-5.52,-8.29,-1.62,87,236,10.0949068069458,9.963621139526367
23,-0.4309583306312561,-2.1642167568206787,0.029592614620923996,36.7154258,3.182934,35.92,-5.51,-8.28,-1.63,86,236,10.092134475708008,9.958888053894043
24,-0.4380076825618744,-2.1629321575164795,-0.024735575541853905,36.7153511,3.1827941,38.42,-5.49,-8.26,-1.62,86,236,10.060745239257812,9.92806339263916
25,-0.497698038816452,-2.1654343605041504,-0.005607947241514921,36.7152768,3.1826553,40.92,-5.53,-8.27,-1.63,85,235,10.090441703796387,9.957646369934082
26,-0.43851980566978455,-2.1642425060272217,0.03274424001574516,36.7151893,3.1824917,43.85,-5.54,-8.32,-1.64,85,236,10.135412216186523,10.001583099365234
27,-0.4448302388191223,-2.1654515266418457,-0.025332948192954063,36.7151144,3.1823513,46.35,-5.51,-8.28,-1.63,84,235,10.082493782043457,9.949373245239258
28,-0.43081048130989075,-2.164473056793213,0.025703076273202896,36.7150276,3.182189,49.26,-5.45,-8.14,-1.62,84,235,9.938562393188477,9.804837226867676
29,-0.15404002368450165,-2.167945146560669,0.0010715252719819546,36.714959,3.1820623,51.56,-4.43,-6.6,-1.32,84,235,8.068560600280762,7.9589080810546875
30,-0.07808370143175125,-2.149449586868286,0.04050236940383911,36.7149047,3.1819597,53.2,-2.59,-4.06,-0.51,83,236,4.853597640991211,4.826374053955078
31,-0.11965290457010269,-2.097234010696411,-0.0042523047886788845,36.7148743,3.1818961,53.6,-2.07,-3.68,-0.09,83,239,4.2355804443359375,4.2346014976501465
32,-0.181261345744133,-2.0857396125793457,0.006075676996260881,36.7148471,3.1818346,53.61,-2.01,-3.69,-0.01,82,240,4.209808349609375,4.209788799285889
33,0.025383751839399338,-2.100472927093506,-0.04426710307598114,36.714818,3.1817693,53.54,-1.49,-2.64,0.21,82,239,3.0461513996124268,3.0388705730438232
34,0.010065152309834957,-2.3857321739196777,-0.017035311087965965,36.7148007,3.1817386,52.36,-1.17,-1.19,1.34,82,223,2.145014524459839,1.6699708700180054
35,-0.05800170823931694,-2.4627013206481934,-0.009762526489794254,36.7147837,3.1817215,49.7,-1.04,-0.8,1.43,81,218,1.9464600086212158,1.318854808807373
36,-0.012200039811432362,-2.4689130783081055,0.011431359685957432,36.7147696,3.1817082,47.47,-1.04,-0.84,1.43,81,218,1.964032769203186,1.3417094945907593
37,-0.059913523495197296,-2.469944477081299,-0.011375797912478447,36.7147552,3.181694,45.22,-1.06,-0.88,1.43,81,218,1.9918973445892334,1.3800431489944458
38,-0.021953485906124115,-2.470571756362915,-0.020703483372926712,36.7147384,3.1816771,42.61,-1.07,-0.87,1.45,80,218,2.0094757080078125,1.3877280950546265
39,-0.06019369140267372,-2.469804525375366,0.014236444607377052,36.7147238,3.1816623,40.37,-1.07,-0.88,1.45,80,218,2.0177974700927734,1.393843173980713
40,-0.050003014504909515,-2.4695560932159424,-0.022137707099318504,36.7147067,3.1816453,37.75,-1.06,-0.88,1.46,79,218,2.0162904262542725,1.3888626098632812
41,-0.03229083865880966,-2.4695894718170166,0.026507092639803886,36.7146922,3.1816306,35.51,-1.06,-0.88,1.47,79,218,2.0195913314819336,1.3845878839492798
42,-0.06167355924844742,-2.4701058864593506,0.007419677451252937,36.7146751,3.1816135,32.89,-1.06,-0.89,1.47,79,218,2.028947591781616,1.3890947103500366
43,-0.006328852381557226,-2.4697070121765137,0.0019797200802713633,36.7146605,3.1815988,30.64,-1.06,-0.87,1.47,78,218,2.019563913345337,1.379068374633789
44,-0.06354065984487534,-2.469820976257324,-0.0024208705872297287,36.714646,3.1815841,28.39,-1.06,-0.88,1.47,78,218,2.0232996940612793,1.384103536605835
45,-0.02744431421160698,-2.4700605869293213,-0.022360414266586304,36.714629,3.1815669,25.77,-1.08,-0.89,1.48,78,218,2.04116153717041,1.402826189994812
46,-0.04767583683133125,-2.4701647758483887,0.024609142914414406,36.7146144,3.1815522,23.52,-1.05,-0.88,1.48,77,218,2.0254366397857666,1.382224440574646
47,-0.05568382143974304,-2.4700140953063965,-0.013197973370552063,36.7145974,3.1815351,20.89,-1.06,-0.89,1.47,77,218,2.029031276702881,1.3906852006912231
48,-0.018194977194070816,-2.4694042205810547,0.026537340134382248,36.7145828,3.1815204,18.64,-1.05,-0.88,1.47,77,218,2.0227603912353516,1.3802947998046875
49,-0.07476156949996948,-2.4841816425323486,-0.012878377921879292,36.7145657,3.1815032,16.01,-1.1,-0.87,1.47,76,217,2.0350940227508545,1.402711033821106
50,-0.1426537185907364,2.9887888431549072,-0.11982952803373337,36.7145446,3.1814951,14.02,-2.16,0.22,0.84,76,171,2.3304872512817383,2.1715023517608643
51,-0.2533576190471649,2.6771445274353027,0.004611124750226736,36.7145044,3.1815142,13.64,-3.68,1.78,-0.06,75,153,4.092682838439941,4.092183589935303
52,-0.1264076679944992,2.6821341514587402,-0.006202624645084143,36.7144411,3.1815531,13.72,-4.04,1.98,0.05,75,153,4.502917766571045,4.5025835037231445
53,-0.040943678468465805,-3.127542495727539,0.2605226933956146,36.7143896,3.1815738,13.66,-3.37,-0.06,0.04,75,180,3.3753232955932617,3.375035285949707
54,-0.45834091305732727,-2.190791368484497,0.0689847320318222,36.7143413,3.1815286,13.65,-3.17,-4.59,0.02,74,234,5.584737300872803,5.584691047668457
55,-0.48437389731407166,-2.1561412811279297,0.04207208752632141,36.7142897,3.1814284,13.65,-4.42,-7.02,0.0,74,236,8.301982879638672,8.301980018615723
56,-0.42928826808929443,-2.1507067680358887,-0.011424652300775051,36.7142255,3.1813021,13.67,-4.94,-7.71,0.0,73,236,9.162348747253418,9.162348747253418
57,-0.3341733515262604,-2.1526143550872803,0.026578860357403755,36.7141493,3.1811547,13.69,-4.49,-6.94,0.0,73,236,8.275317192077637,8.275315284729004
58,-0.22272838652133942,-2.1398494243621826,0.0028067517559975386,36.714094,3.181047,13.67,-3.68,-5.84,0.02,73,237,6.9068779945373535,6.906822204589844
59,-0.2828049063682556,-2.10884165763855,0.03829590976238251,36.7140396,3.1809344,13.65,-3.27,-5.64,0.0,72,239,6.529551982879639,6.529548168182373
60,-0.26183804869651794,-2.09930682182312,-0.011645033024251461,36.713996,3.1808396,13.65,-3.22,-5.65,0.0,72,239,6.510113716125488,6.510110378265381
61,-0.1620912104845047,-2.0999035835266113,0.003011148888617754,36.7139532,3.1807463,13.66,-2.91,-5.13,0.0,71,239,5.903777122497559,5.903775691986084
62,0.16470873355865479,-2.1009621620178223,-0.03009132482111454,36.7139183,3.1806704,13.62,-1.23,-2.17,0.01,71,239,2.5023932456970215,2.5023341178894043
63,0.07714281976222992,-2.100440502166748,0.02774059772491455,36.7139107,3.1806535,13.64,-0.05,-0.11,-0.01,71,239,0.13001292943954468,0.12923993170261383
64,-0.03638876974582672,-2.1037425994873047,0.08117303997278214,36.7139126,3.1806552,13.6,0.37,-0.08,0.02,70,239,0.3885502517223358,0.3880211114883423
