timestamp,pitch,yaw,roll,lat,lon,alt,velocity_x,velocity_y,velocity_z,battery,heading,airspeed,groundspeed
0,0.028241725638508797,0.0034164348617196083,0.013081628829240799,36.7156066,3.18463,24.07,-0.03,0.02,-0.16,96,0,0.16659918427467346,0.04147084057331085
1,-0.07065951824188232,-0.002049952745437622,0.10558099299669266,36.7156072,3.1846324,24.15,0.19,0.61,-0.06,95,359,0.6472383141517639,0.6438726782798767
2,-0.17263294756412506,1.7934482097625732,-0.12297552078962326,36.715617,3.1846656,24.18,1.04,2.86,-0.04,95,102,3.055123805999756,3.0548501014709473
3,-0.09207044541835785,1.0257729291915894,0.024588830769062042,36.7156334,3.1847209,24.17,1.26,3.44,-0.01,95,58,3.669893503189087,3.6698694229125977
4,0.23568566143512726,1.2979750633239746,0.09560806304216385,36.7156502,3.1847781,24.15,0.36,1.54,0.0,94,74,1.590205192565918,1.590190052986145
5,-0.10048028081655502,2.9326210021972656,0.24037295579910278,36.7156406,3.1847689,24.18,-1.78,-2.46,-0.01,94,168,3.0408358573913574,3.04081130027771
6,-0.13532912731170654,-1.937406301498413,-0.002545673167333007,36.7156116,3.1847158,24.14,-2.3,-3.34,-0.06,93,249,4.058694362640381,4.0580973625183105
7,-0.053563930094242096,-1.9686219692230225,0.14982186257839203,36.7155793,3.1846501,24.18,-1.33,-3.18,0.03,93,247,3.4534902572631836,3.453298807144165
8,-0.2725468873977661,-0.8433999419212341,0.16866272687911987,36.7155821,3.1846002,24.14,2.13,-2.79,0.0,93,311,3.5181355476379395,3.5181336402893066
9,-0.4907020926475525,-0.6066164970397949,0.030600447207689285,36.715648,3.184535,24.15,5.96,-4.17,0.0,92,325,7.275308132171631,7.275307655334473
10,-0.4893490970134735,-0.6174545288085938,-0.01718056946992874,36.7157415,3.1844538,24.16,7.62,-5.32,0.0,92,324,9.304861068725586,9.304859161376953
11,-0.4752705991268158,-0.6217994093894958,0.025756292045116425,36.7158651,3.1843452,24.18,7.85,-5.56,0.0,91,324,9.630788803100586,9.63078784942627
12,-0.1881638765335083,-0.6244477033615112,-0.0005156359984539449,36.7159652,3.1842568,24.23,6.56,-4.68,0.0,91,324,8.069316864013672,8.069314002990723
13,0.043591950088739395,-0.7317575812339783,-0.1427726000547409,36.7160359,3.1841917,24.22,3.45,-3.14,-0.02,91,318,4.675201892852783,4.675154685974121
14,-0.3247813284397125,-2.0433661937713623,-0.17524190247058868,36.7160512,3.1841322,24.78,-1.58,-3.56,-0.63,90,242,3.954606056213379,3.9031918048858643
15,-0.49748268723487854,-2.181756019592285,0.03165631368756294,36.7160099,3.1840546,26.24,-4.2,-5.95,-1.24,90,235,7.397119998931885,7.291448593139648
16,-0.4498794674873352,-2.1688413619995117,-0.020848236978054047,36.715931,3.1839143,28.85,-5.41,-7.87,-1.6,89,235,9.690902709960938,9.557051658630371
17,-0.47992008924484253,-2.1650846004486084,-0.015143963508307934,36.7158561,3.1837777,31.33,-5.5,-8.12,-1.57,89,235,9.937417984008789,9.81118392944336
18,-0.4709787368774414,-2.1636855602264404,0.030334923416376114,36.7157813,3.1836389,33.79,-5.54,-8.23,-1.58,88,236,10.054167747497559,9.929192543029785
19,-0.44645756483078003,-2.1643786430358887,-0.02770201675593853,36.7156934,3.1834761,36.67,-5.56,-8.26,-1.59,88,236,10.087382316589355,9.960026741027832
20,-0.48811468482017517,-2.1625924110412598,-0.0019991921726614237,36.7156187,3.1833366,39.16,-5.49,-8.26,-1.6,87,236,10.05626106262207,9.927640914916992
21,-0.42722925543785095,-2.165142774581909,0.011722254566848278,36.7155317,3.1831741,42.07,-5.55,-8.28,-1.61,87,235,10.10887622833252,9.979708671569824
22,-0.4598241448402405,-2.1656737327575684,-0.024733496829867363,36.7154566,3.1830343,44.56,-5.52,-8.3,-1.61,87,235,10.099289894104004,9.969207763671875
23,-0.4932948648929596,-2.1647579669952393,0.017230454832315445,36.715382,3.1828943,47.05,-5.48,-8.29,-1.62,86,235,10.079075813293457,9.946795463562012
24,-0.42517170310020447,-2.164644956588745,-0.005495540797710419,36.7152948,3.1827315,49.98,-5.53,-8.29,-1.62,86,235,10.106006622314453,9.97389030456543
25,-0.47695043683052063,-2.162338972091675,-0.026827331632375717,36.7152201,3.1825917,52.48,-5.48,-8.29,-1.62,85,236,10.081467628479004,9.949686050415039
26,-0.4545780122280121,-2.1630752086639404,0.032149579375982285,36.7151328,3.1824281,55.4,-5.53,-8.27,-1.64,85,236,10.087447166442871,9.953092575073242
27,-0.4312421679496765,-2.1658921241760254,-0.011073778383433819,36.7150579,3.1822884,57.9,-5.5,-8.27,-1.63,84,235,10.074004173278809,9.939863204956055
28,-0.3619579076766968,-2.166179895401001,0.01831830106675625,36.7149723,3.1821284,60.79,-5.19,-7.72,-1.53,84,235,9.435564041137695,9.310585975646973
29,-0.049748919904232025,-2.167328357696533,0.008440530858933926,36.7149107,3.1820143,62.83,-3.7,-5.51,-1.03,83,235,6.721717357635498,6.641855716705322
30,-0.11189142614603043,-2.1367199420928955,0.004353881813585758,36.7148707,3.1819377,63.88,-2.33,-3.8,-0.37,83,237,4.475991249084473,4.459929943084717
31,-0.13107192516326904,-2.08913516998291,-0.016195222735404968,36.7148376,3.1818656,64.14,-2.0,-3.68,-0.02,83,240,4.200364589691162,4.200296401977539
32,-0.12184298783540726,-2.0876808166503906,0.014975639060139656,36.7148105,3.1818041,64.12,-1.97,-3.61,-0.03,82,240,4.115546226501465,4.115386486053467
33,0.03824898600578308,-2.1753714084625244,-0.06718498468399048,36.7147847,3.1817481,63.8,-1.27,-1.91,0.62,82,235,2.3810577392578125,2.2987523078918457
34,0.007193002384155989,-2.47304105758667,0.008939284831285477,36.7147687,3.1817261,61.95,-1.07,-0.87,1.49,82,218,2.0370826721191406,1.3813822269439697
35,-0.06610690802335739,-2.470508337020874,0.001215564669109881,36.7147524,3.1817109,59.3,-1.03,-0.81,1.41,81,218,1.931976556777954,1.3162635564804077
36,-0.036346834152936935,-2.4687159061431885,0.03435059264302254,36.7147406,3.1816994,57.44,-1.05,-0.86,1.43,81,218,1.9781134128570557,1.362101435661316
37,-0.061927616596221924,-2.4695374965667725,-0.0015854774974286556,36.7147237,3.1816825,54.81,-1.07,-0.88,1.43,81,218,1.9990516901016235,1.390979528427124
38,-0.030009916052222252,-2.470224380493164,-0.024510357528924942,36.7147067,3.1816655,52.2,-1.06,-0.87,1.44,80,218,1.9976733922958374,1.3789492845535278
39,-0.05202823504805565,-2.469529867172241,0.025029968470335007,36.7146921,3.1816509,49.96,-1.06,-0.88,1.45,80,218,2.0095598697662354,1.3819788694381714
40,-0.022353526204824448,-2.469956636428833,-0.022846315056085587,36.7146776,3.1816362,47.72,-1.06,-0.88,1.46,79,218,2.0167696475982666,1.3872441053390503
41,-0.0166154932230711,-2.469106435775757,0.026492666453123093,36.7146606,3.1816191,45.09,-1.06,-0.89,1.46,79,218,2.0192513465881348,1.3914673328399658
42,-0.05200991407036781,-2.469451665878296,-0.017444100230932236,36.714646,3.1816043,42.85,-1.07,-0.88,1.47,79,218,2.0268733501434326,1.3915807008743286
43,-0.0070147584192454815,-2.469527244567871,-0.011325058527290821,36.7146289,3.1815872,40.23,-1.06,-0.88,1.47,78,218,2.0219225883483887,1.3832156658172607
44,-0.05953548476099968,-2.469597578048706,0.017203787341713905,36.7146144,3.1815725,37.98,-1.06,-0.89,1.47,78,218,2.022962808609009,1.389112114906311
45,-0.044677719473838806,-2.4696593284606934,-0.021797193214297295,36.7145974,3.1815553,35.36,-1.06,-0.89,1.47,78,218,2.0311155319213867,1.3931466341018677
46,-0.0298036839812994,-2.469780921936035,0.0285926703363657,36.7145828,3.1815405,33.11,-1.06,-0.87,1.47,77,218,2.020038604736328,1.378363847732544
47,-0.03392055258154869,-2.469348669052124,-0.02770494483411312,36.7145682,3.1815259,30.85,-1.07,-0.87,1.47,77,218,2.019800901412964,1.3851356506347656
48,-0.011261439882218838,-2.469033718109131,0.011080389842391014,36.7145512,3.1815087,28.23,-1.06,-0.87,1.47,76,218,2.0188567638397217,1.3820606470108032
49,-0.0972200483083725,-2.581449031829834,-0.06036150082945824,36.7145362,3.1814943,25.99,-1.26,-0.78,1.46,76,212,2.089083433151245,1.4861258268356323
50,-0.23131561279296875,2.721324920654297,-0.09104211628437042,36.7145053,3.1814936,24.19,-2.87,1.09,0.25,76,155,3.087099075317383,3.0762155055999756
51,-0.20847143232822418,2.67858624458313,0.021990520879626274,36.7144573,3.1815216,24.21,-4.01,1.97,-0.07,75,153,4.477734088897705,4.477180480957031
52,-0.068311907351017,2.713026523590088,0.05009676516056061,36.714402,3.1815553,24.23,-3.93,1.76,0.06,75,155,4.313508987426758,4.312942981719971
53,-0.20440120995044708,-2.607546329498291,0.28105178475379944,36.7143463,3.1815631,24.17,-2.95,-1.67,0.03,75,210,3.3938705921173096,3.393697500228882
54,-0.46837738156318665,-2.170175790786743,0.009686172008514404,36.7143048,3.1815029,24.17,-3.46,-5.41,0.02,74,235,6.430004596710205,6.429952144622803
55,-0.4570183753967285,-2.151019334793091,0.02390137128531933,36.7142387,3.1813722,24.17,-4.72,-7.49,0.0,74,236,8.85816478729248,8.85816478729248
56,-0.3998289704322815,-2.1514999866485596,-0.025879468768835068,36.7141724,3.1812428,24.19,-4.93,-7.65,0.0,73,236,9.106071472167969,9.106070518493652
57,-0.2621234655380249,-2.1515626907348633,0.0363457128405571,36.7140994,3.1811026,24.21,-4.17,-6.47,0.02,73,236,7.704047679901123,7.704000473022461
58,-0.23789671063423157,-2.1363637447357178,0.025644227862358093,36.7140562,3.1810175,24.19,-3.56,-5.73,0.03,73,237,6.756742477416992,6.756656169891357
59,-0.2968448996543884,-2.112896680831909,0.029500653967261314,36.7140024,3.1809058,24.18,-3.3,-5.65,0.01,72,238,6.547107219696045,6.5470991134643555
60,-0.2613278925418854,-2.1089160442352295,-0.02473500557243824,36.7139506,3.1807951,24.18,-3.29,-5.65,0.0,72,239,6.5470709800720215,6.547064304351807
61,-0.026936540380120277,-2.1088550090789795,0.022924914956092834,36.7139097,3.1807078,24.18,-2.54,-4.36,0.02,71,239,5.053107261657715,5.05305290222168
62,0.12257614731788635,-2.109287738800049,-0.0127763906493783,36.7138844,3.1806535,24.15,-0.63,-1.1,-0.01,71,239,1.2709403038024902,1.2708240747451782
63,0.042063869535923004,-2.1087124347686768,0.01627313531935215,36.713882,3.1806483,24.16,0.1,0.16,0.0,71,239,0.1946571171283722,0.19458618760108948
64,-0.06041866913437843,-1.951485276222229,0.1888246387243271,36.7138873,3.1806483,24.12,0.92,-0.55,-0.03,70,248,1.0761785507202148,1.0757455825805664
