timestamp,pitch,yaw,roll,lat,lon,alt,velocity_x,velocity_y,velocity_z,battery,heading,airspeed,groundspeed
0,0.023395320400595665,-0.045899927616119385,-0.015228607691824436,36.7156067,3.1846299,18.55,-0.03,0.02,0.03,96,357,0.0564446747303009,0.043727390468120575
1,-0.06887216120958328,0.0006328176823444664,0.11862577497959137,36.7156087,3.184633,18.55,0.51,0.63,0.0,95,0,0.8194372653961182,0.8194119334220886
2,-0.25836893916130066,1.2446260452270508,-0.09431853145360947,36.7156258,3.184657,18.51,2.11,2.35,-0.02,95,71,3.1677091121673584,3.1676058769226074
3,-0.1661214828491211,0.8249093890190125,-0.01721186935901642,36.7156615,3.1847063,18.55,2.99,3.3,-0.04,95,47,4.464137554168701,4.463954448699951
4,-0.01969805918633938,0.8288191556930542,0.027745692059397697,36.715709,3.1847707,18.58,2.72,2.94,-0.01,94,47,4.013219833374023,4.0131707191467285
5,0.3300413191318512,0.47659021615982056,-0.16765792667865753,36.7157323,3.1847988,18.58,0.2,-0.14,0.01,94,27,0.25566399097442627,0.2552052438259125
6,-0.0949612706899643,-1.4092251062393188,-0.13615845143795013,36.7157124,3.1847594,18.62,-2.24,-3.16,-0.02,93,279,3.8784701824188232,3.8783745765686035
7,-0.1445828080177307,-2.3535778522491455,0.032124314457178116,36.7156818,3.1847039,18.62,-2.24,-3.3,0.01,93,225,3.994658946990967,3.9946162700653076
8,0.021569572389125824,-1.8233188390731812,0.18891005218029022,36.7156593,3.1846495,18.6,-0.66,-3.01,0.01,93,255,3.083613634109497,3.083568572998047
9,-0.3932068347930908,-0.6646291613578796,0.1180867999792099,36.7156825,3.184593,18.59,3.7,-3.05,0.0,92,321,4.800992012023926,4.800992012023926
10,-0.47539183497428894,-0.621391773223877,-0.009992861188948154,36.7157528,3.1845297,18.59,6.48,-4.52,0.0,92,324,7.9090118408203125,7.9090118408203125
11,-0.5120935440063477,-0.6192304491996765,0.021864252164959908,36.7158686,3.1844292,18.61,7.83,-5.47,0.0,91,324,9.561327934265137,9.561327934265137
12,-0.383567750453949,-0.6227253675460815,0.014516384340822697,36.7159745,3.1843359,18.63,7.7,-5.47,-0.01,91,324,9.44860553741455,9.44859504699707
13,-0.1321639120578766,-0.6249862909317017,-0.021166304126381874,36.7160693,3.1842516,18.67,5.98,-4.26,0.02,91,324,7.350179672241211,7.350120544433594
14,0.08786025643348694,-1.0484172105789185,-0.25234925746917725,36.7161337,3.1841845,18.74,1.69,-2.87,-0.19,90,299,3.342395067214966,3.3368570804595947
15,-0.400012731552124,-2.11830472946167,-0.10365553945302963,36.716128,3.1841301,19.49,-2.38,-4.04,-0.79,90,238,4.76148796081543,4.694223880767822
16,-0.4478360414505005,-2.1621012687683105,-0.012075015343725681,36.7160678,3.1840231,21.53,-4.83,-6.88,-1.42,89,236,8.536140441894531,8.415672302246094
17,-0.4709213674068451,-2.1623353958129883,-0.034231171011924744,36.7159962,3.1838949,23.9,-5.51,-8.0,-1.6,89,236,9.853070259094238,9.720897674560547
18,-0.44864165782928467,-2.163187265396118,0.03781753405928612,36.7159085,3.1837347,26.78,-5.54,-8.19,-1.58,88,236,10.020341873168945,9.894678115844727
19,-0.4250161051750183,-2.1639180183410645,-0.01596391759812832,36.7158332,3.1835953,29.24,-5.56,-8.25,-1.59,88,236,10.077848434448242,9.951140403747559
20,-0.4794459044933319,-2.1660399436950684,-0.023105794563889503,36.7157581,3.1834557,31.71,-5.52,-8.27,-1.6,88,235,10.076224327087402,9.94786548614502
21,-0.4428587853908539,-2.1656925678253174,0.03829110413789749,36.7156711,3.1832931,34.62,-5.52,-8.27,-1.61,87,235,10.081796646118164,9.951706886291504
22,-0.4306350350379944,-2.1643567085266113,-0.015023469924926758,36.7155964,3.1831534,37.11,-5.51,-8.27,-1.62,87,236,10.076726913452148,9.945536613464355
23,-0.48500165343284607,-2.1641147136688232,0.02010323479771614,36.7155092,3.1829902,40.02,-5.5,-8.28,-1.63,86,236,10.084712982177734,9.951891899108887
24,-0.4388061463832855,-2.163362503051758,0.0320417545735836,36.7154345,3.1828506,42.52,-5.5,-8.25,-1.63,86,236,10.060773849487305,9.926968574523926
25,-0.44049593806266785,-2.1639249324798584,-0.014399871230125427,36.7153602,3.1827116,45.03,-5.53,-8.3,-1.63,85,236,10.112208366394043,9.979754447937012
26,-0.48622971773147583,-2.1648566722869873,0.00492978747934103,36.7152725,3.1825479,47.94,-5.53,-8.29,-1.63,85,235,10.109784126281738,9.976500511169434
27,-0.4349839687347412,-2.164598226547241,0.03450886532664299,36.7151975,3.1824078,50.45,-5.5,-8.29,-1.64,84,235,10.090970039367676,9.95544147491455
28,-0.47250598669052124,-2.163632869720459,-0.03231356292963028,36.7151106,3.1822449,53.38,-5.51,-8.29,-1.62,84,236,10.091747283935547,9.959403991699219
29,-0.30090394616127014,-2.167618751525879,0.025968510657548904,36.7150387,3.1821109,55.79,-4.91,-7.31,-1.46,83,235,8.938304901123047,8.817211151123047
30,-0.045589618384838104,-2.1647047996520996,0.017537711188197136,36.7149826,3.1820065,57.63,-3.29,-4.93,-0.85,83,235,5.9963178634643555,5.935744285583496
31,-0.15477335453033447,-2.1128196716308594,0.044778067618608475,36.7149417,3.1819257,58.5,-2.17,-3.69,-0.19,83,238,4.291005611419678,4.286697864532471
32,-0.12522365152835846,-2.0864593982696533,-0.01085756253451109,36.7149139,3.1818642,58.58,-1.99,-3.67,0.0,82,240,4.184919834136963,4.1849164962768555
33,-0.008639098145067692,-2.0873422622680664,0.02614053525030613,36.7148832,3.1817945,58.57,-1.71,-3.16,0.02,82,240,3.5971899032592773,3.5971291065216064
34,0.02063257433474064,-2.259546995162964,-0.0718655064702034,36.7148639,3.181755,57.94,-1.21,-1.58,0.96,82,230,2.2204477787017822,1.9987932443618774
35,-0.006399950478225946,-2.4794251918792725,0.015409496612846851,36.7148461,3.1817345,55.43,-1.03,-0.8,1.45,81,217,1.9597607851028442,1.3136144876480103
36,-0.06274092197418213,-2.4720473289489746,-0.006759552750736475,36.714832,3.1817213,53.2,-1.03,-0.82,1.42,81,218,1.9451152086257935,1.3194479942321777
37,-0.015732789412140846,-2.4699575901031494,0.02039337530732155,36.7148178,3.1817074,50.96,-1.05,-0.86,1.44,81,218,1.9875929355621338,1.3671571016311646
38,-0.057599958032369614,-2.47029447555542,0.01798364892601967,36.7148011,3.1816904,48.34,-1.07,-0.89,1.44,80,218,2.010146141052246,1.397341012954712
39,-0.009595139883458614,-2.469317674636841,-0.004154728259891272,36.7147864,3.1816757,46.1,-1.08,-0.87,1.45,80,218,2.0142598152160645,1.393648386001587
40,-0.030163362622261047,-2.4694812297821045,0.029775463044643402,36.7147693,3.1816586,43.48,-1.06,-0.87,1.46,79,218,2.01497220993042,1.3828599452972412
41,-0.02576422691345215,-2.4696741104125977,-0.025919605046510696,36.7147548,3.181644,41.23,-1.07,-0.88,1.46,79,218,2.0202560424804688,1.3892182111740112
42,-0.0450524277985096,-2.470022439956665,0.026357263326644897,36.7147402,3.1816293,38.99,-1.06,-0.88,1.47,79,218,2.023361921310425,1.3878096342086792
43,-0.05536969378590584,-2.46914005279541,-0.016306543722748756,36.7147232,3.1816121,36.37,-1.07,-0.89,1.47,78,218,2.0306642055511475,1.3946744203567505
44,-0.016845298931002617,-2.4694340229034424,0.02118709869682789,36.7147086,3.1815973,34.12,-1.06,-0.88,1.47,78,218,2.022160768508911,1.3840833902359009
45,-0.043841563165187836,-2.4691922664642334,-0.0247027650475502,36.714694,3.1815826,31.86,-1.07,-0.88,1.47,78,218,2.025195837020874,1.3920679092407227
46,-0.007682370953261852,-2.4695303440093994,-0.004569036886096001,36.714677,3.1815655,29.25,-1.06,-0.87,1.48,77,218,2.027316093444824,1.3835909366607666
47,-0.03394422307610512,-2.470059633255005,0.028322000056505203,36.71466,3.1815483,26.62,-1.05,-0.87,1.47,77,218,2.018192768096924,1.375460147857666
48,-0.025454021990299225,-2.4694154262542725,-0.02235225774347782,36.7146454,3.1815336,24.37,-1.07,-0.87,1.47,76,218,2.0242416858673096,1.3852566480636597
49,-0.0450424887239933,-2.4696435928344727,0.02645300328731537,36.7146308,3.1815188,22.13,-1.05,-0.88,1.47,76,218,2.020095109939575,1.376721978187561
50,-0.12979818880558014,-2.953160047531128,-0.11814390122890472,36.7146111,3.1815039,19.56,-1.69,-0.37,1.26,76,190,2.148308515548706,1.7373865842819214
51,-0.21023505926132202,2.675466537475586,-0.013668001629412174,36.7145781,3.1815128,18.58,-3.25,1.48,0.04,75,153,3.575575828552246,3.5753469467163086
52,-0.1994427889585495,2.6800293922424316,-0.0011065031867474318,36.7145176,3.1815494,18.68,-4.06,2.03,0.0,75,153,4.5434250831604,4.543423652648926
53,-0.008791823871433735,2.8835272789001465,0.15244212746620178,36.7144638,3.1815791,18.64,-3.68,0.98,0.05,75,165,3.8176095485687256,3.8171629905700684
54,-0.37463217973709106,-2.228123903274536,0.16182668507099152,36.714413,3.1815595,18.61,-2.96,-3.34,0.02,74,226,3.981414318084717,3.981329917907715
55,-0.45378729701042175,-2.141526699066162,-0.010078303515911102,36.7143669,3.1814753,18.61,-4.04,-6.42,0.01,74,237,7.590548992156982,7.5905375480651855
56,-0.5015180706977844,-2.1470675468444824,-0.023872246965765953,36.7143058,3.1813546,18.62,-4.86,-7.65,0.0,73,236,9.07536506652832,9.075362205505371
57,-0.32876843214035034,-2.151623249053955,0.010660876519978046,36.7142283,3.1812043,18.64,-4.75,-7.34,0.0,73,236,8.748483657836914,8.748481750488281
58,-0.24994608759880066,-2.147308588027954,-0.011671982705593109,36.7141692,3.1810899,18.64,-3.94,-6.19,0.03,73,236,7.342784404754639,7.342720985412598
59,-0.27996185421943665,-2.1211376190185547,0.0459476038813591,36.7141203,3.1809913,18.62,-3.41,-5.68,0.02,72,238,6.6284379959106445,6.628402233123779
60,-0.29745322465896606,-2.101133108139038,-0.0149801354855299,36.7140684,3.1808804,18.61,-3.23,-5.64,0.01,72,239,6.509509563446045,6.509500026702881
61,-0.21923960745334625,-2.0996508598327637,0.0263785719871521,36.7140249,3.1807852,18.61,-3.12,-5.5,0.0,71,239,6.332248210906982,6.332248210906982
62,0.09393885731697083,-2.1003153324127197,-0.016923924908041954,36.7139832,3.1806945,18.6,-1.85,-3.25,0.03,71,239,3.7465360164642334,3.746323823928833
63,0.1473294496536255,-2.1002635955810547,0.01859159953892231,36.7139691,3.1806638,18.59,-0.33,-0.59,-0.02,71,239,0.6861164569854736,0.685744047164917
64,-0.025554442778229713,-2.1022069454193115,0.05781197175383568,36.7139689,3.1806633,18.58,0.15,0.11,0.03,70,239,0.20187190175056458,0.19807468354701996
