timestamp,pitch,yaw,roll,lat,lon,alt,velocity_x,velocity_y,velocity_z,battery,heading,airspeed,groundspeed
0,-0.021542219445109367,0.03817380219697952,0.009086509235203266,36.7156066,3.1846299,28.73,-0.02,0.02,0.01,96,2,0.040611542761325836,0.0360974557697773
1,-0.08663330972194672,0.08383916318416595,0.0879547968506813,36.7156081,3.1846336,28.59,0.38,0.75,-0.03,95,4,0.8445352911949158,0.8436433672904968
2,-0.15287983417510986,1.5788465738296509,-0.07706562429666519,36.7156205,3.1846616,28.6,1.43,2.61,-0.06,95,90,2.9872219562530518,2.986548662185669
3,-0.14939922094345093,0.9298041462898254,0.014108279719948769,36.715643,3.1847123,28.64,1.75,3.19,-0.05,95,53,3.6452231407165527,3.6448416709899902
4,0.25437524914741516,1.083586573600769,-0.012240692041814327,36.7156671,3.1847659,28.66,0.74,1.44,-0.01,94,62,1.624014973640442,1.6238938570022583
5,0.05849313363432884,2.322707414627075,0.3001860976219177,36.7156607,3.1847565,28.66,-1.67,-2.4,-0.05,94,133,2.927820920944214,2.927379846572876
6,-0.15912480652332306,-2.140533924102783,-0.015741238370537758,36.7156269,3.1846953,28.69,-2.24,-3.3,-0.01,93,237,3.9926254749298096,3.992610216140747
7,0.007348508108407259,-2.1057581901550293,0.11320698261260986,36.7155996,3.1846397,28.68,-1.44,-3.17,0.0,93,239,3.484440326690674,3.48443865776062
8,-0.32831403613090515,-0.7593194246292114,0.17701603472232819,36.7156051,3.1845817,28.67,2.56,-2.85,0.0,93,316,3.831918954849243,3.831918954849243
9,-0.4637370705604553,-0.6132383346557617,-0.020282693207263947,36.715663,3.1845256,28.67,5.8,-4.06,0.0,92,324,7.091925144195557,7.091923713684082
10,-0.5449343919754028,-0.617968738079071,0.003013713052496314,36.7157548,3.184446,28.69,7.53,-5.24,0.0,92,324,9.181873321533203,9.181870460510254
11,-0.4275422990322113,-0.6203100085258484,0.0032408207189291716,36.7158783,3.1843377,28.71,7.86,-5.59,0.0,91,324,9.650933265686035,9.650932312011719
12,-0.2535162568092346,-0.6244598031044006,-0.020587069913744926,36.715979,3.1842484,28.76,6.66,-4.78,0.0,91,324,8.204204559326172,8.204198837280273
13,0.1147625520825386,-0.7952699065208435,-0.1601264625787735,36.7160597,3.1841733,28.77,3.02,-3.06,-0.05,91,314,4.312661647796631,4.312353134155273
14,-0.3471970856189728,-1.9860572814941406,-0.15944121778011322,36.7160717,3.184123,29.25,-1.32,-3.47,-0.58,90,246,3.767618179321289,3.721925735473633
15,-0.4293752610683441,-2.179605722427368,0.033059198409318924,36.7160323,3.1840473,30.65,-4.1,-5.8,-1.21,90,235,7.214977264404297,7.111133575439453
16,-0.5125804543495178,-2.167524576187134,-0.0002513278741389513,36.7159547,3.1839093,33.24,-5.38,-7.86,-1.58,89,235,9.661104202270508,9.529729843139648
17,-0.46681398153305054,-2.164750099182129,0.03550473600625992,36.7158799,3.1837726,35.72,-5.51,-8.1,-1.57,89,235,9.93077564239502,9.804364204406738
18,-0.4447917342185974,-2.163938045501709,-0.028393102809786797,36.7157919,3.1836103,38.58,-5.54,-8.23,-1.58,88,236,10.052763938903809,9.927241325378418
19,-0.49119624495506287,-2.164033889770508,0.0025443912018090487,36.7157168,3.1834709,41.06,-5.52,-8.24,-1.59,88,236,10.053817749023438,9.92711353302002
20,-0.425936222076416,-2.1628856658935547,0.005932054482400417,36.7156299,3.1833087,43.96,-5.53,-8.3,-1.6,87,235,10.104521751403809,9.976777076721191
21,-0.45180195569992065,-2.163238048553467,-0.03245978057384491,36.715555,3.1831687,46.45,-5.5,-8.28,-1.61,87,236,10.078001976013184,9.947916030883789
22,-0.48859554529190063,-2.1621015071868896,0.003923341631889343,36.7154803,3.183029,48.95,-5.51,-8.27,-1.61,87,236,10.072200775146484,9.941351890563965
23,-0.42852622270584106,-2.164841651916504,0.007261970080435276,36.7153931,3.1828665,51.87,-5.52,-8.29,-1.62,86,235,10.095640182495117,9.964611053466797
24,-0.45930197834968567,-2.1635162830352783,-0.032064348459243774,36.7153182,3.1827264,54.36,-5.51,-8.32,-1.62,86,236,10.117541313171387,9.985633850097656
25,-0.4888463020324707,-2.1643409729003906,0.011154758743941784,36.7152435,3.1825863,56.87,-5.5,-8.29,-1.62,85,236,10.08837890625,9.955917358398438
26,-0.42229828238487244,-2.1625633239746094,0.0131095414981246,36.7151565,3.1824234,59.79,-5.5,-8.28,-1.62,85,236,10.07822036743164,9.945779800415039
27,-0.46867796778678894,-2.164767265319824,-0.027906576171517372,36.7150817,3.1822837,62.3,-5.53,-8.3,-1.62,84,235,10.114274978637695,9.982808113098145
28,-0.33973634243011475,-2.1663548946380615,0.028770258650183678,36.7149951,3.1821225,65.18,-5.24,-7.78,-1.55,84,235,9.511898040771484,9.384105682373047
29,-0.06852668523788452,-2.167562246322632,-0.014832302927970886,36.7149328,3.1820068,67.28,-3.78,-5.66,-1.06,83,235,6.898740291595459,6.815609931945801
30,-0.10140454024076462,-2.129687547683716,0.045820433646440506,36.7148866,3.1819178,68.47,-2.26,-3.74,-0.32,83,237,4.385230541229248,4.373513221740723
31,-0.1484324336051941,-2.089817762374878,-0.018018370494246483,36.7148582,3.1818561,68.66,-2.01,-3.68,-0.03,83,240,4.202125072479248,4.201993465423584
32,-0.10972825437784195,-2.08726167678833,0.029755309224128723,36.7148312,3.1817945,68.65,-1.97,-3.63,-0.03,82,240,4.138521194458008,4.1383562088012695
33,0.03231247887015343,-2.160890579223633,-0.05386582016944885,36.714805,3.1817369,68.38,-1.31,-2.03,0.54,82,236,2.4782886505126953,2.4180185794830322
34,0.025638476014137268,-2.4721410274505615,-0.0011579644633457065,36.7147886,3.1817137,66.61,-1.1,-0.9,1.49,82,218,2.0710835456848145,1.430036187171936
35,-0.06194912642240524,-2.4758129119873047,0.011220763437449932,36.7147719,3.1816984,63.95,-1.04,-0.8,1.41,81,218,1.9335055351257324,1.3188327550888062
36,-0.013148307800292969,-2.4753952026367188,-0.007746747694909573,36.7147577,3.1816848,61.71,-1.07,-0.86,1.42,81,218,1.9851746559143066,1.38325035572052
37,-0.061450108885765076,-2.4758965969085693,0.006323210429400206,36.714743,3.1816702,59.47,-1.08,-0.88,1.43,80,218,2.008399724960327,1.402321219444275
38,-0.03489786759018898,-2.4762063026428223,-0.025225680321455002,36.7147258,3.1816531,56.86,-1.09,-0.87,1.44,80,218,2.0111327171325684,1.3963950872421265
39,-0.046659283339977264,-2.475863218307495,0.028042301535606384,36.714711,3.1816386,54.61,-1.07,-0.88,1.44,80,218,2.008538246154785,1.390457272529602
40,-0.06093914434313774,-2.4756829738616943,-0.009769285097718239,36.7146939,3.1816215,51.99,-1.08,-0.89,1.45,79,218,2.021965980529785,1.403417706489563
41,-0.013234765268862247,-2.475376844406128,0.023948322981595993,36.7146791,3.1816068,49.75,-1.07,-0.88,1.46,79,218,2.02618408203125,1.395717740058899
42,-0.05798499658703804,-2.476268768310547,0.019208630546927452,36.7146619,3.1815897,47.13,-1.08,-0.88,1.46,79,218,2.0284335613250732,1.401772379875183
43,-0.010098353028297424,-2.475994825363159,-0.00744373444467783,36.7146471,3.1815749,44.88,-1.08,-0.88,1.46,78,218,2.029313325881958,1.4005658626556396
44,-0.05890459939837456,-2.476123094558716,0.010227891616523266,36.7146323,3.1815602,42.64,-1.07,-0.88,1.47,78,218,2.031935453414917,1.3957754373550415
45,-0.03564184531569481,-2.4758639335632324,-0.02483963966369629,36.7146151,3.1815431,40.01,-1.07,-0.87,1.47,78,218,2.025538921356201,1.3856384754180908
46,-0.039350543171167374,-2.4761264324188232,0.02718706987798214,36.7146004,3.1815284,37.76,-1.07,-0.89,1.47,77,218,2.0291500091552734,1.3970669507980347
47,-0.060921959578990936,-2.475766658782959,-0.0071990396827459335,36.7145831,3.1815112,35.14,-1.09,-0.88,1.47,77,218,2.0396463871002197,1.405950903892517
48,-0.01714705489575863,-2.475436210632324,0.021305209025740623,36.7145683,3.1814965,32.89,-1.07,-0.87,1.47,76,218,2.0238428115844727,1.3844245672225952
49,-0.08655362576246262,-2.5555150508880615,-0.07356823980808258,36.7145533,3.181482,30.63,-1.23,-0.79,1.46,76,213,2.0779101848602295,1.4717105627059937
50,-0.21486791968345642,2.7374520301818848,-0.08468141406774521,36.7145234,3.1814798,28.75,-2.76,0.99,0.33,76,156,2.9577243328094482,2.938995122909546
51,-0.22532904148101807,2.671557903289795,0.010032175108790398,36.7144768,3.1815071,28.72,-3.93,1.98,-0.07,75,153,4.407519340515137,4.406874179840088
52,-0.0660286545753479,2.7433693408966064,0.061531223356723785,36.7144136,3.1815459,28.75,-3.83,1.57,0.06,75,157,4.146860122680664,4.146303176879883
53,-0.2104203701019287,-2.651848316192627,0.29895806312561035,36.7143666,3.181551,28.7,-2.97,-1.54,0.03,75,208,3.3513002395629883,3.351128578186035
54,-0.5001633763313293,-2.1526026725769043,-0.0013437621528282762,36.7143174,3.1814768,28.7,-3.64,-5.82,0.02,74,236,6.874128341674805,6.874075889587402
55,-0.4883859157562256,-2.150642156600952,0.029235949739813805,36.71426,3.1813629,28.7,-4.72,-7.48,0.0,74,236,8.850722312927246,8.85072135925293
56,-0.39023861289024353,-2.1512506008148193,0.0025671597104519606,36.7141935,3.1812335,28.72,-4.95,-7.67,0.0,73,236,9.135964393615723,9.135964393615723
57,-0.28246596455574036,-2.1521711349487305,0.024599511176347733,36.7141199,3.1810921,28.74,-4.17,-6.48,0.02,73,236,7.711838245391846,7.711790084838867
58,-0.24605382978916168,-2.1325788497924805,0.012045230716466904,36.7140688,3.1809908,28.72,-3.48,-5.7,0.03,73,237,6.682130336761475,6.682037353515625
59,-0.29641032218933105,-2.1121232509613037,0.032426126301288605,36.7140157,3.1808801,28.71,-3.31,-5.66,0.01,72,238,6.560281276702881,6.560267448425293
60,-0.2311638444662094,-2.108243465423584,-0.007465659640729427,36.7139711,3.1807846,28.71,-3.27,-5.66,0.01,72,239,6.543572425842285,6.543562412261963
61,-0.05540347844362259,-2.108597993850708,-0.008040416054427624,36.71393,3.1806968,28.71,-2.58,-4.42,0.02,71,239,5.125112056732178,5.125064849853516
62,0.16025465726852417,-2.1096386909484863,-0.030587609857320786,36.7139038,3.1806409,28.68,-0.67,-1.17,-0.01,71,239,1.3566129207611084,1.3565462827682495
63,0.01012897863984108,-2.109062910079956,0.024415168911218643,36.7139012,3.1806351,28.69,0.09,0.15,0.0,71,239,0.18113133311271667,0.18105202913284302
64,-0.06510095298290253,-1.9873708486557007,0.13766583800315857,36.7139061,3.1806354,28.65,0.87,-0.52,-0.03,70,246,1.017598032951355,1.0171524286270142
