timestamp,pitch,yaw,roll,lat,lon,alt,velocity_x,velocity_y,velocity_z,battery,heading,airspeed,groundspeed
0,0.0076810214668512344,-0.046779926866292953,0.029193520545959473,36.7156066,3.1846299,20.05,-0.02,0.02,0.03,96,357,0.05251738801598549,0.036422498524188995
1,-0.09016045182943344,-0.03578105568885803,0.08762248605489731,36.715608,3.1846326,20.01,0.4,0.61,0.0,95,357,0.7380964756011963,0.7380526065826416
2,-0.14487601816654205,1.4345152378082275,-0.10441551357507706,36.7156258,3.1846636,20.0,1.78,2.5,-0.04,95,82,3.0709736347198486,3.0706088542938232
3,-0.08588705211877823,0.901687502861023,0.021382542327046394,36.7156521,3.1847094,20.04,1.99,2.78,-0.03,95,51,3.426424026489258,3.4262592792510986
4,0.28852179646492004,0.8938254117965698,-0.04332639276981354,36.7156732,3.1847448,20.05,0.62,0.75,0.0,94,51,0.978973388671875,0.9789724349975586
5,0.00929416622966528,-0.6492222547531128,-0.24299240112304688,36.7156593,3.1847171,20.07,-2.04,-2.98,-0.04,94,322,3.6188273429870605,3.618490219116211
6,-0.15895576775074005,-2.173074245452881,0.02144463174045086,36.715629,3.184662,20.09,-2.31,-3.29,0.0,93,235,4.024808883666992,4.024798393249512
7,-0.0539320632815361,-1.737154483795166,0.1843399852514267,36.7156017,3.1845976,20.07,-0.65,-3.03,0.01,93,260,3.100374698638916,3.1003332138061523
8,-0.33617883920669556,-0.6586185097694397,0.1061934381723404,36.7156178,3.184549,20.05,3.16,-2.93,0.0,93,322,4.3148579597473145,4.314857006072998
9,-0.5218213200569153,-0.6068928241729736,-0.018949154764413834,36.7156825,3.1844896,20.06,6.19,-4.32,0.0,92,325,7.550681114196777,7.550680637359619
10,-0.4751822352409363,-0.6180885434150696,0.009993652813136578,36.7157955,3.1843914,20.08,7.8,-5.47,0.0,92,324,9.532708168029785,9.532706260681152
11,-0.43064433336257935,-0.6231473088264465,-0.025885749608278275,36.7159021,3.1842974,20.1,7.77,-5.53,0.0,91,324,9.544378280639648,9.5443754196167
12,-0.09730122983455658,-0.6253146529197693,0.022970519959926605,36.7160135,3.1841984,20.14,5.9,-4.23,0.03,91,324,7.261612415313721,7.26150369644165
13,0.06717278808355331,-0.8991162180900574,-0.2300386279821396,36.7160721,3.18414,20.17,2.35,-2.95,-0.11,91,308,3.7776901721954346,3.7758588790893555
14,-0.32271793484687805,-2.0968618392944336,-0.09828642010688782,36.7160745,3.184088,20.8,-1.95,-3.76,-0.7,90,239,4.29539155960083,4.2370147705078125
15,-0.5110500454902649,-2.1694982051849365,-0.0015767131699249148,36.7160191,3.1839879,22.7,-4.6,-6.6,-1.36,90,235,8.16539192199707,8.050042152404785
16,-0.4651915431022644,-2.166684865951538,0.04071628302335739,36.7159493,3.1838628,25.03,-5.48,-7.97,-1.6,89,235,9.811201095581055,9.679730415344238
17,-0.4465685784816742,-2.164008378982544,-0.03710538521409035,36.7158614,3.1837023,27.9,-5.52,-8.14,-1.57,89,236,9.96359634399414,9.83868408203125
18,-0.4907802939414978,-2.1637227535247803,0.020231736823916435,36.7157863,3.1835631,30.36,-5.53,-8.22,-1.58,88,236,10.042195320129395,9.916708946228027
19,-0.4473784565925598,-2.162529945373535,0.03248312324285507,36.7157114,3.1834238,32.85,-5.54,-8.25,-1.59,88,236,10.068710327148438,9.941710472106934
20,-0.4784472584724426,-2.166120767593384,-0.02333877421915531,36.7156242,3.1832614,35.74,-5.52,-8.27,-1.6,87,235,10.080342292785645,9.952500343322754
21,-0.490322470664978,-2.165303945541382,0.033184781670570374,36.7155493,3.1831216,38.23,-5.51,-8.31,-1.61,87,235,10.105340957641602,9.976052284240723
22,-0.43431732058525085,-2.1641643047332764,-0.02065325155854225,36.7154621,3.1829585,41.15,-5.51,-8.28,-1.61,87,236,10.079651832580566,9.949551582336426
23,-0.49155163764953613,-2.164604663848877,-0.005447052884846926,36.7153873,3.1828189,43.65,-5.51,-8.3,-1.61,86,235,10.094101905822754,9.963955879211426
24,-0.46306413412094116,-2.1634347438812256,0.03569887951016426,36.7153127,3.1826788,46.15,-5.5,-8.29,-1.63,86,236,10.09068775177002,9.957594871520996
25,-0.4519213140010834,-2.1669042110443115,-0.021787837147712708,36.7152255,3.1825161,49.07,-5.54,-8.29,-1.62,85,235,10.108589172363281,9.97706127166748
26,-0.4921194314956665,-2.1643941402435303,0.0027932473458349705,36.7151507,3.1823761,51.58,-5.51,-8.31,-1.62,85,235,10.10511589050293,9.97376823425293
27,-0.42201390862464905,-2.1642627716064453,0.0015523567562922835,36.7150635,3.1822127,54.49,-5.52,-8.28,-1.63,84,236,10.090461730957031,9.956817626953125
28,-0.3216460645198822,-2.1673572063446045,-0.02255544438958168,36.7149903,3.1820768,56.94,-5.07,-7.53,-1.5,84,235,9.206928253173828,9.08302116394043
29,-0.0850101187825203,-2.167323350906372,0.031928353011608124,36.7149314,3.1819673,58.91,-3.5,-5.26,-0.94,84,235,6.391380310058594,6.320976257324219
30,-0.150187149643898,-2.1199114322662354,-0.006150248926132917,36.7148882,3.181883,59.92,-2.2,-3.72,-0.24,83,238,4.338278293609619,4.331121444702148
31,-0.13517415523529053,-2.0869266986846924,0.031739741563797,36.7148603,3.1818213,60.05,-1.99,-3.68,-0.01,83,240,4.1905012130737305,4.190462112426758
32,-0.06830853223800659,-2.086956262588501,0.009500283747911453,36.7148291,3.1817505,60.04,-1.82,-3.36,-0.01,82,240,3.828763484954834,3.8287110328674316
33,0.06431693583726883,-2.209413766860962,-0.05515143647789955,36.7148086,3.181707,59.6,-1.25,-1.76,0.76,82,233,2.2987191677093506,2.168478488922119
34,-0.02500166930258274,-2.4868462085723877,0.025058075785636902,36.7147905,3.1816844,57.23,-1.02,-0.78,1.47,82,217,1.9598904848098755,1.2910338640213013
35,-0.03573205694556236,-2.4726951122283936,-0.020659223198890686,36.7147765,3.1816715,54.97,-1.03,-0.82,1.41,81,218,1.937082290649414,1.3245735168457031
36,-0.0399811714887619,-2.4702515602111816,0.03028094209730625,36.7147623,3.1816576,52.73,-1.05,-0.86,1.42,81,218,1.972549557685852,1.3617966175079346
37,-0.06054309010505676,-2.469951629638672,-0.008661418221890926,36.7147454,3.1816406,50.12,-1.07,-0.87,1.44,81,218,1.9998936653137207,1.385879397392273
38,-0.012652658857405186,-2.4697511196136475,0.017531825229525566,36.7147308,3.181626,47.88,-1.07,-0.87,1.44,80,218,2.0024232864379883,1.3876038789749146
39,-0.05386924371123314,-2.4699490070343018,0.020846227183938026,36.7147138,3.181609,45.26,-1.06,-0.88,1.45,80,218,2.0031216144561768,1.3816659450531006
40,-0.021615205332636833,-2.4701969623565674,-0.0190615002065897,36.7146993,3.1815944,43.02,-1.07,-0.87,1.46,79,218,2.0166313648223877,1.3887226581573486
41,-0.05622940883040428,-2.470426082611084,0.022296736016869545,36.7146847,3.1815797,40.77,-1.06,-0.88,1.46,79,218,2.020150661468506,1.3869123458862305
42,-0.053271014243364334,-2.4699361324310303,-0.019860299304127693,36.7146677,3.1815625,38.15,-1.07,-0.89,1.46,79,218,2.0254688262939453,1.3965245485305786
43,-0.02631155587732792,-2.4694573879241943,0.029089752584695816,36.714653,3.1815478,35.91,-1.06,-0.88,1.47,78,218,2.022014856338501,1.3844813108444214
44,-0.05808442085981369,-2.470067024230957,0.017011892050504684,36.714636,3.1815306,33.28,-1.06,-0.88,1.47,78,218,2.0238308906555176,1.3840302228927612
45,-0.008747152052819729,-2.469745635986328,-0.0032202855218201876,36.7146215,3.181516,31.03,-1.06,-0.88,1.47,78,218,2.02089786529541,1.3816468715667725
46,-0.028911612927913666,-2.4701592922210693,0.02957351878285408,36.7146045,3.1814988,28.41,-1.06,-0.88,1.47,77,218,2.024088144302368,1.3837751150131226
47,-0.03394661843776703,-2.46968674659729,-0.029275691136717796,36.7145899,3.181484,26.16,-1.06,-0.87,1.47,77,218,2.023695945739746,1.384386420249939
48,-0.03285735845565796,-2.4698848724365234,0.029599379748106003,36.7145753,3.1814693,23.9,-1.05,-0.88,1.47,77,218,2.014565944671631,1.3747659921646118
49,-0.1124032661318779,-2.809077024459839,-0.08657526969909668,36.7145567,3.1814534,21.31,-1.52,-0.55,1.35,76,199,2.1188340187072754,1.6255701780319214
50,-0.21164900064468384,2.691892623901367,-0.045343365520238876,36.7145267,3.1814578,20.07,-3.04,1.27,0.15,76,154,3.3053526878356934,3.301835298538208
51,-0.2151527851819992,2.6792759895324707,-0.0094849718734622,36.7144772,3.1814871,20.13,-4.04,2.01,-0.05,75,153,4.515513896942139,4.515117168426514
52,-0.032212257385253906,2.8046882152557373,0.099756620824337,36.7144134,3.1815246,20.12,-3.79,1.31,0.06,75,160,4.016598701477051,4.016066074371338
53,-0.2937774956226349,-2.4846949577331543,0.25438499450683594,36.7143676,3.1815223,20.08,-2.91,-2.1,0.03,75,217,3.5951616764068604,3.595029354095459
54,-0.4884240925312042,-2.140717029571533,-0.03288405388593674,36.7143172,3.181439,20.08,-3.83,-6.12,0.01,74,237,7.227626323699951,7.227601528167725
55,-0.49998739361763,-2.1493191719055176,0.027087708935141563,36.7142581,3.1813219,20.09,-4.81,-7.6,0.0,74,236,8.99685001373291,8.996848106384277
56,-0.35532549023628235,-2.151540756225586,-0.02977615036070347,36.7141801,3.1811704,20.11,-4.85,-7.47,0.0,73,236,8.909162521362305,8.909160614013672
57,-0.26803386211395264,-2.150609016418457,0.031590744853019714,36.7141192,3.1810533,20.12,-4.05,-6.31,0.03,73,236,7.508142471313477,7.508069038391113
58,-0.245380699634552,-2.1251003742218018,0.021334538236260414,36.7140695,3.1809539,20.09,-3.43,-5.68,0.03,73,238,6.644961357116699,6.644882678985596
59,-0.29452821612358093,-2.103027582168579,0.03405194729566574,36.7140174,3.180843,20.09,-3.23,-5.66,0.01,72,239,6.523645877838135,6.5236334800720215
60,-0.20789261162281036,-2.100504159927368,-0.00935656949877739,36.7139737,3.1807476,20.09,-3.19,-5.61,0.0,72,239,6.459766387939453,6.4597625732421875
61,0.07257331907749176,-2.1004583835601807,0.03028261661529541,36.7139295,3.1806517,20.08,-2.1,-3.68,0.04,71,239,4.247398376464844,4.247203350067139
62,0.1404382884502411,-2.1006603240966797,-0.030768396332859993,36.7139124,3.1806139,20.06,-0.49,-0.88,-0.01,71,239,1.012210726737976,1.0120588541030884
63,0.002834205748513341,-2.1011714935302734,0.028195302933454514,36.7139111,3.1806108,20.07,0.11,0.16,0.01,71,239,0.20184528827667236,0.20135711133480072
