timestamp,pitch,yaw,roll,lat,lon,alt,velocity_x,velocity_y,velocity_z,battery,heading,airspeed,groundspeed
0,0.018951836973428726,0.033582497388124466,-0.021964551880955696,36.7156067,3.18463,24.61,-0.03,0.02,-0.13,96,1,0.14151176810264587,0.03982735425233841
1,-0.11097858846187592,0.036270271986722946,0.08561461418867111,36.7156087,3.1846313,24.67,0.55,0.32,-0.07,95,2,0.6459329724311829,0.641679584980011
2,-0.248653382062912,0.48057296872138977,-0.027727222070097923,36.7156285,3.1846439,24.7,2.54,1.31,-0.04,95,27,2.8633973598480225,2.8630356788635254
3,-0.14634987711906433,0.45649150013923645,-0.004634488373994827,36.7156813,3.1846782,24.71,3.85,1.95,-0.02,95,26,4.322821617126465,4.322758197784424
4,-0.048566292971372604,0.45964834094047546,-0.02432517521083355,36.7157334,3.1847107,24.71,3.54,1.73,-0.01,94,26,3.9509856700897217,3.9509713649749756
5,0.07403809577226639,-0.5828466415405273,-0.385700523853302,36.7157667,3.1847214,24.73,-0.06,-1.2,-0.03,94,326,1.206239104270935,1.2058392763137817
6,-0.19287540018558502,-2.136051654815674,0.01441610511392355,36.7157473,3.1846795,24.72,-2.35,-3.24,0.05,93,237,4.012659072875977,4.012239456176758
7,-0.13300257921218872,-2.0797247886657715,0.003092159517109394,36.715715,3.1846222,24.74,-2.35,-3.34,-0.03,93,240,4.096269130706787,4.096089839935303
8,-0.047563277184963226,-1.4619457721710205,0.2441360056400299,36.7156935,3.1845588,24.71,0.29,-2.89,0.02,93,276,2.911707878112793,2.9116127490997314
9,-0.43332281708717346,-0.6583492159843445,0.09907027333974838,36.7157241,3.1845096,24.7,4.18,-3.19,0.0,92,322,5.271903038024902,5.271903038024902
10,-0.5078215003013611,-0.6281334757804871,-0.020084118470549583,36.7158153,3.1844295,24.71,7.08,-4.89,0.0,92,324,8.613211631774902,8.613211631774902
11,-0.519995927810669,-0.6216646432876587,0.0065323179587721825,36.715918,3.1843402,24.73,7.89,-5.54,0.0,91,324,9.646736145019531,9.646735191345215
12,-0.3200538456439972,-0.6241866946220398,-0.013148060068488121,36.716041,3.1842314,24.76,7.34,-5.24,-0.01,91,324,9.024232864379883,9.024226188659668
13,-0.06184125691652298,-0.6301354765892029,-0.0378965362906456,36.7161275,3.1841545,24.77,5.08,-3.7,0.05,91,323,6.2877888679504395,6.287547588348389
14,0.030049994587898254,-1.2163360118865967,-0.2841801941394806,36.7161715,3.1841013,24.9,1.08,-2.89,-0.25,90,290,3.1026360988616943,3.0919394493103027
15,-0.41525033116340637,-2.1391513347625732,-0.019261382520198822,36.7161512,3.1840313,26.03,-3.27,-4.73,-0.98,90,237,5.83873987197876,5.754806995391846
16,-0.45413219928741455,-2.1610970497131348,-0.011940247379243374,36.7160938,3.1839304,27.95,-4.98,-7.15,-1.47,89,236,8.84334945678711,8.720030784606934
17,-0.47016096115112305,-2.162625789642334,-0.023325921967625618,36.716021,3.1837994,30.36,-5.53,-8.05,-1.6,89,236,9.899822235107422,9.769115447998047
18,-0.43232548236846924,-2.1640872955322266,0.030136113986372948,36.7159331,3.1836383,33.24,-5.54,-8.2,-1.57,88,236,10.02791976928711,9.903127670288086
19,-0.43220341205596924,-2.1625583171844482,-0.02563365548849106,36.715858,3.1834986,35.7,-5.53,-8.23,-1.58,88,236,10.046449661254883,9.92106819152832
20,-0.47888490557670593,-2.1681392192840576,0.03592229634523392,36.7157708,3.1833369,38.58,-5.54,-8.27,-1.6,87,235,10.087650299072266,9.95934009552002
21,-0.42232728004455566,-2.1632368564605713,0.03273317962884903,36.7156959,3.183197,41.08,-5.5,-8.29,-1.61,87,236,10.089035987854004,9.959478378295898
22,-0.4860725402832031,-2.1624069213867188,-0.012123910710215569,36.7156089,3.1830339,43.99,-5.51,-8.26,-1.6,87,236,10.059208869934082,9.92994213104248
23,-0.49387940764427185,-2.1655313968658447,0.0006786086596548557,36.7155465,3.1829179,46.07,-5.52,-8.28,-1.61,86,235,10.085118293762207,9.955032348632812
24,-0.42180055379867554,-2.16186785697937,-0.0008014329941943288,36.7154594,3.1827546,48.98,-5.5,-8.31,-1.63,86,236,10.106952667236328,9.97401237487793
25,-0.49103838205337524,-2.1670782566070557,0.012859162874519825,36.7153721,3.1825915,51.91,-5.54,-8.27,-1.62,85,235,10.090666770935059,9.959000587463379
26,-0.4536898732185364,-2.1653196811676025,0.04008115828037262,36.7152974,3.1824519,54.41,-5.5,-8.29,-1.63,85,235,10.088759422302246,9.956138610839844
27,-0.47379884123802185,-2.1624903678894043,-0.03597912937402725,36.7152105,3.1822885,57.32,-5.53,-8.31,-1.63,84,236,10.124543190002441,9.991690635681152
28,-0.4663754403591156,-2.1650004386901855,0.019150221720337868,36.7151354,3.1821486,59.83,-5.51,-8.25,-1.63,84,235,10.06226634979248,9.928728103637695
29,-0.22166728973388672,-2.168137550354004,0.02261362038552761,36.7150646,3.1820175,62.21,-4.74,-7.04,-1.41,83,235,8.606276512145996,8.4894437789917
30,-0.08434431254863739,-2.157651901245117,0.018564362078905106,36.715005,3.1819057,64.09,-2.83,-4.39,-0.63,83,236,5.264553070068359,5.226086616516113
31,-0.11195988208055496,-2.1045854091644287,0.01261723879724741,36.7149729,3.1818403,64.64,-2.13,-3.69,-0.14,83,239,4.2726054191589355,4.270124912261963
32,-0.15493765473365784,-2.0862720012664795,0.033620353788137436,36.7149409,3.1817686,64.68,-1.99,-3.68,-0.01,82,240,4.190929412841797,4.190906047821045
33,0.007936210371553898,-2.0898420810699463,-0.03528018295764923,36.7149154,3.1817107,64.66,-1.64,-2.98,0.08,82,240,3.4110031127929688,3.4100046157836914
34,0.0015063582686707377,-2.317197322845459,-0.029514392837882042,36.7148966,3.1816746,63.82,-1.21,-1.41,1.14,82,227,2.185326099395752,1.8643220663070679
35,-0.05466483160853386,-2.4762799739837646,-0.009506740607321262,36.714879,3.1816557,61.22,-1.04,-0.79,1.43,81,218,1.945184350013733,1.3151476383209229
36,-0.014285341836512089,-2.476818323135376,0.0185626819729805,36.7148649,3.1816426,58.99,-1.05,-0.81,1.42,81,218,1.9528212547302246,1.3364816904067993
37,-0.05660301446914673,-2.476043462753296,0.022038571536540985,36.714848,3.1816261,56.37,-1.07,-0.88,1.43,80,218,2.0017948150634766,1.3914765119552612
38,-0.011851701885461807,-2.47550106048584,-0.012443441897630692,36.7148332,3.1816115,54.13,-1.08,-0.88,1.44,80,218,2.01265549659729,1.4044164419174194
39,-0.05532132834196091,-2.475738763809204,0.019652200862765312,36.7148184,3.1815968,51.89,-1.07,-0.87,1.44,80,218,2.010014057159424,1.3929908275604248
40,-0.01390109769999981,-2.4755330085754395,-0.012471259571611881,36.7148038,3.1815823,49.65,-1.09,-0.88,1.46,79,218,2.0271854400634766,1.4061102867126465
41,-0.026651959866285324,-2.4756979942321777,0.028969518840312958,36.7147865,3.1815651,47.03,-1.07,-0.88,1.46,79,218,2.0197319984436035,1.3901634216308594
42,-0.062528096139431,-2.476253032684326,0.008409695699810982,36.7147693,3.1815479,44.41,-1.07,-0.89,1.47,79,218,2.0302162170410156,1.3998756408691406
43,-0.007473547477275133,-2.474905490875244,0.00740412250161171,36.7147546,3.1815332,42.16,-1.08,-0.88,1.47,78,218,2.0329580307006836,1.4004250764846802
44,-0.05936574190855026,-2.475627899169922,0.004506933968514204,36.7147397,3.1815185,39.91,-1.07,-0.89,1.47,78,218,2.028441905975342,1.3943020105361938
45,-0.029855549335479736,-2.4755966663360596,-0.0223668422549963,36.7147225,3.1815014,37.28,-1.07,-0.88,1.46,78,218,2.0262022018432617,1.3947234153747559
46,-0.04123306646943092,-2.476015329360962,0.02874690480530262,36.7147078,3.1814867,35.05,-1.07,-0.88,1.47,77,218,2.0337469577789307,1.395869255065918
47,-0.06287851929664612,-2.4754302501678467,-0.008419306948781013,36.7146906,3.1814695,32.42,-1.08,-0.88,1.47,77,218,2.0342748165130615,1.4003381729125977
48,-0.010669106617569923,-2.4752886295318604,0.013390458188951015,36.7146758,3.1814547,30.16,-1.07,-0.87,1.47,76,218,2.021082878112793,1.3845659494400024
49,-0.05010899156332016,-2.475849151611328,0.02160116285085678,36.7146585,3.1814376,27.54,-1.07,-0.88,1.47,76,218,2.026846170425415,1.3897590637207031
50,-0.11340240389108658,-3.1051571369171143,-0.13242188096046448,36.7146399,3.1814265,25.41,-1.87,-0.15,1.11,76,182,2.189368724822998,1.8817788362503052
51,-0.2444663643836975,2.6681666374206543,-0.0026950163301080465,36.7146039,3.1814399,24.69,-3.41,1.65,-0.03,75,152,3.792762041091919,3.792626142501831
52,-0.1746007204055786,2.6722724437713623,-0.02871040254831314,36.7145428,3.181478,24.79,-4.01,2.05,0.02,75,153,4.510286331176758,4.510204315185547
53,-0.012063570320606232,2.994009494781494,0.2155458629131317,36.7144905,3.1815043,24.74,-3.52,0.53,0.05,75,171,3.56445574760437,3.5640788078308105
54,-0.3798774182796478,-2.226152181625366,0.1032332330942154,36.7144481,3.1814827,24.72,-2.95,-3.36,0.01,74,232,4.479561805725098,4.479520797729492
55,-0.45797884464263916,-2.1476902961730957,0.02049463801085949,36.7143929,3.1813803,24.72,-4.24,-6.72,0.0,74,236,7.956865310668945,7.956859111785889
56,-0.46353375911712646,-2.148070812225342,-0.03347107395529747,36.71433,3.1812563,24.73,-4.91,-7.72,0.0,73,236,9.15699577331543,9.156994819641113
57,-0.3060244619846344,-2.1525774002075195,0.023316998034715652,36.7142528,3.1811066,24.76,-4.63,-7.13,0.0,73,236,8.50626277923584,8.50626277923584
58,-0.2358589768409729,-2.146298885345459,-0.015289264731109142,36.7141953,3.1809956,24.75,-3.79,-5.96,0.03,73,237,7.0759358406066895,7.075850486755371
59,-0.2518409192562103,-2.118436813354492,0.029210258275270462,36.7141399,3.180883,24.72,-3.36,-5.67,0.01,72,238,6.596210479736328,6.59619665145874
60,-0.2891632616519928,-2.1076579093933105,-0.026509320363402367,36.7140951,3.1807877,24.73,-3.28,-5.65,0.01,72,239,6.545337677001953,6.54532527923584
61,-0.17553308606147766,-2.108694314956665,0.031859464943408966,36.7140508,3.1806932,24.73,-3.1,-5.32,0.0,71,239,6.161998748779297,6.161999225616455
62,0.1247742623090744,-2.109204053878784,-0.0071917008608579636,36.7140115,3.1806095,24.7,-1.58,-2.72,0.03,71,239,3.151263475418091,3.1510679721832275
63,0.13755609095096588,-2.1089632511138916,0.013032225891947746,36.7140005,3.1805857,24.71,-0.18,-0.34,-0.01,71,239,0.3902994692325592,0.38989320397377014
64,-0.0223383866250515,-2.1107265949249268,0.09320266544818878,36.7140015,3.1805868,24.68,0.24,0.02,0.04,70,239,0.24488477408885956,0.24155732989311218
