timestamp,pitch,yaw,roll,lat,lon,alt,velocity_x,velocity_y,velocity_z,battery,heading,airspeed,groundspeed
0,-0.02253197878599167,0.02566780522465706,-0.008316736668348312,36.7156066,3.1846299,22.8,-0.01,0.02,-0.11,96,1,0.12296187877655029,0.028333667665719986
1,-0.06429500132799149,0.03962516784667969,0.09384629875421524,36.7156084,3.1846323,22.82,0.47,0.52,-0.04,95,2,0.7126711010932922,0.7111432552337646
2,-0.22489029169082642,1.1191374063491821,-0.05184919387102127,36.7156248,3.1846532,22.85,2.0,2.06,-0.04,95,64,2.877063274383545,2.876735210418701
3,-0.14924883842468262,0.8250585794448853,-0.017753105610609055,36.7156634,3.1847022,22.84,2.63,2.64,-0.01,95,47,3.7320570945739746,3.7320401668548584
4,0.1922946572303772,0.7434026002883911,-0.006958650425076485,36.7156958,3.1847413,22.83,1.65,1.48,0.0,94,42,2.2226741313934326,2.222667694091797
5,-0.06635385006666183,-0.9016255140304565,-0.24464406073093414,36.7156958,3.18473,22.85,-1.69,-2.57,-0.01,94,308,3.082174062728882,3.082157611846924
6,-0.13577739894390106,-2.3667733669281006,-0.007485614158213139,36.7156665,3.1846769,22.82,-2.35,-3.34,-0.06,93,224,4.091332912445068,4.090877532958984
7,-0.035492245107889175,-2.0173399448394775,0.12872768938541412,36.7156372,3.1846201,22.86,-1.69,-3.2,0.03,93,244,3.6272389888763428,3.6270411014556885
8,-0.351195365190506,-0.8292429447174072,0.18643002212047577,36.7156373,3.1845615,22.82,2.22,-2.78,0.0,93,312,3.5626823902130127,3.5626718997955322
9,-0.4558033347129822,-0.6126965284347534,6.463716272264719e-05,36.7156913,3.1845074,22.82,5.59,-3.9,0.0,92,324,6.8228349685668945,6.82282829284668
10,-0.5366994142532349,-0.6165324449539185,-0.015193730592727661,36.7157814,3.1844295,22.84,7.48,-5.17,0.0,92,324,9.102554321289062,9.102554321289062
11,-0.451193243265152,-0.6167882680892944,0.014060534536838531,36.7159046,3.1843223,22.85,7.9,-5.57,0.0,91,324,9.679149627685547,9.679145812988281
12,-0.24355769157409668,-0.6222723722457886,0.008155055344104767,36.7160224,3.1842182,22.9,6.58,-4.68,0.01,91,324,8.082584381103516,8.082572937011719
13,0.09362439066171646,-0.7348626852035522,-0.12224114686250687,36.7160933,3.1841534,22.9,3.48,-3.11,-0.01,91,317,4.671050548553467,4.671026229858398
14,-0.30296969413757324,-1.8701201677322388,-0.20775991678237915,36.7161116,3.1841038,23.3,-0.9,-3.26,-0.51,90,252,3.4271833896636963,3.3878772258758545
15,-0.444305419921875,-2.1801950931549072,-0.017517725005745888,36.7160677,3.1840166,24.92,-4.22,-5.95,-1.23,90,235,7.409477233886719,7.304981708526611
16,-0.5140843391418457,-2.169973850250244,0.006237043999135494,36.7160011,3.1838986,27.12,-5.35,-7.73,-1.57,89,235,9.54469108581543,9.414353370666504
17,-0.4264924228191376,-2.1647684574127197,0.014478776603937149,36.7159138,3.1837399,30.0,-5.52,-8.09,-1.58,89,235,9.927722930908203,9.80112361907959
18,-0.46953728795051575,-2.1648108959198,-0.027899645268917084,36.7158389,3.1836013,32.47,-5.55,-8.25,-1.57,88,235,10.069292068481445,9.946126937866211
19,-0.48873719573020935,-2.164522647857666,0.020609458908438683,36.7157637,3.1834615,34.93,-5.54,-8.27,-1.58,88,235,10.08649730682373,9.960421562194824
20,-0.42406436800956726,-2.1644434928894043,-0.010383681394159794,36.7156762,3.1832985,37.83,-5.52,-8.26,-1.6,87,235,10.074061393737793,9.945636749267578
21,-0.48093119263648987,-2.163297414779663,-0.034165795892477036,36.7156016,3.1831595,40.33,-5.52,-8.26,-1.59,87,236,10.068582534790039,9.940919876098633
22,-0.4364933967590332,-2.163496732711792,0.03067866340279579,36.7155143,3.1829964,43.23,-5.5,-8.3,-1.61,87,236,10.10018253326416,9.970029830932617
23,-0.4425904154777527,-2.16426420211792,-0.028315583243966103,36.7154396,3.1828563,45.73,-5.51,-8.27,-1.62,86,236,10.080089569091797,9.948119163513184
24,-0.4928080439567566,-2.164489507675171,-0.000525490555446595,36.7153649,3.1827169,48.24,-5.52,-8.31,-1.61,86,235,10.110370635986328,9.979757308959961
25,-0.42305633425712585,-2.1659934520721436,0.016591493040323257,36.7152776,3.1825538,51.16,-5.54,-8.28,-1.63,85,235,10.09904956817627,9.96660327911377
26,-0.45917370915412903,-2.1650216579437256,-0.025347279384732246,36.7152027,3.1824137,53.65,-5.5,-8.29,-1.63,85,235,10.091938018798828,9.959015846252441
27,-0.44969090819358826,-2.16373610496521,0.033765021711587906,36.7151157,3.1822505,56.58,-5.51,-8.28,-1.63,84,236,10.08239459991455,9.94841194152832
28,-0.34556326270103455,-2.1646926403045654,-0.017494823783636093,36.7150417,3.1821124,59.07,-5.34,-7.93,-1.56,84,235,9.698531150817871,9.570658683776855
29,-0.1303221434354782,-2.167436122894287,-0.004586750641465187,36.714977,3.1819927,61.22,-3.99,-5.94,-1.15,83,235,7.2528767585754395,7.160326957702637
30,-0.06974850594997406,-2.1415772438049316,0.002655781339854002,36.7149282,3.1818998,62.55,-2.37,-3.81,-0.37,83,237,4.507732391357422,4.491971969604492
31,-0.16738733649253845,-2.106902599334717,0.029487639665603638,36.7148986,3.1818378,62.81,-2.09,-3.67,-0.04,83,239,4.2364020347595215,4.2361836433410645
32,-0.10285346955060959,-2.1030259132385254,-0.02170642651617527,36.7148659,3.1817663,62.8,-2.03,-3.59,-0.03,82,239,4.132874965667725,4.132728099822998
33,0.06842002272605896,-2.1479907035827637,-0.008081259205937386,36.7148424,3.1817161,62.61,-1.38,-2.2,0.4,82,236,2.6335787773132324,2.6018779277801514
34,-0.0225105881690979,-2.4717490673065186,-0.017307616770267487,36.7148233,3.1816883,60.64,-1.07,-0.87,1.49,82,218,2.0424981117248535,1.3894190788269043
35,-0.009659547358751297,-2.4666333198547363,-0.001111334189772606,36.7148092,3.1816752,58.36,-1.03,-0.8,1.4,81,218,1.9279030561447144,1.3148436546325684
36,-0.06404761224985123,-2.469163417816162,0.005656275898218155,36.7147951,3.1816615,56.12,-1.05,-0.85,1.43,81,218,1.9707149267196655,1.3554985523223877
37,-0.0325457863509655,-2.4701387882232666,-0.02450910210609436,36.7147783,3.1816448,53.5,-1.07,-0.88,1.43,81,218,1.9964817762374878,1.3910523653030396
38,-0.03656637296080589,-2.4700939655303955,0.028086388483643532,36.7147637,3.1816302,51.26,-1.06,-0.87,1.44,80,218,1.993024468421936,1.3778735399246216
39,-0.05909381061792374,-2.4695613384246826,-0.007708466611802578,36.7147467,3.1816131,48.65,-1.06,-0.89,1.45,80,218,2.0133073329925537,1.3911888599395752
40,-0.00808629672974348,-2.4697742462158203,0.008849645964801311,36.7147321,3.1815984,46.41,-1.07,-0.88,1.46,79,218,2.017289161682129,1.3913917541503906
41,-0.06070113927125931,-2.4700419902801514,-0.007849959656596184,36.7147176,3.1815838,44.16,-1.07,-0.89,1.46,79,218,2.0185165405273438,1.3936346769332886
42,-0.021173207089304924,-2.4703686237335205,-0.023031003773212433,36.7147005,3.1815666,41.54,-1.07,-0.89,1.47,79,218,2.0285696983337402,1.3963532447814941
43,-0.054991524666547775,-2.469632387161255,0.02019628882408142,36.714686,3.1815519,39.29,-1.05,-0.88,1.47,78,218,2.017399787902832,1.3792970180511475
44,-0.05964796990156174,-2.4696905612945557,-0.011433187872171402,36.714669,3.1815348,36.67,-1.07,-0.89,1.46,78,218,2.0252370834350586,1.394641399383545
45,-0.018588926643133163,-2.4696877002716064,0.019277583807706833,36.7146544,3.18152,34.42,-1.07,-0.88,1.47,78,218,2.0276358127593994,1.3899879455566406
46,-0.05401674285531044,-2.4700520038604736,-0.013425808399915695,36.7146397,3.1815053,32.17,-1.06,-0.88,1.47,77,218,2.0236055850982666,1.385219693183899
47,-0.01454251166433096,-2.4701333045959473,-0.01777380332350731,36.7146228,3.1814882,29.54,-1.06,-0.87,1.46,77,218,2.0161662101745605,1.3814095258712769
48,-0.05506405234336853,-2.4702463150024414,0.021736402064561844,36.7146082,3.1814735,27.29,-1.05,-0.88,1.46,77,218,2.015087366104126,1.379282832145691
49,-0.08664777129888535,-2.578495740890503,-0.07906781136989594,36.7145908,3.1814565,24.68,-1.25,-0.78,1.46,76,212,2.0900726318359375,1.4863466024398804
50,-0.20515784621238708,2.8017077445983887,-0.059826578944921494,36.7145661,3.1814534,22.97,-2.54,0.75,0.49,76,160,2.7007229328155518,2.6554300785064697
51,-0.22379568219184875,2.67193603515625,-0.026318352669477463,36.7145213,3.1814784,22.85,-3.85,1.94,-0.05,75,153,4.321645259857178,4.321288585662842
52,-0.05890636518597603,2.711381196975708,0.06968741118907928,36.7144579,3.1815179,22.9,-3.87,1.74,0.06,75,155,4.251956939697266,4.251412868499756
53,-0.1588580459356308,-2.815021514892578,0.28902360796928406,36.7144097,3.1815284,22.85,-3.04,-1.06,0.03,75,198,3.225886344909668,3.225673198699951
54,-0.46803680062294006,-2.166506052017212,0.008521025069057941,36.7143615,3.1814631,22.84,-3.49,-5.48,0.02,74,235,6.50922966003418,6.509181499481201
55,-0.5107171535491943,-2.153834819793701,0.02153216116130352,36.7143057,3.1813525,22.84,-4.63,-7.35,0.0,74,236,8.695699691772461,8.695698738098145
56,-0.4114719033241272,-2.152029275894165,0.010614496655762196,36.7142396,3.1812238,22.86,-4.96,-7.68,0.0,73,236,9.146255493164062,9.146254539489746
57,-0.31073254346847534,-2.1521754264831543,0.01681802049279213,36.7141653,3.1810807,22.88,-4.27,-6.65,0.02,73,236,7.909427642822266,7.909385681152344
58,-0.24536076188087463,-2.1353981494903564,0.025537192821502686,36.7141129,3.1809774,22.86,-3.55,-5.73,0.03,73,237,6.746037483215332,6.745940208435059
59,-0.29747018218040466,-2.112926721572876,0.02908642403781414,36.7140591,3.1808659,22.85,-3.3,-5.64,0.01,72,238,6.53887414932251,6.5388641357421875
60,-0.2551890015602112,-2.10844349861145,0.006170203443616629,36.7140147,3.1807712,22.85,-3.3,-5.67,0.01,72,239,6.5622334480285645,6.562220573425293
61,-0.0904882550239563,-2.1089813709259033,-0.00014171646034810692,36.7139726,3.1806812,22.85,-2.71,-4.68,0.01,71,239,5.413125991821289,5.413106441497803
62,0.162122905254364,-2.109480857849121,-0.029517872259020805,36.7139434,3.1806189,22.82,-0.84,-1.44,0.0,71,239,1.6753711700439453,1.6753658056259155
63,0.04011211544275284,-2.10959792137146,0.028606709092855453,36.7139395,3.1806102,22.84,0.08,0.1,0.0,71,239,0.13668957352638245,0.13668638467788696
64,-0.053668584674596786,-2.0783274173736572,0.13278312981128693,36.7139433,3.1806116,22.79,0.68,-0.37,-0.01,70,240,0.7859203219413757,0.7857013940811157
