timestamp,pitch,yaw,roll,lat,lon,alt,velocity_x,velocity_y,velocity_z,battery,heading,airspeed,groundspeed
0,0.027428174391388893,0.018249887973070145,0.010600347071886063,36.7156066,3.18463,18.38,-0.02,0.02,0.01,96,1,0.039390627294778824,0.03642281889915466
1,-0.0885080099105835,0.014906584285199642,0.09093363583087921,36.7156079,3.1846323,18.4,0.34,0.54,0.0,95,0,0.6464448571205139,0.6464439034461975
2,-0.2307034730911255,1.3594623804092407,-0.12157654017210007,36.7156208,3.1846544,18.35,1.68,2.39,0.0,95,77,2.925300359725952,2.925287961959839
3,-0.2294885814189911,0.940223217010498,0.0006893139216117561,36.7156589,3.1847215,18.39,2.95,4.16,-0.03,95,53,5.104995250701904,5.104843616485596
4,-0.19225236773490906,0.9315310120582581,-0.019109342247247696,36.7157012,3.1847944,18.42,3.13,4.3,-0.02,94,53,5.3245038986206055,5.324455261230469
5,0.24657964706420898,0.9330125451087952,-0.019310636445879936,36.7157432,3.1848651,18.43,1.62,2.19,0.01,94,53,2.725463628768921,2.7254374027252197
6,0.22716772556304932,0.25382736325263977,-0.16921891272068024,36.7157457,3.1848672,18.43,-1.3,-1.91,-0.01,93,14,2.3226122856140137,2.3225486278533936
7,-0.135703444480896,-1.642461895942688,-0.07979507744312286,36.7157146,3.1848112,18.47,-2.28,-3.26,0.01,93,265,3.981825351715088,3.9818058013916016
8,-0.029387956485152245,-2.1969640254974365,0.07464104890823364,36.7156856,3.1847561,18.45,-1.85,-3.2,0.01,93,234,3.7006168365478516,3.700584650039673
9,-0.15122133493423462,-1.3348031044006348,0.26405584812164307,36.7156755,3.1847048,18.43,0.79,-2.75,0.01,92,283,2.8651492595672607,2.865126609802246
10,-0.4517577290534973,-0.6425058841705322,0.009980260394513607,36.7157224,3.184646,18.43,4.97,-3.55,0.0,92,323,6.1174397468566895,6.1174397468566895
11,-0.5366289615631104,-0.6267581582069397,0.0252273827791214,36.7158061,3.1845731,18.44,7.18,-4.96,0.0,91,324,8.730661392211914,8.730656623840332
12,-0.4758545458316803,-0.6213530898094177,-0.024147100746631622,36.7159269,3.1844678,18.45,7.86,-5.56,0.0,91,324,9.641277313232422,9.641277313232422
13,-0.35185080766677856,-0.6235249638557434,-0.004043654538691044,36.7160311,3.1843754,18.48,7.2,-5.13,-0.02,91,324,8.852781295776367,8.85274887084961
14,0.019236251711845398,-0.6412271857261658,-0.0445806086063385,36.7161148,3.184301,18.49,4.76,-3.54,0.04,90,323,5.939112186431885,5.938964366912842
15,-0.17666476964950562,-1.5972247123718262,-0.243135005235672,36.7161542,3.1842408,18.76,-0.09,-3.02,-0.41,90,268,3.059542417526245,3.031360149383545
16,-0.40890535712242126,-2.1466739177703857,-0.0653955414891243,36.716128,3.184176,19.9,-3.5,-4.95,-1.05,89,237,6.158957481384277,6.068781852722168
17,-0.502088189125061,-2.164980173110962,0.04289461672306061,36.7160563,3.1840501,22.28,-5.23,-7.51,-1.54,89,235,9.287010192871094,9.158119201660156
18,-0.4236893355846405,-2.165036916732788,0.0007257485995069146,36.7159821,3.1839161,24.74,-5.52,-8.04,-1.59,88,235,9.88520622253418,9.756340980529785
19,-0.47254541516304016,-2.1641879081726074,-0.032991088926792145,36.7159071,3.1837781,27.19,-5.55,-8.23,-1.57,88,236,10.055758476257324,9.931745529174805
20,-0.44427403807640076,-2.1654396057128906,0.03502776846289635,36.7158194,3.1836151,30.06,-5.54,-8.25,-1.6,88,235,10.07655143737793,9.947718620300293
21,-0.4217831790447235,-2.163947343826294,-0.004112604074180126,36.7157444,3.1834755,32.55,-5.52,-8.26,-1.6,87,236,10.071934700012207,9.942995071411133
22,-0.4843280017375946,-2.1646571159362793,0.02298637293279171,36.7156573,3.183313,35.45,-5.5,-8.26,-1.61,87,235,10.063806533813477,9.933601379394531
23,-0.47658076882362366,-2.165637731552124,0.0383259542286396,36.715595,3.1831967,37.53,-5.51,-8.29,-1.62,86,235,10.09345531463623,9.961570739746094
24,-0.44312164187431335,-2.164224147796631,-0.029035016894340515,36.7155079,3.1830335,40.44,-5.5,-8.28,-1.62,86,236,10.084187507629395,9.951945304870605
25,-0.472036749124527,-2.166379451751709,0.03910861909389496,36.7154207,3.1828707,43.36,-5.52,-8.3,-1.63,85,235,10.111289024353027,9.978033065795898
26,-0.42299380898475647,-2.163710355758667,0.010138544254004955,36.7153458,3.1827307,45.86,-5.51,-8.29,-1.63,85,236,10.092738151550293,9.958783149719238
27,-0.49238860607147217,-2.1654114723205566,0.01123390905559063,36.7152586,3.1825676,48.79,-5.51,-8.29,-1.63,84,235,10.094916343688965,9.96231460571289
28,-0.4561110734939575,-2.1639599800109863,0.037717826664447784,36.7151841,3.1824277,51.29,-5.51,-8.28,-1.63,84,236,10.083789825439453,9.950546264648438
29,-0.4009551405906677,-2.166184186935425,-0.015179280191659927,36.7151095,3.1822882,53.78,-5.52,-8.26,-1.63,84,235,10.074026107788086,9.93997573852539
30,-0.18236060440540314,-2.167623519897461,0.022398533299565315,36.7150292,3.1821397,56.48,-4.32,-6.43,-1.28,83,235,7.862124919891357,7.756485939025879
31,-0.04122514650225639,-2.1541593074798584,-0.0009730189922265708,36.7149823,3.1820512,57.9,-2.71,-4.22,-0.57,83,236,5.0554914474487305,5.022640228271484
32,-0.1379319727420807,-2.0966081619262695,0.039294421672821045,36.7149464,3.1819767,58.41,-2.06,-3.68,-0.07,82,239,4.229937553405762,4.2292280197143555
33,-0.14968940615653992,-2.087312936782837,-0.023120246827602386,36.7149191,3.1819152,58.41,-2.01,-3.7,-0.01,82,240,4.220016956329346,4.219987869262695
34,0.004251356702297926,-2.0928149223327637,0.012987848371267319,36.7148939,3.1818584,58.37,-1.56,-2.81,0.13,82,240,3.2260844707489014,3.223396062850952
35,-0.013915566727519035,-2.4015698432922363,-0.04279714822769165,36.7148734,3.1818215,57.04,-1.15,-1.14,1.38,81,222,2.1371657848358154,1.6268411874771118
36,-0.009151937440037727,-2.4652628898620605,0.013775842264294624,36.7148589,3.181807,54.75,-1.04,-0.8,1.43,81,218,1.9492212533950806,1.3154569864273071
37,-0.04884105175733566,-2.469038248062134,0.02891288883984089,36.7148424,3.1817913,52.14,-1.04,-0.83,1.43,80,218,1.9648375511169434,1.3428417444229126
38,-0.025113509967923164,-2.4695169925689697,-0.020953945815563202,36.7148281,3.1817772,49.9,-1.06,-0.87,1.44,80,218,1.9973888397216797,1.3829346895217896
39,-0.017956631258130074,-2.4689505100250244,0.02227887697517872,36.7148111,3.1817602,47.28,-1.07,-0.87,1.45,80,218,2.0075244903564453,1.3865076303482056
40,-0.05945165082812309,-2.469728469848633,-0.010851040482521057,36.7147965,3.1817455,45.04,-1.07,-0.88,1.45,79,218,2.0139336585998535,1.390745759010315
41,-0.01606534793972969,-2.4694712162017822,0.022002901881933212,36.714782,3.1817309,42.79,-1.06,-0.87,1.45,79,218,2.0101635456085205,1.3834285736083984
42,-0.054568976163864136,-2.4703125953674316,0.020278124138712883,36.714765,3.1817137,40.18,-1.07,-0.88,1.47,79,218,2.0266683101654053,1.3909850120544434
43,-0.009314311668276787,-2.469276189804077,-0.011155198328197002,36.7147504,3.181699,37.93,-1.07,-0.88,1.47,78,218,2.02402925491333,1.3881012201309204
44,-0.01807582378387451,-2.4691030979156494,0.0230961125344038,36.7147333,3.1816818,35.31,-1.06,-0.87,1.47,78,218,2.013960123062134,1.375471591949463
45,-0.04795864224433899,-2.469510793685913,-0.021059734746813774,36.7147188,3.1816671,33.06,-1.06,-0.88,1.47,78,218,2.0242342948913574,1.3853682279586792
46,-0.023219330236315727,-2.469606399536133,0.026997586712241173,36.7147042,3.1816524,30.82,-1.06,-0.88,1.48,77,218,2.0305473804473877,1.3866913318634033
47,-0.05663657933473587,-2.469658851623535,0.008074588142335415,36.7146871,3.1816351,28.19,-1.06,-0.88,1.47,77,218,2.0195863246917725,1.3789032697677612
48,-0.008390427567064762,-2.469550132751465,-0.00647786445915699,36.7146726,3.1816205,25.94,-1.06,-0.87,1.47,77,218,2.0239226818084717,1.3841519355773926
49,-0.028164587914943695,-2.469451427459717,0.028072582557797432,36.7146556,3.1816033,23.32,-1.05,-0.87,1.48,76,218,2.020357847213745,1.3740102052688599
50,-0.04357379302382469,-2.47255802154541,-0.03401917591691017,36.714641,3.1815886,21.06,-1.07,-0.87,1.47,76,218,2.028369188308716,1.3893722295761108
51,-0.14617784321308136,3.094301700592041,-0.07985053956508636,36.7146214,3.1815786,18.99,-1.99,0.0,1.0,75,177,2.230233669281006,1.990342140197754
52,-0.25154435634613037,2.6785082817077637,0.0007320470176637173,36.7145751,3.1815996,18.45,-3.73,1.83,-0.05,75,153,4.1648335456848145,4.164401531219482
53,-0.11977280676364899,2.6792612075805664,0.00741595821455121,36.7145207,3.1816331,18.52,-4.05,2.04,0.04,75,153,4.538853645324707,4.538666248321533
54,-0.05364543944597244,-3.0680527687072754,0.27490130066871643,36.7144606,3.1816576,18.46,-3.29,-0.25,0.04,74,184,3.3086624145507812,3.308419704437256
55,-0.401483952999115,-2.1921417713165283,0.06870901584625244,36.7144196,3.1816206,18.45,-3.08,-4.22,0.01,74,234,5.231359481811523,5.231329441070557
56,-0.5193344354629517,-2.151669979095459,0.017586205154657364,36.7143698,3.1815248,18.45,-4.3,-6.84,0.0,73,236,8.091567993164062,8.091561317443848
57,-0.4361937344074249,-2.152045965194702,-0.025752494111657143,36.7142952,3.1813783,18.46,-4.93,-7.7,0.0,73,236,9.150410652160645,9.150410652160645
58,-0.35010138154029846,-2.153510093688965,0.003186554182320833,36.7142295,3.1812515,18.48,-4.58,-7.07,0.0,73,236,8.434760093688965,8.434759140014648
59,-0.23408032953739166,-2.1413893699645996,-0.009156136773526669,36.7141646,3.1811252,18.47,-3.65,-5.83,0.03,72,237,6.883669853210449,6.8835954666137695
60,-0.3032207787036896,-2.117798328399658,0.02182866260409355,36.7141175,3.1810287,18.45,-3.35,-5.64,0.01,72,238,6.569769382476807,6.569760799407959
61,-0.25654029846191406,-2.1078860759735107,0.005644053686410189,36.7140729,3.1809338,18.46,-3.28,-5.63,0.01,71,239,6.524419784545898,6.524409770965576
62,-0.13559512794017792,-2.109170913696289,0.025857366621494293,36.7140222,3.1808255,18.46,-2.93,-5.02,0.0,71,239,5.821247577667236,5.821247100830078
63,0.17742444574832916,-2.1094417572021484,-0.02011897787451744,36.713991,3.180759,18.43,-1.47,-2.51,0.02,71,239,2.917020559310913,2.9168949127197266
64,0.09903186559677124,-2.109117031097412,0.02052578516304493,36.713981,3.1807372,18.44,-0.01,-0.05,-0.01,70,239,0.05412415787577629,0.0526588000357151
65,-0.024701811373233795,-2.1103625297546387,0.056596141308546066,36.7139824,3.1807391,18.41,0.28,0.0,0.03,70,239,0.290168821811676,0.28837475180625916
