timestamp,pitch,yaw,roll,lat,lon,alt,velocity_x,velocity_y,velocity_z,battery,heading,airspeed,groundspeed
0,-0.01653374172747135,0.031189052388072014,-0.01688714697957039,36.7156066,3.1846299,14.96,-0.03,0.02,-0.05,96,1,0.06445885449647903,0.03890790045261383
1,0.0018079477595165372,0.036530230194330215,0.13723082840442657,36.7156069,3.1846328,14.99,0.05,0.66,-0.02,95,2,0.6654422283172607,0.6650383472442627
2,-0.14961586892604828,1.9435573816299438,-0.05301070958375931,36.715611,3.1846674,14.99,0.39,2.9,-0.02,95,111,2.9284396171569824,2.928340435028076
3,-0.13257622718811035,1.2438790798187256,0.0022241792175918818,36.7156172,3.1847222,15.0,0.45,3.39,-0.01,95,71,3.420217752456665,3.4201982021331787
4,0.2294999659061432,1.6349551677703857,0.12995916604995728,36.715621,3.1847699,15.0,-0.16,1.58,0.0,94,93,1.5913692712783813,1.5913585424423218
5,-0.1936449259519577,-2.751166582107544,0.18525058031082153,36.7156031,3.184753,15.03,-2.03,-2.92,0.0,94,202,3.5631356239318848,3.5631325244903564
6,-0.1566842645406723,-2.0613386631011963,-0.026793062686920166,36.7155727,3.1846965,15.0,-2.34,-3.41,-0.07,93,241,4.143335819244385,4.1426825523376465
7,-0.0003266423591412604,-1.9153543710708618,0.17273443937301636,36.715546,3.1846393,15.02,-1.19,-3.18,0.03,93,250,3.407151699066162,3.406949281692505
8,-0.3938634395599365,-0.6794173717498779,0.14416347444057465,36.7155584,3.1845814,14.98,3.1,-2.91,0.0,93,321,4.259075164794922,4.259074687957764
9,-0.46644705533981323,-0.606401264667511,-0.0049919201992452145,36.7156226,3.1845225,14.99,6.16,-4.29,0.0,92,325,7.51772928237915,7.517728805541992
10,-0.5333020091056824,-0.613752543926239,-0.02340102754533291,36.7157181,3.1844403,15.0,7.69,-5.34,0.0,92,324,9.369847297668457,9.369845390319824
11,-0.4174868166446686,-0.617662787437439,0.01690131425857544,36.7158426,3.1843317,15.03,7.83,-5.53,0.0,91,324,9.594280242919922,9.594276428222656
12,-0.16235919296741486,-0.6224444508552551,0.006852646358311176,36.7159557,3.184232,15.07,6.03,-4.3,0.03,91,324,7.908328533172607,7.908310413360596
13,0.11636524647474289,-0.8723664283752441,-0.19336599111557007,36.7160164,3.1841731,15.09,2.52,-2.96,-0.1,91,310,3.9003846645355225,3.899005889892578
14,-0.37053969502449036,-2.075436592102051,-0.11853864789009094,36.7160212,3.1841218,15.68,-1.79,-3.67,-0.66,90,241,4.1449875831604,4.090524673461914
15,-0.4475940763950348,-2.172095775604248,-0.02000279165804386,36.7159675,3.1840237,17.52,-4.55,-6.51,-1.36,90,235,8.07060432434082,7.954984188079834
16,-0.5087236166000366,-2.169583559036255,0.0005755668971687555,36.7158977,3.1838996,19.83,-5.46,-7.88,-1.6,89,235,9.727714538574219,9.595064163208008
17,-0.42250120639801025,-2.1638879776000977,0.021712008863687515,36.71581,3.1837396,22.71,-5.5,-8.14,-1.58,89,236,9.956626892089844,9.829463958740234
18,-0.46356481313705444,-2.164703845977783,-0.03543642535805702,36.7157349,3.1836006,25.17,-5.56,-8.22,-1.58,88,235,10.056456565856934,9.930800437927246
19,-0.49315810203552246,-2.1650898456573486,0.007603178732097149,36.7156595,3.1834613,27.65,-5.55,-8.25,-1.59,88,235,10.072052955627441,9.945446968078613
20,-0.42550602555274963,-2.1666619777679443,-0.0035047833807766438,36.7155722,3.183299,30.54,-5.52,-8.26,-1.6,88,235,10.067090034484863,9.938311576843262
21,-0.4682925343513489,-2.1650846004486084,-0.0257277674973011,36.7154975,3.1831595,33.03,-5.52,-8.29,-1.6,87,235,10.09749984741211,9.968811988830566
22,-0.44163599610328674,-2.163680076599121,0.026249419897794724,36.7154103,3.1829968,35.95,-5.54,-8.29,-1.61,87,236,10.112785339355469,9.982457160949707
23,-0.4287438690662384,-2.1649835109710693,0.026944167912006378,36.7153475,3.1828803,38.03,-5.54,-8.29,-1.62,86,235,10.10437297821045,9.97307300567627
24,-0.4866355061531067,-2.165231943130493,-0.014292186126112938,36.7152602,3.1827172,40.94,-5.51,-8.28,-1.62,86,235,10.08420181274414,9.953001022338867
25,-0.4261056184768677,-2.165952682495117,0.022692326456308365,36.7151728,3.1825541,43.86,-5.53,-8.3,-1.63,85,235,10.110640525817871,9.977873802185059
26,-0.4438025653362274,-2.165226697921753,-0.024896744638681412,36.7150979,3.1824143,46.35,-5.52,-8.27,-1.63,85,235,10.080299377441406,9.946516990661621
27,-0.46361446380615234,-2.1666457653045654,0.043092239648103714,36.7150105,3.1822516,49.27,-5.52,-8.29,-1.64,84,235,10.100152969360352,9.966085433959961
28,-0.29527926445007324,-2.167661428451538,-0.001968847122043371,36.7149371,3.1821148,51.74,-5.15,-7.62,-1.52,84,235,9.331247329711914,9.205789566040039
29,-0.10073909908533096,-2.16812801361084,-0.005960344802588224,36.7148766,3.182003,53.75,-3.62,-5.39,-0.99,84,235,6.5747246742248535,6.499588966369629
30,-0.10441020876169205,-2.123429298400879,0.015231615863740444,36.7148323,3.1819172,54.83,-2.23,-3.72,-0.27,83,238,4.3483734130859375,4.339840888977051
31,-0.177880197763443,-2.089228391647339,0.02140902169048786,36.7148043,3.1818558,54.98,-2.0,-3.68,-0.01,83,240,4.1943559646606445,4.194323539733887
32,-0.051191963255405426,-2.08756685256958,-0.024296959862113,36.714773,3.1817845,54.97,-1.86,-3.43,-0.03,82,240,3.904517412185669,3.904392719268799
33,0.04768257960677147,-2.1894729137420654,-0.02607095241546631,36.7147519,3.1817393,54.59,-1.25,-1.83,0.68,82,234,2.330930233001709,2.2286438941955566
34,-0.04469042271375656,-2.48673939704895,-0.005139448679983616,36.7147337,3.181716,52.29,-1.02,-0.79,1.47,82,217,1.9678431749343872,1.3004482984542847
35,-0.011632290668785572,-2.4712753295898438,0.011071590706706047,36.7147197,3.1817032,50.04,-1.04,-0.81,1.41,81,218,1.9392642974853516,1.3252042531967163
36,-0.061334263533353806,-2.46958589553833,-0.005892373621463776,36.7147055,3.1816893,47.8,-1.05,-0.87,1.43,81,218,1.9860186576843262,1.3746615648269653
37,-0.022869836539030075,-2.470090627670288,-0.023820949718356133,36.7146886,3.1816723,45.18,-1.07,-0.88,1.43,81,218,2.0018527507781982,1.3913731575012207
38,-0.04810740426182747,-2.4696085453033447,0.024900777265429497,36.7146741,3.1816576,42.94,-1.07,-0.87,1.44,80,218,1.9997313022613525,1.3813371658325195
39,-0.051777370274066925,-2.4690167903900146,-0.017583899199962616,36.7146571,3.1816406,40.32,-1.06,-0.88,1.45,80,218,2.011065721511841,1.3895533084869385
40,-0.011440371163189411,-2.469299554824829,0.01647317223250866,36.7146425,3.1816259,38.07,-1.06,-0.88,1.45,80,218,2.0097360610961914,1.3846781253814697
41,-0.0542093925178051,-2.469555616378784,-0.01811300776898861,36.7146279,3.1816112,35.83,-1.07,-0.89,1.46,79,218,2.0220773220062256,1.3979947566986084
42,-0.012322498485445976,-2.4702835083007812,-0.016129201278090477,36.7146109,3.1815941,33.21,-1.07,-0.88,1.46,79,218,2.0231499671936035,1.3925706148147583
43,-0.06178111582994461,-2.4692609310150146,0.011931232176721096,36.7145963,3.1815793,30.97,-1.05,-0.88,1.47,78,218,2.02180814743042,1.3799148797988892
44,-0.01199799869209528,-2.469679355621338,-0.013308665715157986,36.7145817,3.1815646,28.72,-1.07,-0.88,1.47,78,218,2.031867265701294,1.393845796585083
45,-0.025653459131717682,-2.4693052768707275,0.02527366578578949,36.7145647,3.1815474,26.09,-1.06,-0.88,1.47,78,218,2.0229570865631104,1.3838008642196655
46,-0.04440949857234955,-2.4697060585021973,-0.019904527813196182,36.7145501,3.1815327,23.84,-1.06,-0.88,1.47,77,218,2.0256011486053467,1.387914776802063
47,-0.009382857009768486,-2.469578742980957,-0.007045526523143053,36.7145331,3.1815155,21.22,-1.06,-0.87,1.47,77,218,2.0175974369049072,1.3792321681976318
48,-0.06139051541686058,-2.469541311264038,0.0076356735080480576,36.7145186,3.1815009,18.96,-1.05,-0.88,1.46,77,218,2.017094373703003,1.381615161895752
49,-0.08909627050161362,-2.7537107467651367,-0.11353165656328201,36.7145003,3.1814845,16.35,-1.48,-0.61,1.38,76,210,2.0971641540527344,1.5160987377166748
50,-0.23654262721538544,2.707188367843628,-0.02222418412566185,36.7144714,3.1814872,15.01,-2.94,1.18,0.2,76,155,3.175461769104004,3.168691873550415
51,-0.19273516535758972,2.679482936859131,-0.03348639979958534,36.7144228,3.1815159,15.06,-4.02,2.0,-0.06,75,153,4.495241165161133,4.494703769683838
52,-0.030724957585334778,2.7803971767425537,0.11792171746492386,36.7143588,3.1815541,15.05,-3.82,1.41,0.07,75,159,4.08029317855835,4.079676151275635
53,-0.2767176330089569,-2.55999493598938,0.24450400471687317,36.7143124,3.1815547,15.01,-2.93,-1.88,0.03,75,213,3.489583969116211,3.4894158840179443
54,-0.45132681727409363,-2.1458005905151367,-0.010773303918540478,36.7142625,3.1814754,15.01,-3.75,-5.99,0.02,74,237,7.072363376617432,7.072324752807617
55,-0.5162135362625122,-2.1507318019866943,0.0001930938014993444,36.7142039,3.1813596,15.01,-4.78,-7.53,0.0,74,236,8.921231269836426,8.921229362487793
56,-0.40987908840179443,-2.151085138320923,0.026929456740617752,36.7141372,3.1812298,15.03,-4.92,-7.62,0.0,73,236,9.08304214477539,9.08304214477539
57,-0.28480568528175354,-2.1507198810577393,-0.0002866251452360302,36.7140649,3.1810904,15.05,-4.12,-6.41,0.03,73,236,7.626606464385986,7.6265363693237305
58,-0.2606286406517029,-2.126786947250366,0.041082896292209625,36.7140145,3.18099,15.02,-3.46,-5.7,0.03,73,238,6.676834583282471,6.676754474639893
59,-0.3062734007835388,-2.103159189224243,0.009004947729408741,36.7139621,3.1808788,15.02,-3.23,-5.65,0.01,72,239,6.518530368804932,6.518514633178711
60,-0.2231532633304596,-2.0995113849639893,0.022695256397128105,36.7139185,3.1807836,15.02,-3.21,-5.64,0.0,72,239,6.497146129608154,6.497143268585205
61,0.032731544226408005,-2.1005449295043945,0.018138442188501358,36.7138735,3.1806857,15.01,-2.19,-3.84,0.03,71,239,4.42857551574707,4.428407192230225
62,0.16822966933250427,-2.1007328033447266,-0.021941479295492172,36.7138551,3.1806453,14.99,-0.57,-0.97,-0.01,71,239,1.1320143938064575,1.131887435913086
63,-0.012949222698807716,-2.100867748260498,0.015281313098967075,36.7138533,3.1806413,15.0,0.11,0.15,0.0,71,239,0.19737012684345245,0.19711731374263763
