timestamp,pitch,yaw,roll,lat,lon,alt,velocity_x,velocity_y,velocity_z,battery,heading,airspeed,groundspeed
0,-0.0015815218212082982,-0.03511606156826019,-0.02145242691040039,36.7156066,3.1846299,21.74,-0.02,0.02,-0.05,96,357,0.065055713057518,0.03808637335896492
1,-0.011787248775362968,-0.03804388642311096,0.13267526030540466,36.7156072,3.1846323,21.7,0.15,0.58,-0.03,95,357,0.6010587215423584,0.6001773476600647
2,-0.14847680926322937,1.7866305112838745,-0.051981713622808456,36.7156149,3.1846616,21.74,0.8,2.44,-0.04,95,102,2.572258710861206,2.5719332695007324
3,-0.08312447369098663,1.0613287687301636,-0.01666969060897827,36.7156273,3.1847074,21.74,0.93,2.78,-0.01,95,60,2.9390933513641357,2.9390316009521484
4,0.28083980083465576,1.5661146640777588,0.16759203374385834,36.7156352,3.1847421,21.74,-0.14,0.62,-0.02,94,89,0.64529949426651,0.6446871161460876
5,-0.1814683973789215,-2.767467975616455,0.1530444175004959,36.7156152,3.1847116,21.76,-2.13,-3.13,0.03,94,201,3.788285732269287,3.78810453414917
6,-0.13508814573287964,-2.0587172508239746,-0.028983233496546745,36.7155844,3.1846547,21.76,-2.33,-3.36,-0.05,93,242,4.098429203033447,4.098008155822754
7,0.002135214628651738,-1.6774449348449707,0.21675240993499756,36.7155589,3.1845898,21.75,-0.29,-3.01,0.02,93,263,3.030463457107544,3.0303421020507812
8,-0.422283411026001,-0.6607186198234558,0.10635024309158325,36.7155807,3.184541,21.73,3.59,-3.02,0.0,93,322,4.695897102355957,4.695895195007324
9,-0.4780384302139282,-0.6155494451522827,0.017512552440166473,36.71565,3.1844789,21.74,6.45,-4.5,0.0,92,324,7.877026081085205,7.877025604248047
10,-0.5293685793876648,-0.6197718381881714,0.004355741199105978,36.7157656,3.1843784,21.76,7.86,-5.5,0.0,92,324,9.597161293029785,9.597162246704102
11,-0.39909133315086365,-0.6216713786125183,0.02751857601106167,36.7158723,3.1842845,21.78,7.7,-5.47,-0.01,91,324,9.454235076904297,9.454222679138184
12,-0.10559787601232529,-0.62558913230896,-0.016406722366809845,36.7159808,3.1841882,21.82,5.59,-4.02,0.04,91,324,6.8933563232421875,6.893178939819336
13,0.09557411074638367,-1.0144251585006714,-0.22849416732788086,36.7160339,3.1841321,21.88,1.82,-2.91,-0.17,91,301,3.4445302486419678,3.4401915073394775
14,-0.398843377828598,-2.116699695587158,-0.1047048345208168,36.7160297,3.1840784,22.6,-2.32,-4.01,-0.77,90,238,4.704961776733398,4.640334606170654
15,-0.4364909827709198,-2.161280632019043,-0.0019262784626334906,36.7159702,3.1839725,24.61,-4.75,-6.85,-1.42,90,236,8.465350151062012,8.3443021774292
16,-0.4868167042732239,-2.16253399848938,-0.027849409729242325,36.715899,3.1838444,26.98,-5.47,-8.0,-1.6,89,236,9.833451271057129,9.700861930847168
17,-0.4441540837287903,-2.1634206771850586,0.040918104350566864,36.7158111,3.1836836,29.86,-5.54,-8.16,-1.58,89,236,9.998366355895996,9.872237205505371
18,-0.4406413733959198,-2.1645994186401367,-0.029012983664870262,36.7157362,3.1835447,32.33,-5.54,-8.23,-1.58,88,235,10.0527925491333,9.92752742767334
19,-0.4900764524936676,-2.1648309230804443,-0.015703385695815086,36.7156612,3.1834055,34.81,-5.54,-8.28,-1.58,88,235,10.097696304321289,9.971990585327148
20,-0.42117711901664734,-2.161597490310669,0.013866828754544258,36.7155739,3.1832421,37.7,-5.51,-8.28,-1.61,87,236,10.078204154968262,9.948037147521973
21,-0.44810453057289124,-2.1636204719543457,-0.032755155116319656,36.7154992,3.1831028,40.2,-5.53,-8.26,-1.61,87,236,10.078219413757324,9.94817066192627
22,-0.4627366364002228,-2.1643083095550537,0.041038595139980316,36.7154121,3.1829402,43.11,-5.51,-8.3,-1.62,87,236,10.104391098022461,9.973587989807129
23,-0.4433583617210388,-2.1643428802490234,0.03867584094405174,36.7153497,3.1828234,45.19,-5.51,-8.3,-1.63,86,236,10.103306770324707,9.970803260803223
24,-0.4706260859966278,-2.1626880168914795,-0.027772054076194763,36.7152625,3.1826601,48.11,-5.5,-8.29,-1.62,86,236,10.092019081115723,9.960159301757812
25,-0.4448026716709137,-2.1658682823181152,0.04035910964012146,36.7151754,3.1824974,51.04,-5.54,-8.29,-1.62,85,235,10.107818603515625,9.975720405578613
26,-0.43243059515953064,-2.163705825805664,-0.015209267847239971,36.7151005,3.1823572,53.54,-5.51,-8.31,-1.63,85,236,10.106428146362305,9.973390579223633
27,-0.4796704351902008,-2.163940668106079,0.026328561827540398,36.7150134,3.182194,56.46,-5.51,-8.27,-1.63,84,236,10.081907272338867,9.948280334472656
28,-0.25786831974983215,-2.166839599609375,0.017017787322402,36.7149411,3.1820598,58.89,-4.96,-7.35,-1.47,84,235,8.992276191711426,8.871172904968262
29,-0.08110488951206207,-2.165475368499756,-0.012486737221479416,36.7148843,3.1819543,60.75,-3.31,-4.99,-0.85,83,235,6.0569167137146,5.996195316314697
30,-0.11075937747955322,-2.1121084690093994,0.01857287622988224,36.7148432,3.181873,61.63,-2.16,-3.7,-0.2,83,238,4.298438549041748,4.2934250831604
31,-0.1810828000307083,-2.086606979370117,0.008157789707183838,36.7148157,3.1818118,61.72,-2.0,-3.69,-0.01,83,240,4.203669548034668,4.203648567199707
32,-0.014706062152981758,-2.0872275829315186,-0.029834220185875893,36.7147847,3.1817416,61.71,-1.76,-3.22,0.0,82,240,3.678778648376465,3.6787750720977783
33,0.02236914448440075,-2.2496962547302246,-0.0266758780926466,36.7147649,3.1817009,61.13,-1.22,-1.58,0.92,82,231,2.20672345161438,2.0025835037231445
34,-0.05503306910395622,-2.481761932373047,-0.012006832286715508,36.7147473,3.1816803,58.64,-1.02,-0.78,1.45,82,217,1.944094181060791,1.287703514099121
35,-0.013324262574315071,-2.472442150115967,0.01548578031361103,36.7147333,3.1816674,56.39,-1.04,-0.82,1.41,81,218,1.9442248344421387,1.3333386182785034
36,-0.056649766862392426,-2.47029709815979,-0.01335148699581623,36.714719,3.1816534,54.16,-1.05,-0.87,1.43,81,218,1.9847837686538696,1.371619462966919
37,-0.01696356199681759,-2.470336675643921,-0.020622262731194496,36.7147021,3.1816363,51.54,-1.07,-0.87,1.44,81,218,2.0035223960876465,1.3908309936523438
38,-0.05512279272079468,-2.4699363708496094,0.02470044605433941,36.7146876,3.1816218,49.3,-1.06,-0.87,1.44,80,218,1.997817039489746,1.3812261819839478
39,-0.01611301675438881,-2.469985246658325,-0.015866674482822418,36.714673,3.1816071,47.06,-1.07,-0.88,1.45,80,218,2.0156099796295166,1.392895221710205
40,-0.05450281873345375,-2.4700849056243896,0.01816556230187416,36.7146584,3.1815925,44.82,-1.07,-0.88,1.46,79,218,2.017470121383667,1.3874011039733887
41,-0.04909922182559967,-2.4700565338134766,-0.021787885576486588,36.7146414,3.1815754,42.19,-1.06,-0.89,1.46,79,218,2.019209146499634,1.3916133642196655
42,-0.009790065698325634,-2.470425844192505,-0.008438510820269585,36.7146243,3.1815582,39.57,-1.07,-0.88,1.46,79,218,2.02400279045105,1.3936548233032227
43,-0.05824698135256767,-2.469538450241089,0.00605403957888484,36.7146098,3.1815434,37.33,-1.05,-0.88,1.47,78,218,2.022200584411621,1.3812862634658813
44,-0.008978955447673798,-2.470057487487793,-0.009205196984112263,36.7145952,3.1815288,35.07,-1.06,-0.88,1.47,78,218,2.0236575603485107,1.3871949911117554
45,-0.02906585857272148,-2.4696924686431885,0.02564307674765587,36.7145782,3.1815116,32.45,-1.06,-0.87,1.47,78,218,2.019562005996704,1.3825743198394775
46,-0.03687450289726257,-2.470067262649536,-0.02242334932088852,36.7145635,3.1814969,30.21,-1.06,-0.88,1.47,77,218,2.0298709869384766,1.3895273208618164
47,-0.003914694767445326,-2.4697985649108887,0.0025840578600764275,36.7145466,3.1814798,27.58,-1.06,-0.87,1.47,77,218,2.016859769821167,1.3746232986450195
48,-0.062431298196315765,-2.4697906970977783,0.003834337694570422,36.714532,3.1814651,25.32,-1.06,-0.89,1.47,77,218,2.021409273147583,1.3873754739761353
49,-0.05392397567629814,-2.763681650161743,-0.08486209809780121,36.7145162,3.1814513,23.09,-1.47,-0.6,1.38,76,201,2.1179983615875244,1.598150372505188
50,-0.23505577445030212,2.678577423095703,-0.008004205301404,36.7144802,3.1814577,21.73,-3.22,1.44,0.05,76,153,3.530777931213379,3.5303900241851807
51,-0.17413116991519928,2.6803410053253174,-0.027452731505036354,36.7144293,3.1814884,21.82,-4.07,2.03,-0.04,75,153,4.559255123138428,4.559041976928711
52,-0.013216652907431126,2.867595672607422,0.16295678913593292,36.7143659,3.1815243,21.79,-3.71,1.03,0.06,75,164,3.8538763523101807,3.8533899784088135
53,-0.3545002043247223,-2.357738494873047,0.17928335070610046,36.7143214,3.1815149,21.76,-2.91,-2.61,0.02,75,224,3.9166252613067627,3.9165337085723877
54,-0.45392557978630066,-2.138530969619751,-0.011545789428055286,36.7142695,3.181424,21.76,-4.01,-6.38,0.01,74,237,7.54323673248291,7.543224334716797
55,-0.49730145931243896,-2.148695468902588,-0.013218791224062443,36.7142085,3.1813037,21.77,-4.86,-7.63,0.0,74,236,9.056313514709473,9.056313514709473
56,-0.3831191956996918,-2.1512253284454346,0.03195687755942345,36.7141415,3.1811737,21.79,-4.85,-7.5,0.0,73,236,8.940007209777832,8.940006256103516
57,-0.2592158615589142,-2.147625207901001,-0.005471845157444477,36.7140713,3.1810383,21.8,-3.94,-6.19,0.03,73,236,7.34949254989624,7.349402904510498
58,-0.2696278989315033,-2.1208739280700684,0.044132035225629807,36.7140224,3.1809398,21.77,-3.41,-5.69,0.02,73,238,6.643914222717285,6.643855571746826
59,-0.3056715726852417,-2.1012942790985107,-0.001997207058593631,36.7139704,3.1808287,21.77,-3.22,-5.66,0.01,72,239,6.515024662017822,6.5150065422058105
60,-0.20157329738140106,-2.0996265411376953,0.026751982048153877,36.7139269,3.1807336,21.77,-3.15,-5.52,0.0,72,239,6.36648416519165,6.366482257843018
61,0.03601458668708801,-2.1006836891174316,-0.023110415786504745,36.7138894,3.180652,21.76,-2.19,-3.82,0.04,71,239,4.411777019500732,4.411595821380615
62,0.1591264009475708,-2.100621461868286,-0.015669722110033035,36.7138701,3.1806096,21.75,-0.36,-0.64,-0.01,71,239,0.7389850616455078,0.7387171387672424
63,-0.024430057033896446,-2.1008148193359375,0.015432833693921566,36.7138696,3.1806084,21.75,0.11,0.15,0.02,71,239,0.19054576754570007,0.1885378658771515
