timestamp,pitch,yaw,roll,lat,lon,alt,velocity_x,velocity_y,velocity_z,battery,heading,airspeed,groundspeed
0,0.009678000584244728,0.03790736570954323,-0.021849121898412704,36.7156067,3.1846299,22.68,-0.02,0.02,-0.11,96,2,0.1244402602314949,0.04108419269323349
1,-0.08855840563774109,0.031317971646785736,0.0984373614192009,36.7156081,3.1846314,22.68,0.41,0.38,-0.03,95,1,0.5631837248802185,0.5618935823440552
2,-0.2956317067146301,0.7346339225769043,0.001992985839024186,36.7156301,3.1846522,22.74,2.58,1.98,-0.09,95,42,3.259242057800293,3.2577903270721436
3,-0.19402776658535004,0.6631254553794861,-0.02299889549612999,36.7156742,3.1846946,22.71,3.77,2.83,0.03,95,37,4.724862575531006,4.72476053237915
4,-0.09156516194343567,0.6397205591201782,0.02989068441092968,36.7157357,3.1847514,22.7,3.68,2.72,-0.01,94,36,4.582649230957031,4.582627296447754
5,0.28577151894569397,0.42547428607940674,-0.13666509091854095,36.7157739,3.1847836,22.7,1.32,0.55,-0.03,94,24,1.4357026815414429,1.4353241920471191
6,-0.11801048368215561,-1.239845633506775,-0.20679448544979095,36.7157689,3.1847626,22.73,-1.86,-2.75,0.0,93,288,3.3284831047058105,3.3284828662872314
7,-0.15249024331569672,-2.3400497436523438,0.03615793585777283,36.7157331,3.1846986,22.71,-2.34,-3.35,-0.07,93,225,4.092202663421631,4.09149169921875
8,0.011875555850565434,-1.9694701433181763,0.12703916430473328,36.7157064,3.184643,22.72,-1.17,-3.1,0.04,93,247,3.322962522506714,3.3226661682128906
9,-0.34412428736686707,-0.6790475845336914,0.13556313514709473,36.7157191,3.184586,22.69,3.09,-2.91,0.0,92,321,4.249887466430664,4.249887466430664
10,-0.4569358825683594,-0.6084203720092773,-0.0021071976516395807,36.7157694,3.1845389,22.69,5.74,-4.0,0.01,92,325,7.003040313720703,7.003026962280273
11,-0.4923742711544037,-0.6138394474983215,0.025953590869903564,36.7158956,3.1844299,22.71,7.79,-5.42,0.0,91,324,9.492956161499023,9.49295425415039
12,-0.4220646321773529,-0.6186193823814392,-0.020395150408148766,36.716002,3.1843367,22.73,7.85,-5.52,0.0,91,324,9.607442855834961,9.607441902160645
13,-0.21841701865196228,-0.6217354536056519,-0.006358295679092407,36.7161012,3.1842492,22.77,6.46,-4.58,0.01,91,324,7.928036689758301,7.928017616271973
14,0.09323379397392273,-0.8671993017196655,-0.22030223906040192,36.7161763,3.1841776,22.79,2.54,-2.94,-0.09,90,310,3.8900227546691895,3.8887858390808105
15,-0.3516770005226135,-2.0740880966186523,-0.09819267690181732,36.7161812,3.1841265,23.38,-1.76,-3.67,-0.66,90,241,4.125786781311035,4.071390151977539
16,-0.4392722249031067,-2.1805593967437744,-0.001483424799516797,36.7161379,3.1840462,24.89,-4.31,-6.1,-1.27,89,235,7.582875728607178,7.474699020385742
17,-0.5038126707077026,-2.1642439365386963,0.006163750775158405,36.7160582,3.1839042,27.54,-5.45,-7.89,-1.59,89,236,9.731427192687988,9.599238395690918
18,-0.43696051836013794,-2.1651296615600586,0.031895652413368225,36.715983,3.1837675,30.02,-5.53,-8.12,-1.57,88,235,9.957987785339355,9.832393646240234
19,-0.4798864424228668,-2.1628010272979736,-0.024914126843214035,36.7158955,3.1836051,32.89,-5.56,-8.25,-1.57,88,236,10.081686019897461,9.957967758178711
20,-0.47650039196014404,-2.1656839847564697,0.03402944281697273,36.7158204,3.1834657,35.35,-5.53,-8.24,-1.59,88,235,10.057363510131836,9.929661750793457
21,-0.4368121325969696,-2.1629412174224854,0.027645887807011604,36.7157457,3.1833264,37.84,-5.53,-8.25,-1.6,87,236,10.064446449279785,9.93578052520752
22,-0.4871198534965515,-2.1652443408966064,-0.0142703577876091,36.7156584,3.1831636,40.75,-5.51,-8.29,-1.6,87,235,10.088285446166992,9.960164070129395
23,-0.4687173664569855,-2.164238929748535,0.03643406555056572,36.7155837,3.1830236,43.25,-5.49,-8.29,-1.61,86,236,10.08380126953125,9.953059196472168
24,-0.4397631883621216,-2.166193962097168,-0.020912762731313705,36.7154963,3.1828607,46.16,-5.51,-8.27,-1.62,86,235,10.077353477478027,9.945465087890625
25,-0.49705269932746887,-2.1655852794647217,-0.0022919338662177324,36.7154219,3.1827215,48.67,-5.51,-8.33,-1.62,85,235,10.125452995300293,9.995016098022461
26,-0.4248018264770508,-2.1631453037261963,0.03118554688990116,36.7153345,3.1825577,51.58,-5.51,-8.3,-1.63,85,236,10.101628303527832,9.968932151794434
27,-0.45160171389579773,-2.164780616760254,-0.03050374984741211,36.7152598,3.1824178,54.08,-5.51,-8.27,-1.63,84,235,10.071832656860352,9.938919067382812
28,-0.49014413356781006,-2.1662120819091797,0.0074345944449305534,36.715185,3.1822783,56.59,-5.51,-8.29,-1.63,84,235,10.093929290771484,9.961285591125488
29,-0.2911827266216278,-2.1666419506073,0.0018777359509840608,36.7150992,3.1821183,59.46,-5.13,-7.64,-1.51,83,235,9.329490661621094,9.204854965209961
30,-0.09164644032716751,-2.1666228771209717,-0.018035344779491425,36.7150391,3.1820066,61.47,-3.58,-5.36,-0.98,83,235,6.52901554107666,6.454737663269043
31,-0.11104210466146469,-2.1310064792633057,0.007600781973451376,36.7149949,3.1819211,62.53,-2.27,-3.71,-0.26,83,237,4.367950439453125,4.359934329986572
32,-0.17609652876853943,-2.103624105453491,0.00041437591426074505,36.714966,3.1818595,62.68,-2.08,-3.67,-0.01,82,239,4.223972320556641,4.223947048187256
33,-0.054052870720624924,-2.1034276485443115,0.013632725924253464,36.7149378,3.1817984,62.67,-2.01,-3.55,-0.03,82,239,4.088289260864258,4.088143348693848
34,0.03205972537398338,-2.2012150287628174,-0.023448877036571503,36.714912,3.1817441,62.29,-1.27,-1.82,0.68,82,233,2.3276116847991943,2.224919557571411
35,0.015908269211649895,-2.4782698154449463,-0.035633690655231476,36.714896,3.181723,60.37,-1.07,-0.86,1.49,81,218,2.0303282737731934,1.3732482194900513
36,-0.017043640837073326,-2.4713170528411865,0.02268311381340027,36.7148797,3.1817078,57.73,-1.03,-0.81,1.41,81,218,1.9268684387207031,1.3114326000213623
37,-0.050907429307699203,-2.469550371170044,-0.01976657100021839,36.7148654,3.181694,55.49,-1.05,-0.87,1.43,81,218,1.981873631477356,1.3699684143066406
38,-0.022924067452549934,-2.4696762561798096,0.026910098269581795,36.714851,3.1816795,53.24,-1.06,-0.87,1.43,80,218,1.9903411865234375,1.3797307014465332
39,-0.06250164657831192,-2.4691174030303955,0.001192956231534481,36.714834,3.1816623,50.63,-1.07,-0.88,1.44,80,218,2.006807804107666,1.3914066553115845
40,-0.0073482501320540905,-2.4695146083831787,-0.0013901402708142996,36.7148194,3.1816477,48.39,-1.07,-0.88,1.45,79,218,2.0135319232940674,1.38971745967865
41,-0.04557623341679573,-2.469703197479248,0.027513088658452034,36.7148025,3.1816307,45.77,-1.06,-0.88,1.46,79,218,2.0141279697418213,1.3872172832489014
42,-0.02936861664056778,-2.4699811935424805,-0.022928085178136826,36.7147878,3.181616,43.53,-1.07,-0.88,1.46,79,218,2.0224270820617676,1.3927241563796997
43,-0.05448511242866516,-2.4694323539733887,0.020384108647704124,36.7147733,3.1816013,41.28,-1.06,-0.88,1.47,78,218,2.0184741020202637,1.382889986038208
44,-0.05675705522298813,-2.469478130340576,-0.013902762904763222,36.7147563,3.1815841,38.65,-1.07,-0.89,1.46,78,218,2.0259740352630615,1.395682692527771
45,-0.02220974862575531,-2.4692211151123047,0.02417667955160141,36.7147417,3.1815694,36.4,-1.06,-0.88,1.46,78,218,2.018054962158203,1.3866908550262451
46,-0.056774601340293884,-2.4698798656463623,0.015306234359741211,36.7147246,3.1815522,33.79,-1.06,-0.88,1.47,77,218,2.025567054748535,1.384814739227295
47,-0.013320003636181355,-2.469472646713257,-0.001803800230845809,36.7147101,3.1815376,31.54,-1.06,-0.88,1.47,77,218,2.02354097366333,1.3867942094802856
48,-0.06048491224646568,-2.4697718620300293,0.00900466088205576,36.7146955,3.1815228,29.28,-1.06,-0.88,1.47,77,218,2.0207409858703613,1.3852474689483643
49,-0.03454023599624634,-2.469484567642212,-0.023988325148820877,36.7146785,3.1815055,26.66,-1.06,-0.88,1.47,76,218,2.0230653285980225,1.384825587272644
50,-0.07162816822528839,-2.6170644760131836,-0.0416351817548275,36.7146633,3.1814911,24.42,-1.3,-0.74,1.45,76,210,2.0969719886779785,1.5064691305160522
51,-0.2722582519054413,2.708785057067871,-0.058722905814647675,36.7146313,3.1814922,22.71,-2.97,1.17,0.2,75,155,3.2025766372680664,3.196014881134033
52,-0.16745249927043915,2.6798856258392334,0.014203800819814205,36.7145825,3.1815209,22.75,-4.01,1.99,-0.07,75,153,4.488568305969238,4.487992286682129
53,-0.07381743937730789,2.7777366638183594,0.12848490476608276,36.7145186,3.1815588,22.75,-3.83,1.39,0.06,75,159,4.077218532562256,4.0766801834106445
54,-0.22599820792675018,-2.539433479309082,0.22936637699604034,36.7144723,3.1815591,22.71,-2.94,-1.87,0.03,74,214,3.4908177852630615,3.490684986114502
55,-0.5016016364097595,-2.165421724319458,0.04486255347728729,36.7144304,3.1814957,22.71,-3.51,-5.56,0.02,74,235,6.588210582733154,6.588160514831543
56,-0.45587101578712463,-2.149531841278076,-0.011155693791806698,36.7143635,3.1813635,22.72,-4.79,-7.52,0.0,73,236,8.923680305480957,8.923678398132324
57,-0.44130608439445496,-2.1502106189727783,-0.013229313306510448,36.7142969,3.1812339,22.73,-4.92,-7.64,0.0,73,236,9.08821964263916,9.088218688964844
58,-0.27795159816741943,-2.151059150695801,0.03545912727713585,36.7142342,3.1811128,22.75,-4.27,-6.6,0.02,73,236,7.8663554191589355,7.866325855255127
59,-0.29578763246536255,-2.1281745433807373,0.005481573287397623,36.7141741,3.1809941,22.72,-3.46,-5.7,0.03,72,238,6.672173500061035,6.672094345092773
60,-0.26313889026641846,-2.1035242080688477,0.038854848593473434,36.7141292,3.1808989,22.72,-3.23,-5.64,0.01,72,239,6.508164882659912,6.508153438568115
61,-0.27215662598609924,-2.09956431388855,-0.00749567337334156,36.7140783,3.1807878,22.72,-3.21,-5.65,0.0,71,239,6.505034446716309,6.505029201507568
62,0.027999330312013626,-2.1002488136291504,0.019233843311667442,36.7140386,3.1807015,22.72,-2.42,-4.23,0.02,71,239,4.8794965744018555,4.879412651062012
63,0.13288763165473938,-2.1005635261535645,-0.018145332112908363,36.7140166,3.1806536,22.69,-0.78,-1.36,0.0,71,239,1.5743238925933838,1.5742942094802856
64,0.034927595406770706,-2.100440740585327,-0.014795966446399689,36.7140134,3.1806461,22.7,0.1,0.16,0.01,70,239,0.19186605513095856,0.1915675699710846
