timestamp,pitch,yaw,roll,lat,lon,alt,velocity_x,velocity_y,velocity_z,battery,heading,airspeed,groundspeed
0,-0.023019319400191307,-0.03832602873444557,-0.006183120887726545,36.7156066,3.18463,15.4,-0.02,0.02,-0.05,96,357,0.06612055748701096,0.03490765765309334
1,-0.05983847752213478,-0.01695002056658268,0.10406739264726639,36.7156082,3.1846326,15.43,0.44,0.58,-0.02,95,359,0.7325440049171448,0.7320884466171265
2,-0.2784024775028229,1.3367406129837036,-0.1034582331776619,36.7156239,3.1846571,15.44,2.07,2.54,-0.07,95,76,3.2859675884246826,3.285128355026245
3,-0.256367951631546,0.8977088928222656,-0.017176276072859764,36.7156678,3.1847237,15.44,3.24,3.9,0.06,95,51,5.075733661651611,5.0753607749938965
4,-0.09816302359104156,0.8696078658103943,0.02009309083223343,36.7157129,3.1847903,15.41,3.17,3.79,-0.03,94,49,4.943264007568359,4.943140029907227
5,0.3157411813735962,0.8014716506004333,-0.009184855036437511,36.7157507,3.1848449,15.44,0.91,0.94,-0.04,94,45,1.3121010065078735,1.3113970756530762
6,0.0069710686802864075,-0.6146609783172607,-0.2807575762271881,36.7157432,3.1848275,15.47,-1.82,-2.65,0.0,93,324,3.2215142250061035,3.2215139865875244
7,-0.09960327297449112,-2.3523550033569336,0.027672629803419113,36.7157088,3.1847652,15.45,-2.25,-3.23,-0.08,93,225,3.9440722465515137,3.9432265758514404
8,-0.06803783029317856,-1.9521946907043457,0.13047267496585846,36.7156822,3.1847105,15.47,-1.35,-3.08,0.05,93,248,3.3660929203033447,3.3656561374664307
9,-0.2729789614677429,-0.8577332496643066,0.16324633359909058,36.7156844,3.1846617,15.43,2.02,-2.74,0.0,92,310,3.4095852375030518,3.4095776081085205
10,-0.4797579050064087,-0.6068018078804016,0.027429576963186264,36.7157485,3.1845977,15.43,5.81,-4.1,0.0,92,325,7.1202712059021,7.12026834487915
11,-0.4858774244785309,-0.6175081729888916,-0.02019401080906391,36.7158406,3.1845176,15.44,7.55,-5.28,0.0,91,324,9.216177940368652,9.216174125671387
12,-0.4698856472969055,-0.6212438344955444,0.02739936113357544,36.7159637,3.1844094,15.47,7.83,-5.56,0.0,91,324,9.61493968963623,9.61493968963623
13,-0.2045905888080597,-0.6243724226951599,0.00019511565915308893,36.716064,3.1843201,15.51,6.63,-4.74,0.0,91,324,8.156622886657715,8.156617164611816
14,0.03036401979625225,-0.7151160836219788,-0.11333830654621124,36.7161362,3.1842542,15.5,3.63,-3.15,0.0,90,319,4.813817501068115,4.813815116882324
15,-0.3308052718639374,-2.007516622543335,-0.1911931186914444,36.7161544,3.1841952,16.02,-1.42,-3.5,-0.6,90,244,3.8308849334716797,3.7830474376678467
16,-0.4776419997215271,-2.181471824645996,0.05043058469891548,36.7161144,3.184119,17.45,-4.13,-5.83,-1.22,89,235,7.25797176361084,7.154061317443848
17,-0.4644259810447693,-2.16618275642395,-0.030629495158791542,36.7160364,3.1839801,20.04,-5.41,-7.84,-1.59,89,235,9.663723945617676,9.531647682189941
18,-0.49363988637924194,-2.1655631065368652,0.012795538641512394,36.7159617,3.1838439,22.52,-5.51,-8.11,-1.57,88,235,9.940912246704102,9.816007614135742
19,-0.4459998607635498,-2.1644012928009033,0.034720081835985184,36.7158865,3.183705,24.98,-5.57,-8.24,-1.57,88,235,10.077767372131348,9.953632354736328
20,-0.4688619077205658,-2.162588357925415,-0.029215224087238312,36.7157988,3.1835419,27.86,-5.52,-8.24,-1.58,88,236,10.047168731689453,9.920601844787598
21,-0.4888583719730377,-2.165001630783081,0.032097093760967255,36.715724,3.1834027,30.34,-5.52,-8.25,-1.59,87,235,10.066975593566895,9.939271926879883
22,-0.43820953369140625,-2.164623975753784,-0.02474847622215748,36.715637,3.1832404,33.25,-5.52,-8.29,-1.6,87,235,10.090736389160156,9.962455749511719
23,-0.490488737821579,-2.163425922393799,-0.0036036521196365356,36.7155621,3.1831004,35.74,-5.51,-8.31,-1.61,86,236,10.108016967773438,9.978293418884277
24,-0.4604945480823517,-2.166652202606201,0.03966879844665527,36.7154873,3.1829607,38.24,-5.5,-8.28,-1.62,86,235,10.077893257141113,9.946409225463867
25,-0.46065476536750793,-2.1632328033447266,-0.03105289116501808,36.7154004,3.1827978,41.17,-5.5,-8.31,-1.61,85,236,10.103750228881836,9.973432540893555
26,-0.4914616346359253,-2.163416624069214,0.010181142948567867,36.7153255,3.1826576,43.66,-5.53,-8.29,-1.62,85,236,10.1066255569458,9.974716186523438
27,-0.42409735918045044,-2.1653873920440674,-0.010909575037658215,36.715238,3.1824944,46.59,-5.5,-8.27,-1.63,84,235,10.074048042297363,9.940882682800293
28,-0.4766460359096527,-2.164499521255493,-0.023115789517760277,36.7151635,3.182355,49.09,-5.51,-8.31,-1.62,84,235,10.111964225769043,9.980756759643555
29,-0.39769425988197327,-2.1662559509277344,0.027904290705919266,36.7150892,3.1822161,51.58,-5.35,-7.95,-1.57,84,235,9.716455459594727,9.587713241577148
30,-0.06910879909992218,-2.166980266571045,-0.018249239772558212,36.715015,3.1820785,54.05,-3.74,-5.61,-1.05,83,235,6.827070713043213,6.7443156242370605
31,-0.08777076005935669,-2.1389105319976807,0.049233630299568176,36.7149746,3.182001,55.14,-2.37,-3.83,-0.39,83,237,4.5246968269348145,4.507327079772949
32,-0.1732521504163742,-2.0903351306915283,-0.0020958217792212963,36.714941,3.1819288,55.42,-2.02,-3.7,-0.02,82,240,4.217891216278076,4.217791557312012
33,-0.07904472947120667,-2.0882742404937744,0.02181539312005043,36.7149139,3.1818672,55.4,-1.98,-3.63,-0.03,82,240,4.142237186431885,4.142065048217773
34,0.04013228788971901,-2.127668857574463,-0.05129002034664154,36.7148908,3.181816,55.24,-1.37,-2.27,0.37,82,238,2.687643527984619,2.661560297012329
35,0.020286593586206436,-2.4686331748962402,-0.03774921968579292,36.7148718,3.1817874,53.32,-1.08,-0.9,1.49,81,218,2.056321144104004,1.4128328561782837
36,-0.056582748889923096,-2.4655961990356445,0.0221407413482666,36.7148577,3.1817741,51.03,-1.03,-0.8,1.41,81,218,1.931187391281128,1.3159829378128052
37,-0.05139099806547165,-2.4692187309265137,-0.01874261163175106,36.7148411,3.1817582,48.42,-1.05,-0.86,1.42,81,218,1.9729642868041992,1.3646756410598755
38,-0.020495569333434105,-2.4694838523864746,0.022707944735884666,36.7148267,3.1817438,46.17,-1.06,-0.87,1.42,80,218,1.9838283061981201,1.3776202201843262
39,-0.06075644493103027,-2.469343662261963,0.009159868583083153,36.7148097,3.1817267,43.57,-1.06,-0.87,1.44,80,218,1.9975078105926514,1.382270097732544
40,-0.01994953118264675,-2.4696075916290283,0.02961350977420807,36.7147976,3.1817145,41.7,-1.06,-0.87,1.45,80,218,2.001844644546509,1.3797435760498047
41,-0.060516372323036194,-2.469980239868164,0.013898128643631935,36.7147806,3.1816974,39.08,-1.06,-0.88,1.45,79,218,2.010810136795044,1.390194058418274
42,-0.04487864300608635,-2.469644069671631,-0.01882501132786274,36.7147635,3.1816803,36.46,-1.07,-0.88,1.46,79,218,2.0208687782287598,1.3967974185943604
43,-0.028758037835359573,-2.4691503047943115,0.028724530711770058,36.7147489,3.1816656,34.22,-1.05,-0.88,1.47,78,218,2.0153965950012207,1.3776215314865112
44,-0.06197284534573555,-2.469522476196289,0.0124269500374794,36.714732,3.1816485,31.59,-1.05,-0.89,1.46,78,218,2.017223596572876,1.382480502128601
45,-0.00908034946769476,-2.4696738719940186,-0.001876136870123446,36.7147174,3.1816337,29.34,-1.07,-0.88,1.46,78,218,2.0241949558258057,1.3917747735977173
46,-0.0606754831969738,-2.4702045917510986,0.008676650002598763,36.7147028,3.1816189,27.1,-1.06,-0.88,1.47,77,218,2.0258777141571045,1.3857239484786987
47,-0.03502959385514259,-2.4694509506225586,-0.02662329375743866,36.7146857,3.1816017,24.48,-1.06,-0.88,1.47,77,218,2.022625207901001,1.3826415538787842
48,-0.02986634150147438,-2.4696362018585205,0.030163053423166275,36.7146712,3.1815871,22.22,-1.05,-0.88,1.46,77,218,2.013965129852295,1.376715898513794
49,-0.03298874571919441,-2.4695076942443848,-0.024458209052681923,36.7146566,3.1815724,19.98,-1.06,-0.88,1.47,76,218,2.026364326477051,1.3892995119094849
50,-0.037933580577373505,-2.5612480640411377,-0.05836717411875725,36.7146393,3.1815553,17.35,-1.23,-0.79,1.46,76,213,2.079169988632202,1.4725605249404907
51,-0.25130489468574524,2.8343453407287598,-0.09474268555641174,36.7146151,3.1815513,15.6,-2.5,0.66,0.53,75,162,2.6424083709716797,2.58738112449646
52,-0.19292785227298737,2.6797616481781006,-0.0322771891951561,36.7145616,3.1815808,15.48,-3.98,1.98,-0.07,75,153,4.450232028961182,4.44959020614624
53,-0.10036496818065643,2.703158378601074,0.09324606508016586,36.7145064,3.1816148,15.51,-3.93,1.8,0.06,75,154,4.3351569175720215,4.33463191986084
54,-0.22583657503128052,-2.6704294681549072,0.2583450675010681,36.7144502,3.1816248,15.45,-2.98,-1.52,0.03,74,207,3.354304075241089,3.3541409969329834
55,-0.43842557072639465,-2.172694444656372,0.06783472001552582,36.7144089,3.1815668,15.45,-3.39,-5.3,0.02,74,235,6.298567771911621,6.298526287078857
56,-0.4898379445075989,-2.154576063156128,-0.02835688553750515,36.7143541,3.1814581,15.45,-4.62,-7.29,0.0,73,236,8.638226509094238,8.638223648071289
57,-0.4098401963710785,-2.152010202407837,0.024128535762429237,36.7142773,3.1813084,15.47,-4.96,-7.66,0.0,73,236,9.133005142211914,9.133005142211914
58,-0.27160215377807617,-2.1534299850463867,-0.01416076347231865,36.7142134,3.1811857,15.49,-4.34,-6.71,0.02,73,236,7.995532035827637,7.995504856109619
59,-0.25069016218185425,-2.1294212341308594,0.03942985460162163,36.7141526,3.1810654,15.47,-3.47,-5.7,0.03,72,238,6.678825378417969,6.678721904754639
60,-0.27688542008399963,-2.105311393737793,-0.018691129982471466,36.7141074,3.1809701,15.46,-3.25,-5.64,0.01,72,239,6.518396377563477,6.5183796882629395
61,-0.28996405005455017,-2.0999391078948975,0.03483081981539726,36.7140638,3.1808751,15.46,-3.23,-5.69,0.01,72,239,6.550271511077881,6.550252914428711
62,-0.05769071355462074,-2.100759506225586,-0.0225063469260931,36.714022,3.1807841,15.46,-2.74,-4.79,0.01,71,239,5.522577285766602,5.522562503814697
63,0.1842229813337326,-2.1008505821228027,0.016486989334225655,36.713992,3.1807187,15.43,-0.9,-1.58,0.0,71,239,1.8194233179092407,1.8194233179092407
64,0.0077995373867452145,-2.1005585193634033,0.02277757041156292,36.7139877,3.1807088,15.45,0.1,0.15,0.0,70,239,0.1893150806427002,0.18922923505306244
65,-0.009800102561712265,-2.0837557315826416,0.11342508345842361,36.7139909,3.1807102,15.4,0.62,-0.31,-0.01,70,240,0.7051347494125366,0.7050197720527649
