timestamp,pitch,yaw,roll,lat,lon,alt,velocity_x,velocity_y,velocity_z,battery,heading,airspeed,groundspeed
0,0.02741624228656292,0.04160022363066673,0.010637739673256874,36.7156067,3.18463,21.32,-0.03,0.02,-0.02,96,2,0.04560396447777748,0.03864437714219093
1,-0.10689185559749603,0.033631596714258194,0.05979207530617714,36.7156082,3.1846315,21.26,0.44,0.38,-0.02,95,1,0.5835492014884949,0.5828253626823425
2,-0.18607491254806519,0.8399761319160461,-0.05064498260617256,36.7156243,3.1846463,21.29,2.05,1.56,-0.04,95,48,2.580399990081787,2.5799872875213623
3,-0.12753915786743164,0.6583752036094666,0.01529156044125557,36.7156667,3.1846868,21.31,3.07,2.33,-0.02,95,37,3.861915349960327,3.861847162246704
4,0.0330902524292469,0.6263054013252258,-0.047494519501924515,36.715708,3.1847247,21.31,2.68,1.89,0.0,94,35,3.2886743545532227,3.2886593341827393
5,0.039357833564281464,-0.6645640134811401,-0.3743436336517334,36.7157271,3.1847315,21.35,-0.81,-1.69,-0.01,94,321,1.8749781847000122,1.8749312162399292
6,-0.18785108625888824,-2.1782095432281494,0.02678581513464451,36.7157031,3.1846852,21.31,-2.37,-3.3,0.04,93,235,4.071606159210205,4.071363925933838
7,-0.09630757570266724,-2.069279909133911,0.07674970477819443,36.7156667,3.1846184,21.36,-1.98,-3.27,0.01,93,241,3.8262429237365723,3.8261945247650146
8,-0.1227438673377037,-1.2421786785125732,0.2756275534629822,36.7156563,3.1845661,21.31,0.91,-2.8,0.01,93,288,2.948781967163086,2.94873046875
9,-0.46739980578422546,-0.6538191437721252,0.054347410798072815,36.7156947,3.1845158,21.31,4.67,-3.4,0.0,92,322,5.779881477355957,5.779881477355957
10,-0.49999764561653137,-0.6284920573234558,0.052216459065675735,36.7157755,3.1844451,21.32,7.05,-4.86,0.0,92,324,8.572656631469727,8.57265567779541
11,-0.5068681836128235,-0.6195309162139893,-0.027892913669347763,36.7158962,3.1843403,21.34,7.88,-5.55,0.0,91,324,9.646146774291992,9.646146774291992
12,-0.28887930512428284,-0.6233430504798889,0.014377702958881855,36.7160173,3.184233,21.38,7.13,-5.09,-0.01,91,324,8.763446807861328,8.763440132141113
13,-0.011007147841155529,-0.6469224691390991,-0.09101805835962296,36.7160993,3.1841599,21.37,4.59,-3.49,0.03,91,322,5.770709991455078,5.770573616027832
14,-0.07005330175161362,-1.443928599357605,-0.2679685950279236,36.7161348,3.1841083,21.59,0.36,-2.96,-0.34,90,277,3.003305435180664,2.9829323291778564
15,-0.4674995541572571,-2.1552133560180664,-0.013679994270205498,36.7161056,3.184033,22.89,-3.64,-5.11,-1.07,90,236,6.378179550170898,6.286434173583984
16,-0.4549599885940552,-2.1612794399261475,0.022976867854595184,36.7160447,3.1839258,24.92,-5.14,-7.37,-1.51,89,236,9.118396759033203,8.99101734161377
17,-0.4799908399581909,-2.1648879051208496,-0.014187042601406574,36.7159584,3.1837701,27.77,-5.54,-8.09,-1.58,89,235,9.936694145202637,9.809915542602539
18,-0.47080832719802856,-2.1647708415985107,0.03460900858044624,36.7158831,3.1836316,30.22,-5.55,-8.22,-1.58,88,235,10.047773361206055,9.922636032104492
19,-0.42388537526130676,-2.16351056098938,0.011244822293519974,36.7158078,3.183492,32.68,-5.54,-8.25,-1.6,88,236,10.072966575622559,9.944625854492188
20,-0.4879492521286011,-2.1637227535247803,0.00021400771220214665,36.7157206,3.1833293,35.58,-5.49,-8.25,-1.6,87,236,10.04232406616211,9.913508415222168
21,-0.4693862795829773,-2.1642162799835205,0.04199495166540146,36.715646,3.1831903,38.07,-5.52,-8.26,-1.61,87,236,10.074026107788086,9.94443130493164
22,-0.46219900250434875,-2.1645772457122803,-0.026476385071873665,36.7155588,3.1830272,40.98,-5.52,-8.29,-1.62,87,235,10.096004486083984,9.964845657348633
23,-0.4706518352031708,-2.164194107055664,-0.02629455365240574,36.7154965,3.1829106,43.06,-5.51,-8.28,-1.62,86,236,10.088809967041016,9.95706844329834
24,-0.43695640563964844,-2.165407657623291,0.037064097821712494,36.715409,3.1827473,45.98,-5.51,-8.28,-1.63,86,235,10.086894989013672,9.954257011413574
25,-0.482598215341568,-2.1634185314178467,-0.02434876747429371,36.7153224,3.1825851,48.9,-5.49,-8.28,-1.62,85,236,10.07459831237793,9.94216537475586
26,-0.48610132932662964,-2.164531946182251,0.023133212700486183,36.7152476,3.1824449,51.4,-5.54,-8.31,-1.63,85,235,10.130443572998047,9.996999740600586
27,-0.42942339181900024,-2.1651692390441895,-0.015890782698988914,36.71516,3.1822812,54.33,-5.51,-8.28,-1.63,84,235,10.084839820861816,9.951802253723145
28,-0.4497324228286743,-2.1653847694396973,-0.015630409121513367,36.7150855,3.1821421,56.82,-5.46,-8.17,-1.61,84,235,9.965660095214844,9.833353042602539
29,-0.20368534326553345,-2.1680352687835693,0.03187213093042374,36.7150166,3.1820143,59.14,-4.51,-6.72,-1.35,83,235,8.210827827453613,8.099043846130371
30,-0.07903815060853958,-2.151249408721924,-0.0029944826383143663,36.7149609,3.1819092,60.84,-2.66,-4.15,-0.54,83,236,4.9618306159973145,4.932066440582275
31,-0.12125411629676819,-2.0992324352264404,0.03726595640182495,36.71493,3.1818455,61.27,-2.09,-3.67,-0.1,83,239,4.23199462890625,4.230770587921143
32,-0.1695646196603775,-2.087347984313965,0.01696755364537239,36.7148983,3.1817738,61.29,-1.99,-3.69,-0.01,82,240,4.204719066619873,4.204678535461426
33,0.047912247478961945,-2.097768545150757,-0.02646658755838871,36.7148735,3.1817179,61.24,-1.54,-2.72,0.17,82,239,3.1338016986846924,3.128891944885254
34,-0.01074894703924656,-2.368093967437744,-0.04290635511279106,36.7148558,3.181686,60.14,-1.17,-1.23,1.3,82,224,2.147252321243286,1.7075575590133667
35,-0.03612717613577843,-2.4637022018432617,-0.022839350625872612,36.7148388,3.1816686,57.5,-1.04,-0.8,1.43,81,218,1.9441688060760498,1.3145214319229126
36,-0.036343496292829514,-2.4694430828094482,0.029456717893481255,36.7148247,3.1816553,55.26,-1.04,-0.83,1.43,81,218,1.9574979543685913,1.3350645303726196
37,-0.06276879459619522,-2.469521999359131,-0.0020496544893831015,36.714808,3.1816387,52.64,-1.05,-0.88,1.43,81,218,1.9908959865570068,1.3801496028900146
38,-0.00703889736905694,-2.469374656677246,0.011080354452133179,36.7147935,3.1816241,50.4,-1.06,-0.87,1.44,80,218,2.002171039581299,1.3823864459991455
39,-0.059045955538749695,-2.4693915843963623,-0.004930287133902311,36.7147789,3.1816095,48.16,-1.07,-0.88,1.45,80,218,2.0160319805145264,1.3929098844528198
40,-0.025854475796222687,-2.469735622406006,-0.020428502932190895,36.7147619,3.1815924,45.54,-1.07,-0.88,1.45,79,218,2.018833637237549,1.3947840929031372
41,-0.051152389496564865,-2.470080614089966,0.02465950883924961,36.7147473,3.1815776,43.3,-1.05,-0.88,1.46,79,218,2.013967990875244,1.3801401853561401
42,-0.05790079012513161,-2.4698128700256348,-0.012822871096432209,36.7147303,3.1815605,40.68,-1.07,-0.88,1.47,79,218,2.030806303024292,1.3930736780166626
43,-0.018333686515688896,-2.4690442085266113,0.025179054588079453,36.7147157,3.1815458,38.43,-1.05,-0.88,1.47,78,218,2.019749879837036,1.379170536994934
44,-0.05395008623600006,-2.469193935394287,-0.016285335645079613,36.7147011,3.1815311,36.18,-1.06,-0.88,1.47,78,218,2.0225369930267334,1.3845360279083252
45,-0.009498575702309608,-2.4698710441589355,-0.016693906858563423,36.7146841,3.1815139,33.56,-1.07,-0.88,1.48,78,218,2.0281753540039062,1.3855676651000977
46,-0.05976240709424019,-2.4700584411621094,0.012481858022511005,36.7146695,3.1814992,31.31,-1.05,-0.89,1.47,77,218,2.024876356124878,1.3819513320922852
47,-0.04111335799098015,-2.469407320022583,-0.019605867564678192,36.7146525,3.181482,28.68,-1.06,-0.88,1.47,77,218,2.025269031524658,1.3874456882476807
48,-0.025859706103801727,-2.469463348388672,0.02835862524807453,36.7146379,3.1814673,26.43,-1.06,-0.88,1.47,77,218,2.0256447792053223,1.383487582206726
49,-0.04489080607891083,-2.4694957733154297,-0.027258679270744324,36.7146233,3.1814526,24.18,-1.06,-0.88,1.47,76,218,2.0279335975646973,1.3887324333190918
50,-0.13149933516979218,3.03424072265625,-0.1125214621424675,36.7146004,3.1814411,21.77,-2.06,0.12,0.91,76,173,2.2669529914855957,2.0727062225341797
51,-0.25543928146362305,2.6772990226745605,-0.006596776656806469,36.7145613,3.1814588,21.32,-3.62,1.76,-0.06,75,153,4.028034210205078,4.027569770812988
52,-0.1326877921819687,2.6804096698760986,-0.007242346648126841,36.7144983,3.1814975,21.4,-4.04,2.02,0.05,75,153,4.524946689605713,4.524651050567627
53,-0.03535579890012741,3.1029210090637207,0.2467574179172516,36.7144464,3.18152,21.34,-3.42,0.12,0.04,75,177,3.427574634552002,3.427255630493164
54,-0.4476480782032013,-2.193019151687622,0.07442273199558258,36.7143978,3.1814787,21.33,-3.13,-4.41,0.02,74,234,5.4176025390625,5.417562961578369
55,-0.4758009910583496,-2.155078887939453,0.04234851524233818,36.7143472,3.1813808,21.33,-4.37,-6.94,0.0,74,236,8.208781242370605,8.20877742767334
56,-0.4316728115081787,-2.149911880493164,-0.018743809312582016,36.7142833,3.181255,21.34,-4.93,-7.72,0.0,73,236,9.163763999938965,9.163763046264648
57,-0.3262275159358978,-2.1533896923065186,0.03062206692993641,36.7142068,3.181107,21.37,-4.54,-7.0,0.0,73,236,8.344825744628906,8.344825744628906
58,-0.2236173301935196,-2.1431615352630615,-0.0015790500910952687,36.7141509,3.1809984,21.35,-3.72,-5.89,0.03,73,237,6.975246429443359,6.975181579589844
59,-0.2704415023326874,-2.1167848110198975,0.039516743272542953,36.7140957,3.1808855,21.33,-3.34,-5.65,0.0,72,238,6.570847988128662,6.5708417892456055
60,-0.27159956097602844,-2.1079812049865723,-0.021005481481552124,36.7140511,3.1807907,21.33,-3.28,-5.63,0.0,72,239,6.526914119720459,6.526908874511719
61,-0.16929689049720764,-2.1086337566375732,0.020597033202648163,36.7140073,3.1806972,21.33,-3.01,-5.18,0.0,71,239,6.001226902008057,6.001225471496582
62,0.14587008953094482,-2.1091480255126953,-0.026452738791704178,36.7139706,3.1806189,21.3,-1.36,-2.32,0.02,71,239,2.70151948928833,2.7014331817626953
63,0.10216937959194183,-2.109279155731201,0.02662343531847,36.7139619,3.1806,21.32,-0.07,-0.17,-0.01,71,239,0.18984244763851166,0.18911941349506378
64,-0.03738623484969139,-2.1123385429382324,0.09259446710348129,36.7139634,3.1806015,21.29,0.35,-0.04,0.02,70,238,0.35457369685173035,0.353587806224823
