timestamp,pitch,yaw,roll,lat,lon,alt,velocity_x,velocity_y,velocity_z,battery,heading,airspeed,groundspeed
0,0.009559018537402153,-0.009209511801600456,-0.024442793801426888,36.7156067,3.1846299,21.42,-0.02,0.03,-0.02,96,359,0.0524958074092865,0.043303925544023514
1,-0.03758959472179413,-0.009600041434168816,0.13907799124717712,36.7156073,3.1846326,21.36,0.19,0.6,-0.02,95,359,0.6346806883811951,0.634168803691864
2,-0.25239476561546326,1.7863383293151855,-0.12366363406181335,36.7156173,3.1846662,21.42,1.18,3.15,-0.09,95,102,3.3701188564300537,3.3688249588012695
3,-0.21866771578788757,1.0206379890441895,-0.0011507399613037705,36.7156378,3.184733,21.4,1.7,4.53,0.0,95,58,4.843910217285156,4.843904972076416
4,-0.1432139277458191,1.17264986038208,0.02538536675274372,36.715662,3.1848112,21.41,1.76,4.53,-0.02,94,67,4.871575355529785,4.871513366699219
5,0.2667015790939331,1.3136523962020874,0.0706896036863327,36.715683,3.1848799,21.42,0.38,1.57,-0.03,94,75,1.625606894493103,1.6252851486206055
6,-0.06486659497022629,2.9634222984313965,0.24996604025363922,36.7156726,3.1848691,21.45,-1.81,-2.47,0.0,93,169,3.068755626678467,3.068755626678467
7,-0.12232774496078491,-1.914586067199707,-0.0007083049276843667,36.715639,3.1848078,21.43,-2.25,-3.28,-0.07,93,250,3.9825735092163086,3.9818077087402344
8,-0.054247479885816574,-1.9910366535186768,0.08979356288909912,36.7156123,3.1847526,21.45,-1.4,-3.17,0.04,93,245,3.4732723236083984,3.472973346710205
9,-0.25739341974258423,-0.9172300100326538,0.21817682683467865,36.7156129,3.1847029,21.41,1.85,-2.73,0.0,92,307,3.3025248050689697,3.302518844604492
10,-0.4808849096298218,-0.6246274709701538,-0.01181382592767477,36.7156623,3.1846504,21.41,5.29,-3.71,0.0,92,324,6.4728007316589355,6.472795486450195
11,-0.4910549521446228,-0.6144888997077942,0.021776413545012474,36.7157658,3.184561,21.42,7.55,-5.19,0.0,91,324,9.170663833618164,9.170660018920898
12,-0.49535664916038513,-0.6167213916778564,-0.013963736593723297,36.7158894,3.1844537,21.44,7.9,-5.56,0.0,91,324,9.664694786071777,9.664694786071777
13,-0.24530290067195892,-0.6213464140892029,0.02642146311700344,36.715991,3.1843639,21.48,6.76,-4.81,0.0,91,324,8.30115795135498,8.301155090332031
14,0.04387451335787773,-0.691738486289978,-0.13661786913871765,36.7160657,3.1842966,21.47,3.86,-3.22,0.0,90,320,5.028298377990723,5.0282979011535645
15,-0.2690250277519226,-1.9536426067352295,-0.18058334290981293,36.7160882,3.1842377,21.94,-1.14,-3.36,-0.56,90,248,3.6046857833862305,3.5594873428344727
16,-0.4898887276649475,-2.1770713329315186,-0.004426801577210426,36.7160509,3.1841637,23.3,-4.02,-5.64,-1.19,89,235,7.037680625915527,6.9356608390808105
17,-0.4419355094432831,-2.165553092956543,0.021270275115966797,36.7159741,3.1840278,25.86,-5.36,-7.78,-1.59,89,235,9.588006973266602,9.45449447631836
18,-0.4694799482822418,-2.1660635471343994,-0.024531695991754532,36.7158994,3.1838922,28.33,-5.53,-8.12,-1.58,88,235,9.957712173461914,9.83112621307373
19,-0.45249512791633606,-2.165177822113037,0.0377589613199234,36.7158115,3.1837298,31.19,-5.56,-8.25,-1.59,88,235,10.08095645904541,9.954362869262695
20,-0.4243142008781433,-2.1666314601898193,-0.005995925050228834,36.7157364,3.1835903,33.67,-5.53,-8.23,-1.59,88,235,10.054235458374023,9.926719665527344
21,-0.46788835525512695,-2.162604570388794,-0.030316555872559547,36.7156619,3.1834511,36.14,-5.5,-8.27,-1.6,87,236,10.068231582641602,9.938789367675781
22,-0.4384392201900482,-2.1634817123413086,0.026963939890265465,36.7155746,3.1832882,39.05,-5.52,-8.26,-1.62,87,236,10.073436737060547,9.941161155700684
23,-0.43020743131637573,-2.1630656719207764,0.02545243687927723,36.7155121,3.1831717,41.14,-5.51,-8.27,-1.62,86,236,10.076398849487305,9.94397258758545
24,-0.49154627323150635,-2.1645333766937256,-0.012668452225625515,36.7154254,3.1830092,44.04,-5.5,-8.28,-1.62,86,235,10.080656051635742,9.948921203613281
25,-0.42685040831565857,-2.1646406650543213,0.021618299186229706,36.7153381,3.1828458,46.96,-5.54,-8.32,-1.64,85,235,10.139444351196289,10.005535125732422
26,-0.4414031505584717,-2.1642966270446777,-0.023014526814222336,36.715263,3.1827056,49.47,-5.51,-8.26,-1.63,85,236,10.07181453704834,9.938240051269531
27,-0.4656766653060913,-2.1652204990386963,0.043570272624492645,36.7151759,3.1825429,52.4,-5.49,-8.28,-1.63,84,235,10.079523086547852,9.946393013000488
28,-0.42962679266929626,-2.162173271179199,0.0008965519955381751,36.7151017,3.1824034,54.89,-5.53,-8.32,-1.64,84,236,10.132651329040527,9.9983491897583
29,-0.39757221937179565,-2.1660783290863037,-0.031162936240434647,36.7150269,3.1822639,57.39,-5.42,-8.03,-1.59,83,235,9.826095581054688,9.695589065551758
30,-0.07589589059352875,-2.1669816970825195,0.02647974155843258,36.7149513,3.182124,59.92,-3.86,-5.77,-1.11,83,235,7.040837287902832,6.952467918395996
31,-0.09129617363214493,-2.147331476211548,-0.005328585859388113,36.7149094,3.1820443,61.07,-2.47,-3.92,-0.43,83,236,4.660409450531006,4.639720439910889
32,-0.11806608736515045,-2.1058990955352783,0.004672343842685223,36.7148744,3.1819713,61.4,-2.08,-3.66,-0.03,82,239,4.2224345207214355,4.222281455993652
33,-0.14152808487415314,-2.1038269996643066,0.0002853602927643806,36.7148464,3.18191,61.39,-2.06,-3.63,-0.02,82,239,4.183003902435303,4.18290901184082
34,0.05817430093884468,-2.160290479660034,-0.06216934323310852,36.7148189,3.1818517,61.16,-1.35,-2.1,0.47,82,236,2.5487799644470215,2.5034492015838623
35,-0.0011871752794831991,-2.457507610321045,0.0007234648219309747,36.7148024,3.1818276,59.48,-1.1,-0.95,1.49,81,219,2.0911223888397217,1.464725136756897
36,-0.023166406899690628,-2.4641551971435547,-0.02502381056547165,36.7147882,3.1818141,57.19,-1.03,-0.8,1.42,81,218,1.9384386539459229,1.3159551620483398
37,-0.015594427473843098,-2.4687464237213135,0.01638181507587433,36.7147719,3.1817983,54.59,-1.06,-0.85,1.43,80,218,1.9812711477279663,1.3631783723831177
38,-0.05667049437761307,-2.469245433807373,-0.010851062834262848,36.7147574,3.1817839,52.34,-1.06,-0.89,1.44,80,218,2.005361795425415,1.3911761045455933
39,-0.015313103795051575,-2.469456195831299,-0.014957327395677567,36.7147404,3.1817668,49.72,-1.08,-0.88,1.44,80,218,2.0078372955322266,1.3918124437332153
40,-0.054249074310064316,-2.469588041305542,-0.01849173568189144,36.7147283,3.1817546,47.85,-1.07,-0.88,1.45,79,218,2.0108959674835205,1.3915228843688965
41,-0.015050472691655159,-2.4699649810791016,-0.01568695157766342,36.7147113,3.1817376,45.24,-1.08,-0.88,1.46,79,218,2.0281782150268555,1.3990265130996704
42,-0.018456904217600822,-2.469653844833374,0.02265366166830063,36.7146942,3.1817203,42.62,-1.06,-0.88,1.46,79,218,2.017531633377075,1.3834598064422607
43,-0.04140377417206764,-2.469012498855591,-0.023941557854413986,36.7146797,3.1817056,40.37,-1.06,-0.89,1.47,78,218,2.0256447792053223,1.3928202390670776
44,-0.012371217831969261,-2.4694573879241943,-0.012371310964226723,36.7146628,3.1816885,37.75,-1.07,-0.88,1.47,78,218,2.0267434120178223,1.3867571353912354
45,-0.058220501989126205,-2.4698190689086914,0.011208916082978249,36.7146481,3.1816737,35.5,-1.06,-0.88,1.48,78,218,2.0303690433502197,1.3885493278503418
46,-0.0078001469373703,-2.470127820968628,-0.0046213180758059025,36.7146335,3.181659,33.25,-1.07,-0.88,1.47,77,218,2.026385545730591,1.3881367444992065
47,-0.03542390465736389,-2.4693784713745117,0.03241867199540138,36.7146165,3.1816419,30.63,-1.06,-0.88,1.47,77,218,2.0258312225341797,1.3837013244628906
48,-0.03736446052789688,-2.4696245193481445,-0.02354893647134304,36.7146019,3.1816272,28.38,-1.07,-0.88,1.48,76,218,2.0308358669281006,1.3897932767868042
49,-0.007962695322930813,-2.469557285308838,-0.00031026723445393145,36.7145849,3.1816099,25.75,-1.06,-0.87,1.47,76,218,2.0192995071411133,1.3776576519012451
50,-0.08991022408008575,-2.5222601890563965,-0.052066050469875336,36.7145702,3.1815953,23.51,-1.18,-0.82,1.47,76,215,2.0672364234924316,1.4444162845611572
51,-0.23228298127651215,2.766535997390747,-0.10606575757265091,36.7145414,3.1815917,21.52,-2.66,0.88,0.41,75,158,2.8379383087158203,2.8074684143066406
52,-0.21269701421260834,2.6713881492614746,0.024417264387011528,36.7144956,3.181618,21.45,-3.89,1.95,-0.06,75,153,4.353186130523682,4.352627277374268
53,-0.0967814102768898,2.6898326873779297,0.03207872062921524,36.7144414,3.181652,21.49,-3.93,1.86,0.06,75,154,4.353580474853516,4.353130340576172
54,-0.1498902440071106,-2.717952013015747,0.29282864928245544,36.7143849,3.1816643,21.43,-3.04,-1.29,0.03,74,204,3.3080074787139893,3.3078298568725586
55,-0.4750252962112427,-2.1864547729492188,0.03843408450484276,36.7143432,3.1816094,21.43,-3.39,-5.14,0.02,74,234,6.160374164581299,6.1603264808654785
56,-0.4628782570362091,-2.1571826934814453,0.01852591708302498,36.714278,3.1814826,21.44,-4.73,-7.39,0.0,73,236,8.551021575927734,8.551017761230469
57,-0.4426991045475006,-2.1554203033447266,-0.03060144931077957,36.7142115,3.1813538,21.45,-5.0,-7.71,0.0,73,236,9.19159984588623,9.191598892211914
58,-0.31478390097618103,-2.15747332572937,0.027939071878790855,36.7141468,3.1812302,21.47,-4.42,-6.74,0.01,73,236,8.067679405212402,8.067671775817871
59,-0.2754150927066803,-2.1354541778564453,-0.007137579843401909,36.7140848,3.1811096,21.44,-3.52,-5.69,0.03,72,237,6.695629596710205,6.695559024810791
60,-0.28882837295532227,-2.1068150997161865,0.03483070433139801,36.7140393,3.1810143,21.43,-3.24,-5.64,0.0,72,239,6.509790420532227,6.509787559509277
61,-0.2881005108356476,-2.0999207496643066,-0.021580465137958527,36.7139883,3.1809031,21.43,-3.23,-5.68,0.0,71,239,6.540513515472412,6.5405073165893555
62,-0.03678034991025925,-2.1003308296203613,0.028162585571408272,36.7139475,3.180814,21.44,-2.6,-4.55,0.01,71,239,5.248834133148193,5.248818397521973
63,0.15376175940036774,-2.100999116897583,-0.029517851769924164,36.7139224,3.1807595,21.4,-0.99,-1.74,0.0,71,239,2.007786989212036,2.007786989212036
64,0.06325021386146545,-2.100492238998413,-0.00035176941310055554,36.7139172,3.1807477,21.42,0.09,0.13,0.0,70,239,0.16678065061569214,0.1667701005935669
65,-0.04257221892476082,-2.102555990219116,0.11313329637050629,36.71392,3.1807492,21.38,0.55,-0.23,0.0,70,239,0.6033753752708435,0.6033716201782227
