timestamp,pitch,yaw,roll,lat,lon,alt,velocity_x,velocity_y,velocity_z,battery,heading,airspeed,groundspeed
0,-0.023852605372667313,0.041722241789102554,-0.004135980736464262,36.7156066,3.18463,18.87,-0.03,0.02,0.04,96,2,0.0612800233066082,0.043013814836740494
1,-0.03645625710487366,0.05014398694038391,0.11363324522972107,36.7156076,3.1846327,18.86,0.26,0.63,0.0,95,2,0.6860752701759338,0.6860731840133667
2,-0.23910054564476013,1.611822485923767,-0.091963991522789,36.7156176,3.184659,18.82,1.27,2.73,-0.02,95,92,3.018151044845581,3.018061399459839
3,-0.18798065185546875,0.9999167919158936,0.016431333497166634,36.715644,3.1847271,18.87,1.84,3.86,-0.04,95,57,4.281696319580078,4.281499862670898
4,0.06097039207816124,1.0912498235702515,0.01676402986049652,36.7156689,3.1847904,18.9,1.57,3.25,-0.02,94,62,3.6125166416168213,3.6124463081359863
5,0.22239643335342407,1.9441938400268555,0.3126864731311798,36.7156771,3.1848167,18.89,-0.97,-1.21,0.0,94,111,1.5573073625564575,1.5573068857192993
6,-0.1350126713514328,-2.7658703327178955,0.06017792224884033,36.7156534,3.1847749,18.93,-2.24,-3.23,-0.02,93,201,3.936046600341797,3.9359781742095947
7,-0.09165292233228683,-2.08168363571167,0.052929576486349106,36.715623,3.1847185,18.92,-2.17,-3.23,0.0,93,240,3.9031641483306885,3.9031641483306885
8,-0.09492555260658264,-1.4881298542022705,0.2702644467353821,36.715604,3.1846566,18.91,0.32,-2.84,0.0,93,274,2.8647449016571045,2.8647284507751465
9,-0.3907786011695862,-0.6523261666297913,0.05601566657423973,36.715634,3.1846086,18.91,4.1,-3.17,0.0,92,322,5.1926398277282715,5.1926398277282715
10,-0.5416310429573059,-0.6227647066116333,0.010669590905308723,36.715709,3.1845428,18.91,6.74,-4.67,0.0,92,324,8.204862594604492,8.204859733581543
11,-0.45357009768486023,-0.6175596117973328,-0.009564037434756756,36.7158271,3.1844407,18.93,7.87,-5.51,0.0,91,324,9.613387107849121,9.613386154174805
12,-0.38067367672920227,-0.6206270456314087,0.01847110502421856,36.7159502,3.1843326,18.97,7.41,-5.25,-0.01,91,324,9.089353561401367,9.089338302612305
13,-0.005863772705197334,-0.6270020008087158,-0.030178217217326164,36.7160385,3.1842547,18.98,5.2,-3.76,0.05,91,324,6.425248146057129,6.4250288009643555
14,-0.006166844163089991,-1.1457282304763794,-0.2677895128726959,36.7160848,3.1842013,19.09,1.22,-2.88,-0.23,90,294,3.146836996078491,3.1378376483917236
15,-0.40498751401901245,-2.1331493854522705,-0.0934186801314354,36.7160668,3.1841327,20.17,-3.19,-4.67,-0.97,90,237,5.739843845367432,5.657214164733887
16,-0.5116293430328369,-2.1612117290496826,0.03087993897497654,36.7160096,3.1840332,22.06,-4.89,-7.07,-1.46,89,236,8.730019569396973,8.605685234069824
17,-0.42603597044944763,-2.162783622741699,0.027508217841386795,36.7159371,3.1839024,24.46,-5.49,-8.02,-1.62,89,236,9.86380386352539,9.7296781539917
18,-0.49659666419029236,-2.1635611057281494,-0.011650408618152142,36.7158499,3.183742,27.35,-5.54,-8.19,-1.56,88,236,10.017496109008789,9.894000053405762
19,-0.4732324779033661,-2.163027763366699,0.034382373094558716,36.7157747,3.1836024,29.82,-5.56,-8.26,-1.58,88,236,10.084443092346191,9.958998680114746
20,-0.4454220235347748,-2.166994571685791,-0.028591051697731018,36.7156869,3.1834395,32.7,-5.53,-8.24,-1.6,88,235,10.057835578918457,9.929484367370605
21,-0.4884914457798004,-2.163759469985962,-0.004686120897531509,36.7156123,3.1833003,35.19,-5.48,-8.26,-1.6,87,236,10.048246383666992,9.919157028198242
22,-0.4510541558265686,-2.1621453762054443,0.031922969967126846,36.715538,3.1831609,37.69,-5.52,-8.3,-1.61,87,236,10.104101181030273,9.974039077758789
23,-0.46762797236442566,-2.1631276607513428,-0.02909146435558796,36.7154505,3.1829975,40.6,-5.53,-8.28,-1.62,86,236,10.09866714477539,9.967514038085938
24,-0.4874574840068817,-2.1682779788970947,0.024926170706748962,36.7153756,3.182858,43.1,-5.51,-8.28,-1.62,86,235,10.080389022827148,9.94854736328125
25,-0.43021270632743835,-2.163545608520508,-0.015554466284811497,36.7152887,3.182695,46.02,-5.49,-8.31,-1.62,85,236,10.100345611572266,9.968871116638184
26,-0.48083245754241943,-2.1633715629577637,-0.024617737159132957,36.7152139,3.1825548,48.52,-5.53,-8.29,-1.62,85,236,10.101977348327637,9.969779014587402
27,-0.4248703420162201,-2.1641745567321777,0.028819048777222633,36.7151264,3.1823916,51.45,-5.5,-8.28,-1.63,84,236,10.080554962158203,9.946659088134766
28,-0.43290841579437256,-2.164799451828003,-0.02552531100809574,36.715052,3.1822523,53.95,-5.51,-8.29,-1.62,84,235,10.092643737792969,9.960946083068848
29,-0.28402888774871826,-2.1680896282196045,0.005510472226887941,36.7149807,3.1821199,56.34,-4.79,-7.11,-1.42,84,235,8.694826126098633,8.57769775390625
30,-0.03922012448310852,-2.159945487976074,-0.004380680620670319,36.7149198,3.1820062,58.26,-2.9,-4.43,-0.66,83,236,5.341136932373047,5.300044536590576
31,-0.16282081604003906,-2.118633270263672,0.03360671550035477,36.7148871,3.1819407,58.84,-2.18,-3.69,-0.15,83,238,4.29419469833374,4.291217803955078
32,-0.1719571053981781,-2.1020193099975586,-0.02192738838493824,36.7148541,3.1818693,58.89,-2.09,-3.71,-0.01,82,239,4.265707969665527,4.265678882598877
33,0.008363255299627781,-2.1039483547210693,0.01938461698591709,36.7148272,3.1818106,58.87,-1.72,-3.01,0.05,82,239,3.475078582763672,3.474694013595581
34,0.02343083545565605,-2.302210569381714,-0.07523117959499359,36.7148078,3.1817735,58.11,-1.21,-1.44,1.08,82,228,2.1728601455688477,1.8854013681411743
35,-0.007821284234523773,-2.4731504917144775,-0.003784630913287401,36.7147905,3.1817545,55.54,-1.03,-0.79,1.43,81,218,1.9408038854599,1.3029721975326538
36,-0.06470722705125809,-2.4713261127471924,0.0050768014043569565,36.7147764,3.1817413,53.3,-1.04,-0.83,1.42,81,218,1.9535998106002808,1.3407421112060547
37,-0.032328858971595764,-2.470015287399292,-0.024973731487989426,36.7147597,3.1817248,50.69,-1.07,-0.87,1.43,81,218,1.993334412574768,1.3861743211746216
38,-0.040062397718429565,-2.469669818878174,0.026926355436444283,36.7147452,3.1817103,48.44,-1.06,-0.87,1.43,80,218,1.9895744323730469,1.379780650138855
39,-0.028351983055472374,-2.4696123600006104,-0.023972544819116592,36.7147306,3.1816956,46.21,-1.07,-0.88,1.44,80,218,2.0088367462158203,1.3929932117462158
40,-0.008488564752042294,-2.4695675373077393,0.00987879280000925,36.7147136,3.1816785,43.59,-1.07,-0.87,1.45,79,218,2.0133485794067383,1.3900257349014282
41,-0.05933379754424095,-2.469665288925171,-0.00976414605975151,36.7146991,3.1816639,41.34,-1.06,-0.89,1.45,79,218,2.0121731758117676,1.389095664024353
42,-0.023064572364091873,-2.469982147216797,-0.020120901986956596,36.714682,3.1816467,38.72,-1.07,-0.88,1.46,79,218,2.0203750133514404,1.3931561708450317
43,-0.053739845752716064,-2.4692840576171875,0.0184713713824749,36.7146675,3.181632,36.48,-1.05,-0.88,1.47,78,218,2.017949342727661,1.3784719705581665
44,-0.059455543756484985,-2.4692254066467285,-0.014451193623244762,36.7146505,3.1816149,33.86,-1.07,-0.88,1.47,78,218,2.0231151580810547,1.3899391889572144
45,-0.015613825991749763,-2.4692468643188477,0.019389919936656952,36.7146359,3.1816001,31.61,-1.07,-0.88,1.47,78,218,2.022773265838623,1.3892567157745361
46,-0.0516265407204628,-2.4694948196411133,-0.02026567980647087,36.7146212,3.1815853,29.37,-1.06,-0.89,1.47,77,218,2.0263357162475586,1.3855860233306885
47,-0.00890315417200327,-2.4695780277252197,-0.011630776338279247,36.7146042,3.1815682,26.74,-1.06,-0.88,1.47,77,218,2.021113157272339,1.3808246850967407
48,-0.057734500616788864,-2.469660758972168,0.017719177529215813,36.7145898,3.1815535,24.48,-1.05,-0.88,1.47,77,218,2.0191750526428223,1.3815094232559204
49,-0.04618394002318382,-2.469386577606201,-0.021655118092894554,36.7145727,3.1815363,21.86,-1.06,-0.89,1.47,76,218,2.0293233394622803,1.393365740776062
50,-0.10997886210680008,-3.049272060394287,-0.08060184866189957,36.7145547,3.1815245,19.7,-1.79,-0.23,1.17,76,185,2.1608221530914307,1.8155908584594727
51,-0.24764010310173035,2.6759324073791504,-0.05691072344779968,36.7145198,3.1815361,18.89,-3.39,1.6,-0.01,75,153,3.7570137977600098,3.7569613456726074
52,-0.1398211270570755,2.679152250289917,-0.0046428474597632885,36.7144582,3.1815739,19.01,-4.06,2.04,0.01,75,153,4.5500168800354,4.549973964691162
53,-0.050902385264635086,2.9345200061798096,0.17729459702968597,36.7144047,3.1816018,18.95,-3.61,0.72,0.05,75,168,3.6862940788269043,3.6858582496643066
54,-0.32295382022857666,-2.257143020629883,0.14760082960128784,36.7143616,3.1815851,18.93,-2.93,-3.08,0.02,74,230,4.259710311889648,4.259649753570557
55,-0.5061079263687134,-2.143904447555542,0.027865150943398476,36.7143078,3.1814866,18.93,-4.15,-6.6,0.01,74,237,7.8030853271484375,7.80307674407959
56,-0.4359566271305084,-2.147430181503296,0.008268381468951702,36.7142453,3.1813636,18.94,-4.9,-7.66,0.0,73,236,9.098458290100098,9.098457336425781
57,-0.36210623383522034,-2.1525332927703857,0.012683872133493423,36.7141679,3.181214,18.96,-4.68,-7.22,0.0,73,236,8.6121244430542,8.6121244430542
58,-0.20838376879692078,-2.145211935043335,0.026171477511525154,36.7141097,3.1811015,18.96,-3.85,-6.06,0.03,73,237,7.181889533996582,7.181802749633789
59,-0.29193079471588135,-2.1144983768463135,0.03039395436644554,36.714054,3.1809879,18.94,-3.32,-5.66,0.01,72,238,6.571587085723877,6.57155704498291
60,-0.2559882402420044,-2.0996131896972656,0.0044477819465100765,36.7140101,3.180893,18.94,-3.22,-5.65,0.01,72,239,6.509068965911865,6.509052276611328
61,-0.21949641406536102,-2.0999021530151367,-0.0048997607082128525,36.7139667,3.1807984,18.94,-3.09,-5.45,0.0,71,239,6.272085189819336,6.272083282470703
62,0.15762750804424286,-2.1013741493225098,-0.025178832933306694,36.7139265,3.1807108,18.92,-1.7,-2.96,0.04,71,239,3.420260429382324,3.419992685317993
63,0.103446364402771,-2.1009624004364014,0.023129038512706757,36.7139143,3.1806839,18.92,-0.23,-0.43,-0.01,71,239,0.49318617582321167,0.49284133315086365
64,-0.029826855286955833,-2.1021952629089355,0.034666936844587326,36.713915,3.1806849,18.9,0.19,0.08,0.04,70,239,0.21468926966190338,0.21073848009109497
