timestamp,pitch,yaw,roll,lat,lon,alt,velocity_x,velocity_y,velocity_z,battery,heading,airspeed,groundspeed
0,0.002493050415068865,-0.051471397280693054,0.03202925994992256,36.7156066,3.1846299,20.39,-0.01,0.03,0.02,96,357,0.04417065531015396,0.03622644394636154
1,-0.059259988367557526,-0.05760778486728668,0.06033897399902344,36.7156077,3.184632,20.35,0.3,0.47,0.0,95,356,0.5617651343345642,0.5617130398750305
2,-0.18998153507709503,1.4651360511779785,-0.14928963780403137,36.7156222,3.1846584,20.33,1.73,2.46,-0.02,95,83,3.018397569656372,3.0182931423187256
3,-0.18445785343647003,0.8330506086349487,0.043919775635004044,36.715652,3.1847105,20.36,2.51,3.54,-0.03,95,47,4.3457183837890625,4.34555721282959
4,-0.0866229236125946,0.9195491671562195,-0.025743631646037102,36.7156871,3.1847709,20.38,2.48,3.45,-0.02,94,52,4.259921073913574,4.2598700523376465
5,0.38103169202804565,0.88182133436203,-0.026823420077562332,36.7157134,3.1848154,20.38,0.22,0.24,0.01,94,50,0.3320698142051697,0.3317640721797943
6,-0.014653803780674934,-0.5556071400642395,-0.21131855249404907,36.7156994,3.1847891,20.4,-2.0,-2.86,-0.04,93,328,3.4961156845092773,3.495861053466797
7,-0.14605863392353058,-2.306825876235962,-0.004962666891515255,36.7156646,3.1847258,20.42,-2.26,-3.26,0.01,93,227,3.968475580215454,3.968444347381592
8,-0.003207363188266754,-1.7946521043777466,0.1811807006597519,36.7156411,3.1846711,20.4,-0.88,-3.03,0.01,93,257,3.165241003036499,3.1652016639709473
9,-0.377606064081192,-0.7011012434959412,0.11272405833005905,36.7156523,3.184623,20.39,2.77,-2.85,0.0,92,319,3.9776084423065186,3.9776062965393066
10,-0.4693516790866852,-0.612159252166748,-0.013119553215801716,36.7157261,3.1845538,20.39,6.27,-4.4,0.0,92,324,7.670275688171387,7.67027473449707
11,-0.5314465761184692,-0.6185513734817505,-0.014780365861952305,36.7158224,3.18447,20.4,7.72,-5.39,0.0,91,324,9.425365447998047,9.42536449432373
12,-0.3957555592060089,-0.6220520734786987,0.01001117192208767,36.7159462,3.1843613,20.42,7.76,-5.5,-0.01,91,324,9.517839431762695,9.517828941345215
13,-0.1757807582616806,-0.6247552633285522,-0.024411112070083618,36.7160428,3.1842754,20.47,6.18,-4.42,0.02,91,324,7.601490497589111,7.6014580726623535
14,0.09912121295928955,-0.8243064880371094,-0.14485858380794525,36.7161065,3.1842144,20.48,2.82,-3.0,-0.07,90,312,4.1269683837890625,4.126197338104248
15,-0.3881717026233673,-2.1062140464782715,-0.09601817280054092,36.7161114,3.1841533,21.19,-2.11,-3.87,-0.74,90,239,4.47841739654541,4.416604518890381
16,-0.43700382113456726,-2.1757709980010986,0.018875321373343468,36.7160646,3.1840687,22.8,-4.45,-6.35,-1.32,89,235,7.873223304748535,7.7610602378845215
17,-0.5000779628753662,-2.164318323135376,-0.003901571501046419,36.7159834,3.1839238,25.49,-5.49,-7.97,-1.6,89,236,9.812581062316895,9.680166244506836
18,-0.4547058343887329,-2.1639981269836426,0.0354338176548481,36.7159083,3.1837869,27.97,-5.53,-8.15,-1.57,88,236,9.981523513793945,9.856325149536133
19,-0.42416971921920776,-2.163151741027832,-0.011218723841011524,36.715833,3.1836476,30.42,-5.56,-8.26,-1.58,88,236,10.086262702941895,9.961052894592285
20,-0.484453946352005,-2.166750431060791,0.021269969642162323,36.7157453,3.1834847,33.3,-5.51,-8.23,-1.6,88,235,10.0341157913208,9.905707359313965
21,-0.4379296600818634,-2.163426399230957,0.043083250522613525,36.7156707,3.1833454,35.79,-5.5,-8.27,-1.61,87,236,10.070206642150879,9.940653800964355
22,-0.48168131709098816,-2.1635334491729736,-0.022870386019349098,36.7155839,3.1831828,38.7,-5.53,-8.28,-1.6,87,236,10.091886520385742,9.962850570678711
23,-0.4720257520675659,-2.165822982788086,0.039845000952482224,36.7155087,3.183043,41.19,-5.52,-8.29,-1.62,86,235,10.097976684570312,9.965737342834473
24,-0.42284974455833435,-2.163017511367798,0.013381212949752808,36.7154341,3.1829031,43.69,-5.48,-8.28,-1.63,86,236,10.071843147277832,9.938785552978516
25,-0.495514839887619,-2.1658730506896973,-0.0028614825569093227,36.7153471,3.1827403,46.62,-5.53,-8.31,-1.62,85,235,10.118046760559082,9.987258911132812
26,-0.4567500948905945,-2.1644668579101562,0.041542090475559235,36.7152721,3.1826002,49.12,-5.51,-8.29,-1.63,85,235,10.09622573852539,9.962794303894043
27,-0.4620470702648163,-2.1645829677581787,-0.027293294668197632,36.7151849,3.182437,52.04,-5.51,-8.29,-1.63,84,235,10.089183807373047,9.955689430236816
28,-0.49636024236679077,-2.163294792175293,0.012611690908670425,36.7151105,3.1822975,54.55,-5.51,-8.3,-1.62,84,236,10.105956077575684,9.973790168762207
29,-0.3195466995239258,-2.1675429344177246,0.029441745951771736,36.7150365,3.18216,57.01,-5.22,-7.72,-1.53,84,235,9.452896118164062,9.327448844909668
30,-0.09620897471904755,-2.166041612625122,-0.0007748628850094974,36.714967,3.1820309,59.31,-3.39,-5.11,-0.91,83,235,6.210623741149902,6.14328670501709
31,-0.10175930708646774,-2.126619577407837,0.031487204134464264,36.7149301,3.1819588,60.2,-2.25,-3.73,-0.3,83,238,4.3749518394470215,4.364589691162109
32,-0.1724778562784195,-2.087437868118286,0.02697097137570381,36.7148972,3.1818868,60.38,-2.0,-3.69,-0.01,82,240,4.2046098709106445,4.204594612121582
33,-0.03510643541812897,-2.0880038738250732,-0.012303157709538937,36.7148702,3.1818255,60.37,-1.88,-3.46,-0.03,82,240,3.9427263736724854,3.9425880908966064
34,0.025806086137890816,-2.1727941036224365,-0.036944903433322906,36.7148488,3.1817794,60.05,-1.26,-1.92,0.61,82,235,2.3830173015594482,2.303236722946167
35,-0.026777012273669243,-2.485295534133911,-0.032358765602111816,36.7148305,3.1817549,57.82,-1.04,-0.82,1.48,81,217,1.996035099029541,1.3309733867645264
36,-0.02778254635632038,-2.4707553386688232,0.031599659472703934,36.7148164,3.1817418,55.56,-1.04,-0.81,1.42,81,218,1.9413868188858032,1.3199573755264282
37,-0.06349930912256241,-2.4702565670013428,0.007267857901751995,36.7147998,3.1817257,52.94,-1.05,-0.86,1.43,81,218,1.9821349382400513,1.365229606628418
38,-0.011792043223977089,-2.469627857208252,0.0022140417713671923,36.7147854,3.1817113,50.7,-1.07,-0.87,1.43,80,218,2.0003082752227783,1.3895676136016846
39,-0.060344867408275604,-2.469573974609375,0.006339244078844786,36.7147708,3.1816966,48.46,-1.06,-0.88,1.45,80,218,2.006587266921997,1.3848023414611816
40,-0.03748159483075142,-2.469412088394165,-0.02187468856573105,36.7147538,3.1816796,45.84,-1.07,-0.89,1.46,79,218,2.020838975906372,1.3957276344299316
41,-0.04000623896718025,-2.469724655151367,0.02968776784837246,36.7147393,3.1816649,43.59,-1.06,-0.88,1.46,79,218,2.0106301307678223,1.381847620010376
42,-0.06204285845160484,-2.469860076904297,-0.0020415864419192076,36.7147222,3.1816477,40.98,-1.06,-0.88,1.46,79,218,2.020966053009033,1.3903024196624756
43,-0.00934422668069601,-2.4690616130828857,0.017191534861922264,36.7147076,3.181633,38.74,-1.06,-0.88,1.47,78,218,2.022665500640869,1.382088541984558
44,-0.0447581484913826,-2.4697625637054443,0.02909271791577339,36.7146907,3.1816159,36.11,-1.05,-0.88,1.47,78,218,2.0194921493530273,1.3797935247421265
45,-0.020436817780137062,-2.4696075916290283,-0.020554764196276665,36.7146761,3.1816012,33.86,-1.07,-0.89,1.47,78,218,2.028200149536133,1.39371919631958
46,-0.0496496856212616,-2.4699487686157227,0.02206234261393547,36.7146615,3.1815864,31.62,-1.05,-0.88,1.48,77,218,2.022719144821167,1.3782118558883667
47,-0.05300966277718544,-2.4691884517669678,-0.012760515324771404,36.7146444,3.1815692,28.99,-1.06,-0.89,1.47,77,218,2.0261545181274414,1.3866578340530396
48,-0.015098349191248417,-2.4691245555877686,0.0218497384339571,36.7146299,3.1815545,26.73,-1.06,-0.87,1.47,77,218,2.018550157546997,1.3806101083755493
49,-0.05247754231095314,-2.4698684215545654,0.02046627551317215,36.7146128,3.1815373,24.11,-1.05,-0.88,1.47,76,218,2.0235249996185303,1.3806344270706177
50,-0.054158732295036316,-2.7101876735687256,-0.09743735939264297,36.7145973,3.1815233,21.87,-1.42,-0.65,1.41,76,204,2.110179901123047,1.5635268688201904
51,-0.26779264211654663,2.7270827293395996,-0.04376048594713211,36.7145694,3.1815246,20.43,-2.85,1.06,0.26,75,156,3.062075614929199,3.050417423248291
52,-0.19246932864189148,2.6801834106445312,-0.031976379454135895,36.7145123,3.181558,20.46,-4.05,2.01,-0.05,75,153,4.5275163650512695,4.527228832244873
53,-0.05021773278713226,2.7593040466308594,0.12421619147062302,36.7144575,3.1815908,20.45,-3.84,1.51,0.06,75,158,4.139196872711182,4.138689041137695
54,-0.33270543813705444,-2.4189441204071045,0.21971870958805084,36.7144039,3.1815888,20.41,-2.92,-2.35,0.02,74,221,3.7519304752349854,3.7518272399902344
55,-0.44144120812416077,-2.1512718200683594,0.02332179993391037,36.714361,3.1815186,20.41,-3.68,-5.85,0.01,74,236,6.922883033752441,6.92285680770874
56,-0.4882727861404419,-2.1502232551574707,-0.03470677509903908,36.714303,3.1814038,20.42,-4.73,-7.48,0.0,73,236,8.862144470214844,8.862143516540527
57,-0.37286272644996643,-2.1505706310272217,0.0191146582365036,36.7142257,3.1812533,20.43,-4.89,-7.57,0.0,73,236,9.021781921386719,9.021781921386719
58,-0.2682740092277527,-2.1511995792388916,-0.012878120876848698,36.7141638,3.1811341,20.45,-4.18,-6.49,0.02,73,236,7.722146987915039,7.722091197967529
59,-0.24646683037281036,-2.123109817504883,0.03195187449455261,36.7141049,3.1810167,20.42,-3.42,-5.68,0.02,72,238,6.633078098297119,6.633017063140869
60,-0.29413387179374695,-2.103013038635254,-0.013464424759149551,36.7140602,3.1809215,20.42,-3.23,-5.63,0.01,72,239,6.502196788787842,6.5021843910217285
61,-0.2542535066604614,-2.100045919418335,0.031095370650291443,36.7140167,3.1808264,20.42,-3.21,-5.65,0.0,71,239,6.504139423370361,6.504133701324463
62,0.004553701262921095,-2.100419759750366,-0.0065517243929207325,36.7139711,3.1807273,20.41,-2.27,-3.98,0.03,71,239,4.584207534790039,4.584084987640381
63,0.1752779334783554,-2.1006271839141846,0.011070729233324528,36.7139516,3.1806846,20.39,-0.63,-1.1,-0.01,71,239,1.2740482091903687,1.2739644050598145
64,-0.00885611493140459,-2.1006901264190674,0.02710898406803608,36.7139494,3.1806797,20.4,0.12,0.16,0.02,70,239,0.20798611640930176,0.20690813660621643
