timestamp,pitch,yaw,roll,lat,lon,alt,velocity_x,velocity_y,velocity_z,battery,heading,airspeed,groundspeed
0,-0.0022110817953944206,0.035154398530721664,0.030714277178049088,36.7156066,3.18463,20.09,-0.01,0.02,0.04,96,2,0.05334121361374855,0.03441515192389488
1,-0.08361990749835968,0.028391791507601738,0.024702269583940506,36.7156081,3.1846312,20.04,0.42,0.31,0.0,95,1,0.5314317941665649,0.5314134359359741
2,-0.1959807127714157,0.6268358826637268,-0.025467269122600555,36.7156292,3.1846486,20.01,2.42,1.62,-0.03,95,35,2.9131648540496826,2.9129958152770996
3,-0.1983908861875534,0.5905052423477173,0.007134942803531885,36.7156698,3.1846823,20.05,3.42,2.24,-0.04,95,33,4.092106342315674,4.091897487640381
4,0.03023000806570053,0.5617793202400208,-0.04961980879306793,36.7157236,3.1847255,20.08,3.0,1.85,-0.02,94,32,3.532421350479126,3.532360553741455
5,0.1669473648071289,-0.3628041446208954,-0.3095285892486572,36.7157471,3.1847363,20.08,-0.05,-0.99,0.01,94,339,1.0003410577774048,1.0002706050872803
6,-0.20890992879867554,-1.9293569326400757,-0.08168067038059235,36.7157285,3.1846967,20.11,-2.31,-3.21,-0.03,93,249,3.9607887268066406,3.960646867752075
7,-0.08152735978364944,-2.0689921379089355,0.015432377345860004,36.7156916,3.1846301,20.11,-2.21,-3.34,0.01,93,241,4.011428356170654,4.01141357421875
8,-0.0754510909318924,-1.527875304222107,0.27248331904411316,36.7156744,3.1845759,20.09,0.13,-2.91,0.01,93,272,2.9227118492126465,2.92268967628479
9,-0.4474373161792755,-0.6547536849975586,0.036673761904239655,36.7157124,3.1845177,20.09,4.57,-3.36,0.0,92,322,5.677427768707275,5.677427768707275
10,-0.545709490776062,-0.6255257725715637,0.007986476644873619,36.7157765,3.1844613,20.1,6.72,-4.65,0.0,92,324,8.17625617980957,8.17625617980957
11,-0.4583590626716614,-0.621872067451477,-6.36544355074875e-05,36.7158943,3.184359,20.12,7.91,-5.53,0.0,91,324,9.657816886901855,9.657815933227539
12,-0.38689467310905457,-0.624463677406311,0.014026669785380363,36.7160175,3.1842502,20.15,7.4,-5.28,-0.01,91,324,9.09682846069336,9.096818923950195
13,-0.019141899421811104,-0.6296526193618774,-0.019679639488458633,36.7161054,3.1841722,20.16,5.21,-3.78,0.04,91,323,6.446147918701172,6.445968151092529
14,-0.08447835594415665,-1.3894219398498535,-0.26033198833465576,36.7161537,3.1841101,20.35,0.5,-2.94,-0.33,90,280,3.010084867477417,2.9914021492004395
15,-0.38515016436576843,-2.1352121829986572,-0.08672275394201279,36.7161339,3.184049,21.35,-3.18,-4.63,-0.96,90,237,5.703660011291504,5.620855808258057
16,-0.495281457901001,-2.1633760929107666,0.039958007633686066,36.7160658,3.1839295,23.64,-5.12,-7.34,-1.5,89,236,9.0790376663208,8.952722549438477
17,-0.41575202345848083,-2.1632015705108643,0.01129347924143076,36.7159921,3.1837969,26.07,-5.53,-8.03,-1.6,89,236,9.883918762207031,9.75249195098877
18,-0.46283334493637085,-2.164705276489258,-0.02890831232070923,36.7159167,3.1836588,28.52,-5.54,-8.2,-1.57,88,235,10.030139923095703,9.90495491027832
19,-0.4615377187728882,-2.1642978191375732,0.03961696848273277,36.7158292,3.1834962,31.4,-5.53,-8.25,-1.59,88,236,10.06669807434082,9.939836502075195
20,-0.42404142022132874,-2.161949634552002,-0.0017372891306877136,36.7157546,3.1833568,33.88,-5.52,-8.27,-1.6,88,236,10.079968452453613,9.951865196228027
21,-0.4526166021823883,-2.1632301807403564,-0.04216951131820679,36.7156796,3.1832171,36.36,-5.53,-8.23,-1.61,87,236,10.054733276367188,9.924176216125488
22,-0.4533344507217407,-2.1662557125091553,0.038544416427612305,36.7155921,3.1830544,39.27,-5.49,-8.27,-1.62,87,235,10.065244674682617,9.932701110839844
23,-0.4300406277179718,-2.1639962196350098,-0.0030986585188657045,36.7155177,3.1829148,41.78,-5.49,-8.29,-1.62,86,236,10.084650039672852,9.95343017578125
24,-0.49232175946235657,-2.163447380065918,0.01188025064766407,36.7154309,3.1827517,44.69,-5.53,-8.29,-1.62,86,236,10.101860046386719,9.969676971435547
25,-0.44518575072288513,-2.1663029193878174,0.043167535215616226,36.7153558,3.182612,47.19,-5.55,-8.28,-1.63,85,235,10.104976654052734,9.971280097961426
26,-0.46409285068511963,-2.1650190353393555,-0.02604328654706478,36.7152685,3.1824489,50.12,-5.51,-8.31,-1.62,85,235,10.114709854125977,9.982698440551758
27,-0.485983669757843,-2.1647145748138428,0.024850307032465935,36.7151938,3.1823088,52.62,-5.5,-8.3,-1.63,84,235,10.0946044921875,9.961885452270508
28,-0.4274316728115082,-2.164041757583618,0.030643299221992493,36.7151193,3.1821691,55.12,-5.51,-8.27,-1.64,84,236,10.080034255981445,9.945699691772461
29,-0.22948427498340607,-2.168402671813965,-0.011358116753399372,36.7150374,3.1820174,57.87,-4.56,-6.78,-1.35,83,235,8.284153938293457,8.172843933105469
30,-0.06179278716444969,-2.1590542793273926,0.044416312128305435,36.7149873,3.1819236,59.44,-2.89,-4.44,-0.66,83,236,5.347894191741943,5.306997776031494
31,-0.1642109751701355,-2.100553035736084,0.0112346475943923,36.71495,3.1818473,60.05,-2.08,-3.69,-0.11,83,239,4.282687187194824,4.2796173095703125
32,-0.13396266102790833,-2.08616304397583,0.021595235913991928,36.7149228,3.1817861,60.07,-1.99,-3.69,-0.01,82,240,4.196322917938232,4.196300983428955
33,-0.02625044248998165,-2.08854079246521,-0.026671085506677628,36.714897,3.1817276,60.06,-1.65,-3.03,0.05,82,240,3.460826873779297,3.4603259563446045
34,0.03899810090661049,-2.361776351928711,-0.05554943531751633,36.7148754,3.1816867,58.97,-1.18,-1.27,1.27,82,224,2.1631827354431152,1.7461333274841309
35,-0.05640354007482529,-2.4733874797821045,0.014104314148426056,36.7148607,3.1816713,56.71,-1.03,-0.79,1.44,81,218,1.9459224939346313,1.3017629384994507
36,-0.04459978640079498,-2.469679117202759,-0.019905300810933113,36.7148443,3.1816559,54.09,-1.05,-0.84,1.43,81,218,1.9684545993804932,1.352603793144226
37,-0.03461364284157753,-2.4703660011291504,0.029825657606124878,36.71483,3.1816417,51.86,-1.06,-0.87,1.44,81,218,1.9978433847427368,1.3810635805130005
38,-0.034100960940122604,-2.4700565338134766,-0.022746993228793144,36.7148155,3.1816272,49.62,-1.07,-0.89,1.45,80,218,2.0124399662017822,1.3953773975372314
39,-0.011439990252256393,-2.4693045616149902,0.018425537273287773,36.7147985,3.1816101,46.99,-1.07,-0.87,1.45,80,218,2.0081522464752197,1.3859034776687622
40,-0.059211649000644684,-2.469761848449707,-0.009133715182542801,36.7147839,3.1815955,44.76,-1.06,-0.88,1.46,79,218,2.014113426208496,1.3850822448730469
41,-0.01431536115705967,-2.4700582027435303,-0.0157094094902277,36.7147669,3.1815783,42.14,-1.07,-0.88,1.47,79,218,2.023416519165039,1.3892786502838135
42,-0.05800604075193405,-2.47064208984375,0.020447373390197754,36.7147523,3.1815636,39.89,-1.06,-0.88,1.46,79,218,2.018918037414551,1.3858152627944946
43,-0.010295746847987175,-2.469545364379883,-0.003655048320069909,36.7147377,3.1815489,37.64,-1.07,-0.88,1.46,78,218,2.024029016494751,1.3914190530776978
44,-0.025926880538463593,-2.469886064529419,0.02797936648130417,36.7147207,3.1815317,35.02,-1.06,-0.87,1.47,78,218,2.0237560272216797,1.3805925846099854
45,-0.0377250574529171,-2.469866991043091,-0.020537780597805977,36.7147061,3.1815171,32.77,-1.06,-0.88,1.47,78,218,2.0263376235961914,1.3849520683288574
46,-0.009577271528542042,-2.469935894012451,0.0023787689860910177,36.7146892,3.1814999,30.15,-1.06,-0.87,1.47,77,218,2.0218639373779297,1.381861686706543
47,-0.05682258680462837,-2.4697487354278564,-0.0004961850354447961,36.7146745,3.1814852,27.9,-1.06,-0.88,1.48,77,218,2.0262556076049805,1.3826524019241333
48,-0.009458792395889759,-2.46962308883667,0.01216859370470047,36.7146599,3.1814704,25.65,-1.06,-0.87,1.48,77,218,2.019848585128784,1.3730796575546265
49,-0.05608111992478371,-2.4697530269622803,-0.017313556745648384,36.7146453,3.1814558,23.39,-1.06,-0.87,1.47,76,218,2.0205790996551514,1.3794386386871338
50,-0.10442811250686646,-3.059443235397339,-0.1286097913980484,36.7146248,3.1814418,20.87,-1.81,-0.22,1.16,76,184,2.1704611778259277,1.8325968980789185
51,-0.20267310738563538,2.6768453121185303,0.0084540955722332,36.7145817,3.1814583,20.09,-3.57,1.74,-0.06,75,153,3.982255697250366,3.9817938804626465
52,-0.1746433526277542,2.6801812648773193,-0.027777593582868576,36.7145282,3.1814911,20.18,-4.07,2.04,0.01,75,153,4.557506084442139,4.55747127532959
53,-0.022682052105665207,2.9470174312591553,0.20207597315311432,36.7144749,3.1815187,20.13,-3.61,0.71,0.05,75,168,3.6823768615722656,3.6820285320281982
54,-0.41242003440856934,-2.205148458480835,0.10801033675670624,36.7144249,3.1814918,20.11,-3.0,-3.73,0.01,74,233,4.794992923736572,4.794960975646973
55,-0.46414878964424133,-2.144155502319336,0.032162073999643326,36.7143775,3.1814029,20.11,-4.16,-6.61,0.0,74,237,7.813399791717529,7.813395977020264
56,-0.4834233522415161,-2.1498589515686035,-0.016458837315440178,36.7143042,3.1812585,20.12,-4.93,-7.73,0.0,73,236,9.177953720092773,9.177953720092773
57,-0.32904455065727234,-2.1527345180511475,0.029368441551923752,36.7142378,3.1811299,20.14,-4.68,-7.21,0.0,73,236,8.600419044494629,8.600415229797363
58,-0.26787644624710083,-2.144383192062378,-0.007942568510770798,36.7141712,3.1810009,20.13,-3.72,-5.89,0.03,73,237,6.975020408630371,6.974939346313477
59,-0.2698836326599121,-2.1194074153900146,0.039456918835639954,36.7141237,3.1809042,20.11,-3.38,-5.67,0.01,72,238,6.609860897064209,6.609851360321045
60,-0.267873078584671,-2.108470916748047,-0.019967922940850258,36.7140788,3.180809,20.11,-3.29,-5.64,0.0,72,239,6.53272008895874,6.53271484375
61,-0.14474055171012878,-2.1084485054016113,0.029258470982313156,36.7140274,3.1806993,20.12,-3.02,-5.19,0.0,71,239,6.015278339385986,6.015277862548828
62,0.13177300989627838,-2.1091506481170654,-0.02666422352194786,36.7139939,3.1806279,20.09,-1.71,-2.93,0.03,71,239,3.403677463531494,3.4034667015075684
63,0.12402280420064926,-2.1085097789764404,0.0034859131556004286,36.7139811,3.1806003,20.1,-0.11,-0.21,-0.01,71,239,0.24647393822669983,0.24589186906814575
64,-0.029993455857038498,-2.1107590198516846,0.04913076385855675,36.713982,3.1806016,20.08,0.2,0.07,0.04,70,239,0.2226252555847168,0.21884523332118988
