timestamp,pitch,yaw,roll,lat,lon,alt,velocity_x,velocity_y,velocity_z,battery,heading,airspeed,groundspeed
0,-0.022576339542865753,0.038051143288612366,0.009560617618262768,36.7156066,3.18463,16.61,-0.02,0.03,-0.05,96,2,0.06684698909521103,0.038583848625421524
1,0.0033867950551211834,0.052161458879709244,0.11826618760824203,36.7156069,3.1846332,16.68,0.05,0.72,-0.01,95,2,0.7235564589500427,0.7234504222869873
2,-0.25791239738464355,1.8263380527496338,-0.0662306696176529,36.71561,3.1846634,16.64,0.36,3.08,0.0,95,104,3.11126971244812,3.1112582683563232
3,-0.20151029527187347,1.2630366086959839,0.030759908258914948,36.7156177,3.1847419,16.67,0.54,4.52,-0.02,95,72,4.562116622924805,4.562068939208984
4,-0.0002430253371130675,1.4157581329345703,0.010006796568632126,36.7156255,3.1848169,16.67,0.53,4.07,0.0,94,81,4.108940124511719,4.1089372634887695
5,0.11897443234920502,2.4301955699920654,0.37437665462493896,36.7156249,3.1848605,16.65,-1.0,-0.41,0.01,94,139,1.0861248970031738,1.0860415697097778
6,-0.20761559903621674,-2.2940056324005127,-0.005513938143849373,36.7156015,3.1848241,16.68,-2.2,-3.28,-0.03,93,228,3.9588253498077393,3.9586899280548096
7,-0.087967649102211,-2.236140251159668,0.026415370404720306,36.7155658,3.184757,16.69,-2.13,-3.4,0.01,93,231,4.013078212738037,4.01304817199707
8,-0.06404789537191391,-1.5767816305160522,0.2771916091442108,36.7155492,3.1847026,16.66,0.1,-2.95,0.01,93,269,2.952373504638672,2.9523398876190186
9,-0.3920157253742218,-0.6580350399017334,0.05940797179937363,36.7155768,3.1846537,16.66,3.95,-3.15,0.0,92,322,5.0559797286987305,5.055978775024414
10,-0.4979759156703949,-0.6271182894706726,0.04695823788642883,36.7156655,3.1845754,16.66,6.99,-4.81,-0.01,92,324,8.490347862243652,8.490339279174805
11,-0.4639579951763153,-0.6179404854774475,-0.022587833926081657,36.7157679,3.1844872,16.68,7.87,-5.49,0.0,91,324,9.603490829467773,9.603486061096191
12,-0.3873215317726135,-0.6202804446220398,0.026215001940727234,36.7158911,3.1843792,16.71,7.49,-5.3,-0.02,91,324,9.183965682983398,9.183944702148438
13,-0.02419511415064335,-0.6252095103263855,-0.028612395748496056,36.7159807,3.1843001,16.72,5.37,-3.86,0.04,91,324,6.614455223083496,6.614326000213623
14,0.01547892764210701,-1.0940101146697998,-0.2399534434080124,36.7160294,3.1842455,16.82,1.44,-2.87,-0.22,90,297,3.230304002761841,3.2223525047302246
15,-0.40979933738708496,-2.131657600402832,-0.1007055938243866,36.7160143,3.1841779,17.85,-3.07,-4.51,-0.94,90,237,5.54386043548584,5.462990760803223
16,-0.49467089772224426,-2.159470558166504,0.03146848827600479,36.7159586,3.1840803,19.71,-4.87,-6.97,-1.45,89,236,8.633988380432129,8.510043144226074
17,-0.4240470826625824,-2.164393186569214,-0.019179074093699455,36.7158738,3.1839284,22.52,-5.52,-8.03,-1.61,89,235,9.88785171508789,9.755619049072266
18,-0.49885353446006775,-2.1640682220458984,-9.770677934284322e-06,36.7157987,3.1837907,24.97,-5.53,-8.2,-1.58,88,236,10.021561622619629,9.8961820602417
19,-0.4615081250667572,-2.163925886154175,0.03774631768465042,36.7157234,3.1836512,27.44,-5.54,-8.26,-1.6,88,236,10.07508373260498,9.94666862487793
20,-0.46042561531066895,-2.16471266746521,-0.030325869098305702,36.7156362,3.1834886,30.33,-5.5,-8.24,-1.6,88,235,10.042613983154297,9.913636207580566
21,-0.5007315278053284,-2.164916753768921,0.014391581527888775,36.7155617,3.1833493,32.82,-5.52,-8.28,-1.61,87,235,10.089093208312988,9.959598541259766
22,-0.4250212013721466,-2.163273811340332,-0.010694721713662148,36.7154743,3.1831861,35.72,-5.53,-8.28,-1.63,87,236,10.096165657043457,9.963338851928711
23,-0.47851887345314026,-2.164152145385742,-0.018553288653492928,36.7153993,3.1830464,38.23,-5.51,-8.27,-1.63,86,236,10.070772171020508,9.937723159790039
24,-0.47833094000816345,-2.1640825271606445,0.0309826098382473,36.7153247,3.1829067,40.73,-5.48,-8.27,-1.62,86,236,10.062204360961914,9.929641723632812
25,-0.4403957426548004,-2.165894031524658,-0.019373124465346336,36.715238,3.1827442,43.64,-5.54,-8.32,-1.63,85,235,10.138253211975098,10.00485897064209
26,-0.4872014820575714,-2.1647043228149414,-0.00641793105751276,36.7151629,3.1826039,46.15,-5.53,-8.3,-1.63,85,235,10.11379623413086,9.980027198791504
27,-0.42846593260765076,-2.1643946170806885,0.018904244527220726,36.7150755,3.1824407,49.07,-5.51,-8.29,-1.64,84,235,10.093128204345703,9.958864212036133
28,-0.4479415714740753,-2.1625313758850098,-0.03351151943206787,36.7150009,3.1823009,51.58,-5.5,-8.28,-1.63,84,236,10.082229614257812,9.948760032653809
29,-0.2970966696739197,-2.1682968139648438,0.01567765511572361,36.7149294,3.1821681,53.98,-4.86,-7.21,-1.45,84,235,8.82397174835205,8.703645706176758
30,-0.047966938465833664,-2.161210536956787,-0.012694833800196648,36.7148675,3.1820526,55.96,-2.97,-4.53,-0.69,83,236,5.465109348297119,5.4209489822387695
31,-0.15797074139118195,-2.119941234588623,0.037809018045663834,36.714834,3.1819859,56.58,-2.2,-3.7,-0.17,83,238,4.31381368637085,4.310298919677734
32,-0.17303790152072906,-2.101149797439575,-0.018698442727327347,36.7148008,3.1819142,56.64,-2.07,-3.68,0.0,82,239,4.223299503326416,4.223288059234619
33,0.0010651013581082225,-2.102884531021118,0.019915221258997917,36.7147738,3.1818554,56.63,-1.74,-3.07,0.03,82,239,3.5388948917388916,3.5386734008789062
34,-0.005198065657168627,-2.3451616764068604,-0.030827561393380165,36.7147515,3.1818134,55.66,-1.18,-1.32,1.22,82,225,2.159447431564331,1.7803237438201904
35,-0.007226663175970316,-2.476836681365967,-0.005791009403765202,36.7147367,3.1817975,53.41,-1.04,-0.8,1.45,81,218,1.9631295204162598,1.3169018030166626
36,-0.06271962821483612,-2.4722819328308105,0.006911209784448147,36.7147227,3.1817843,51.17,-1.03,-0.82,1.43,81,218,1.950365424156189,1.3262193202972412
37,-0.03778529539704323,-2.47040057182312,-0.024266507476568222,36.714706,3.181768,48.55,-1.06,-0.88,1.43,81,218,1.9927324056625366,1.381700873374939
38,-0.036029741168022156,-2.4701361656188965,0.02780403569340706,36.7146915,3.1817535,46.32,-1.06,-0.88,1.44,80,218,2.0026402473449707,1.3816585540771484
39,-0.03305710852146149,-2.4698939323425293,-0.024858059361577034,36.7146769,3.1817388,44.07,-1.07,-0.89,1.45,80,218,2.019630193710327,1.3965094089508057
40,-0.03958842530846596,-2.469902276992798,0.029651230201125145,36.7146623,3.1817241,41.82,-1.06,-0.88,1.46,80,218,2.008113384246826,1.3786754608154297
41,-0.06178014725446701,-2.469804286956787,-0.008754902519285679,36.7146454,3.181707,39.21,-1.06,-0.88,1.46,79,218,2.0195868015289307,1.3891699314117432
42,-0.02293427847325802,-2.47041392326355,-0.023414114490151405,36.7146283,3.1816899,36.59,-1.07,-0.89,1.47,79,218,2.0360801219940186,1.4009628295898438
43,-0.05488782748579979,-2.4697861671447754,0.019856130704283714,36.7146137,3.1816752,34.34,-1.05,-0.88,1.47,78,218,2.0210132598876953,1.3815457820892334
44,-0.05966303497552872,-2.469608783721924,-0.013673823326826096,36.7145967,3.181658,31.72,-1.06,-0.88,1.47,78,218,2.025219678878784,1.3887220621109009
45,-0.017053350806236267,-2.469675302505493,0.019019778817892075,36.7145822,3.1816433,29.47,-1.06,-0.88,1.48,78,218,2.029245615005493,1.3863908052444458
46,-0.05207710713148117,-2.469980239868164,-0.019500412046909332,36.7145675,3.1816286,27.22,-1.06,-0.89,1.48,77,218,2.0289602279663086,1.3878843784332275
47,-0.0150041738525033,-2.4698240756988525,-0.015660231932997704,36.7145506,3.1816115,24.6,-1.07,-0.88,1.47,77,218,2.0268173217773438,1.387463927268982
48,-0.05715491250157356,-2.4700207710266113,0.017796779051423073,36.714536,3.1815967,22.35,-1.05,-0.88,1.47,77,218,2.023181915283203,1.380554437637329
49,-0.047323524951934814,-2.4698565006256104,-0.02099243924021721,36.7145189,3.1815796,19.72,-1.06,-0.88,1.47,76,218,2.0223073959350586,1.3828989267349243
50,-0.10176464170217514,-3.006460666656494,-0.07819297164678574,36.7145013,3.1815675,17.54,-1.73,-0.3,1.21,76,187,2.139975070953369,1.7633978128433228
51,-0.24615299701690674,2.6691207885742188,-0.057766251266002655,36.7144675,3.1815781,16.65,-3.3,1.55,0.01,75,152,3.653712034225464,3.653683662414551
52,-0.13980445265769958,2.671999931335449,-0.005735926330089569,36.7144072,3.1816154,16.75,-4.01,2.04,0.01,75,153,4.505406379699707,4.5053935050964355
53,-0.0559304915368557,2.916274309158325,0.17270773649215698,36.7143543,3.1816438,16.7,-3.6,0.79,0.05,75,167,3.6963438987731934,3.6959035396575928
54,-0.3797922134399414,-2.2042605876922607,0.08680184185504913,36.7143045,3.181619,16.68,-2.98,-3.62,0.01,74,233,4.699626922607422,4.699591159820557
55,-0.5040801167488098,-2.144045829772949,0.03059147670865059,36.7142574,3.1815312,16.68,-4.13,-6.55,0.01,74,237,7.753711223602295,7.753701686859131
56,-0.44116371870040894,-2.147026538848877,0.008470420725643635,36.7141954,3.181409,16.69,-4.88,-7.68,0.0,73,236,9.103723526000977,9.103723526000977
57,-0.3680015504360199,-2.1521992683410645,0.009678466245532036,36.7141181,3.181259,16.71,-4.7,-7.26,0.0,73,236,8.65482234954834,8.65481948852539
58,-0.2125241458415985,-2.1464121341705322,0.024283330887556076,36.7140597,3.1811461,16.71,-3.88,-6.09,0.02,73,237,7.229392051696777,7.229343414306641
59,-0.29412198066711426,-2.121368646621704,0.028147365897893906,36.7140031,3.181032,16.68,-3.38,-5.67,0.01,72,238,6.606527805328369,6.606518268585205
60,-0.2553391456604004,-2.107844591140747,0.0041254619136452675,36.7139584,3.1809371,16.68,-3.27,-5.62,0.0,72,239,6.508192539215088,6.508187770843506
61,-0.2248908281326294,-2.108550786972046,-0.0077498555183410645,36.7139141,3.1808425,16.68,-3.15,-5.44,0.0,72,239,6.290940761566162,6.290940761566162
62,0.15284186601638794,-2.109229803085327,-0.025098245590925217,36.7138729,3.1807545,16.66,-1.77,-3.02,0.03,71,239,3.508517026901245,3.5083043575286865
63,0.0979626476764679,-2.1091365814208984,0.020363597199320793,36.71386,3.1807268,16.67,-0.27,-0.48,-0.02,71,239,0.558807373046875,0.5583624243736267
64,-0.019277049228549004,-2.110037088394165,0.026928864419460297,36.7138603,3.180727,16.65,0.18,0.08,0.04,70,239,0.20466357469558716,0.20020610094070435
