timestamp,pitch,yaw,roll,lat,lon,alt,velocity_x,velocity_y,velocity_z,battery,heading,airspeed,groundspeed
0,-0.027631815522909164,0.0415436290204525,-0.001528430380858481,36.7156063,3.1846302,11.49,0.01,0.0,-0.61,98,2,0.6126718521118164,0.01625463366508484
1,-0.06720035523176193,0.04622568562626839,0.08317805081605911,36.7156082,3.1846321,11.93,0.51,0.42,-0.11,97,2,0.6709182858467102,0.6613510847091675
2,-0.21478299796581268,0.9226981997489929,-0.00743382191285491,36.7156254,3.1846495,12.0,2.03,1.73,0.01,97,52,2.672544479370117,2.6725051403045654
3,-0.1399393230676651,0.7195069193840027,-0.0204477496445179,36.7156639,3.1846906,11.89,2.6,2.23,0.06,97,41,3.4370062351226807,3.4363489151000977
4,0.23943616449832916,0.5571256279945374,-0.04943140596151352,36.7156943,3.1847205,11.77,1.37,0.81,0.03,96,31,1.5995864868164062,1.5991872549057007
5,-0.1477312445640564,-1.2886013984680176,-0.17894314229488373,36.7156881,3.1846966,11.77,-1.93,-2.89,-0.01,96,286,3.484464168548584,3.4844491481781006
6,-0.14886638522148132,-2.4192934036254883,-0.00292658107355237,36.7156579,3.1846416,11.75,-2.35,-3.39,-0.07,95,221,4.13150691986084,4.130763530731201
7,-0.007227839902043343,-1.9954580068588257,0.16573932766914368,36.7156304,3.1845849,11.76,-1.31,-3.16,0.03,95,245,3.4227960109710693,3.42261004447937
8,-0.3854428827762604,-0.6976967453956604,0.13847194612026215,36.715641,3.184527,11.73,2.96,-2.9,0.0,95,320,4.147183895111084,4.147178649902344
9,-0.4651086926460266,-0.6066787242889404,0.012396401725709438,36.7157034,3.1844687,11.73,6.1,-4.22,0.0,94,325,7.427147388458252,7.427146911621094
10,-0.5339347720146179,-0.6171104311943054,0.010646813549101353,36.7158152,3.1843723,11.75,7.78,-5.37,0.0,94,324,9.459992408752441,9.459990501403809
11,-0.43473801016807556,-0.6180896759033203,0.02502271719276905,36.7159217,3.1842794,11.77,7.85,-5.52,0.0,93,324,9.60566234588623,9.605660438537598
12,-0.21142752468585968,-0.6218517422676086,-0.027489375323057175,36.7160212,3.1841918,11.81,6.54,-4.64,0.0,93,324,8.026565551757812,8.026564598083496
13,0.11072972416877747,-0.8432724475860596,-0.16507723927497864,36.716098,3.184119,11.83,2.71,-2.99,-0.09,93,311,4.042063236236572,4.040936470031738
14,-0.35958582162857056,-2.050725221633911,-0.14496773481369019,36.7161053,3.1840676,12.39,-1.63,-3.6,-0.64,92,242,4.007742881774902,3.9550492763519287
15,-0.4493606984615326,-2.1795055866241455,0.040487729012966156,36.7160634,3.183989,13.87,-4.25,-5.97,-1.26,92,235,7.441636562347412,7.333673000335693
16,-0.5023134350776672,-2.167726993560791,-0.008684800006449223,36.7159841,3.1838485,16.49,-5.45,-7.87,-1.6,91,235,9.71491527557373,9.581740379333496
17,-0.4276854693889618,-2.1669650077819824,0.029390841722488403,36.7158962,3.1836889,19.37,-5.53,-8.14,-1.58,91,235,9.940569877624512,9.812750816345215
18,-0.4456797242164612,-2.163457155227661,-0.02570521831512451,36.7158213,3.1835499,21.83,-5.54,-8.28,-1.59,90,236,10.094085693359375,9.967924118041992
19,-0.4953363835811615,-2.1645560264587402,0.0054748086258769035,36.7157465,3.1834102,24.31,-5.54,-8.27,-1.59,90,235,10.088607788085938,9.961945533752441
20,-0.42592811584472656,-2.1633193492889404,0.012191656045615673,36.7156589,3.1832474,27.21,-5.51,-8.23,-1.6,89,236,10.041420936584473,9.911725044250488
21,-0.467852920293808,-2.1630287170410156,-0.030293915420770645,36.7155845,3.1831082,29.7,-5.51,-8.27,-1.61,89,236,10.076933860778809,9.946934700012207
22,-0.46553322672843933,-2.16453218460083,0.043908361345529556,36.7154971,3.182945,32.61,-5.53,-8.29,-1.62,89,235,10.104057312011719,9.972219467163086
23,-0.42449691891670227,-2.164687156677246,-0.009696674533188343,36.7154223,3.1828051,35.12,-5.5,-8.28,-1.62,88,235,10.075027465820312,9.942461013793945
24,-0.48336008191108704,-2.1652421951293945,-0.024898113682866096,36.7153479,3.1826659,37.61,-5.51,-8.29,-1.62,88,235,10.090863227844238,9.958952903747559
25,-0.4343441128730774,-2.1638362407684326,0.03520752489566803,36.7152604,3.1825021,40.53,-5.52,-8.29,-1.65,87,236,10.10047721862793,9.964790344238281
26,-0.4244135320186615,-2.1641268730163574,-0.022228021174669266,36.7151856,3.1823622,43.03,-5.53,-8.25,-1.64,87,236,10.071300506591797,9.935989379882812
27,-0.4812820851802826,-2.1658284664154053,0.0321548655629158,36.7150984,3.1821995,45.96,-5.51,-8.3,-1.63,86,235,10.104969024658203,9.971091270446777
28,-0.3820038139820099,-2.164694309234619,0.03129511699080467,36.715037,3.1820844,48.03,-5.29,-7.89,-1.56,86,235,9.632984161376953,9.504220008850098
29,-0.09628357738256454,-2.1676230430603027,-0.016719788312911987,36.7149643,3.1819495,50.46,-3.66,-5.45,-1.01,85,235,6.649702072143555,6.571292400360107
30,-0.1065123900771141,-2.1328423023223877,0.013613281771540642,36.7149192,3.1818629,51.57,-2.3,-3.75,-0.28,85,237,4.412402629852295,4.403395652770996
31,-0.17077356576919556,-2.1038825511932373,-0.001160606974735856,36.71489,3.1818008,51.73,-2.07,-3.66,-0.01,85,239,4.207917213439941,4.20788049697876
32,-0.0469735823571682,-2.1029629707336426,-0.023651650175452232,36.7148575,3.1817301,51.72,-1.93,-3.42,-0.02,84,239,3.9338021278381348,3.9337000846862793
33,0.0303928405046463,-2.190851926803589,-0.02233380638062954,36.7148358,3.1816847,51.38,-1.28,-1.87,0.63,84,234,2.360361337661743,2.272061347961426
34,0.020533625036478043,-2.4751198291778564,-0.03859208896756172,36.7148197,3.1816631,49.52,-1.07,-0.88,1.5,84,218,2.0491809844970703,1.3920626640319824
35,-0.021109186112880707,-2.4704365730285645,0.02922510914504528,36.7148033,3.1816476,46.87,-1.03,-0.81,1.42,83,218,1.943353533744812,1.3185828924179077
36,-0.05596696212887764,-2.469583511352539,-0.01654665730893612,36.7147892,3.1816339,44.63,-1.05,-0.87,1.43,83,218,1.9842582941055298,1.3654197454452515
37,-0.016764650121331215,-2.4694557189941406,-0.011692878790199757,36.7147723,3.1816171,42.01,-1.07,-0.88,1.44,82,218,2.008031129837036,1.3951995372772217
38,-0.05818800628185272,-2.4699807167053223,0.013936439529061317,36.7147578,3.1816024,39.77,-1.06,-0.88,1.45,82,218,2.008796453475952,1.3893964290618896
39,-0.010000192560255527,-2.469092607498169,-0.0027975935954600573,36.7147432,3.1815878,37.53,-1.07,-0.88,1.45,82,218,2.015570878982544,1.391102910041809
40,-0.029756715521216393,-2.4692866802215576,0.027297992259263992,36.7147262,3.1815707,34.91,-1.06,-0.88,1.46,81,218,2.017801284790039,1.3854507207870483
41,-0.040172602981328964,-2.469428539276123,-0.022810179740190506,36.7147116,3.181556,32.67,-1.07,-0.89,1.47,81,218,2.0301122665405273,1.3956717252731323
42,-0.009160016663372517,-2.469593048095703,0.0020315246656537056,36.7146946,3.1815388,30.05,-1.07,-0.88,1.48,81,218,2.0313172340393066,1.3883237838745117
43,-0.0606827586889267,-2.469641923904419,0.002305596601217985,36.71468,3.181524,27.8,-1.06,-0.89,1.48,80,218,2.030668020248413,1.389195203781128
44,-0.008681166917085648,-2.46932053565979,0.0074010626412928104,36.7146654,3.1815094,25.55,-1.07,-0.88,1.47,80,218,2.0322883129119873,1.3933945894241333
45,-0.040630023926496506,-2.4697787761688232,0.026905206963419914,36.7146484,3.1814921,22.92,-1.06,-0.88,1.47,80,218,2.024470090866089,1.3840086460113525
46,-0.025015275925397873,-2.469900131225586,-0.02339908666908741,36.7146338,3.1814774,20.67,-1.06,-0.88,1.47,79,218,2.0227603912353516,1.3825606107711792
47,-0.0093685332685709,-2.4696953296661377,0.015521625056862831,36.7146168,3.1814603,18.04,-1.07,-0.88,1.47,79,218,2.024353504180908,1.3893637657165527
48,-0.05132675915956497,-2.469082832336426,-0.01786968670785427,36.7146022,3.1814455,15.79,-1.06,-0.89,1.47,79,218,2.022576093673706,1.3863258361816406
49,-0.04435626417398453,-2.594669818878174,-0.050480395555496216,36.7145872,3.1814311,13.55,-1.28,-0.75,1.45,78,211,2.083580493927002,1.487101435661316
50,-0.2557394206523895,2.7118797302246094,-0.03541169688105583,36.7145559,3.1814312,11.78,-2.87,1.12,0.25,78,155,3.098830461502075,3.0886354446411133
51,-0.1740512251853943,2.6710257530212402,-0.023421891033649445,36.714508,3.1814597,11.8,-3.95,1.99,-0.07,77,153,4.4267802238464355,4.4262166023254395
52,-0.04928486421704292,2.7714269161224365,0.13482874631881714,36.7144451,3.1814977,11.8,-3.8,1.43,0.06,77,158,4.066241264343262,4.065701961517334
53,-0.263488233089447,-2.5630664825439453,0.21815550327301025,36.714399,3.1814984,11.76,-2.97,-1.82,0.03,77,213,3.4923765659332275,3.492238759994507
54,-0.4482259452342987,-2.1520566940307617,0.010317168198525906,36.7143484,3.18142,11.76,-3.79,-5.95,0.02,76,236,7.065683364868164,7.065644264221191
55,-0.4986945688724518,-2.155923843383789,-0.02353259176015854,36.7142892,3.1813044,11.77,-4.79,-7.52,0.0,76,236,8.925925254821777,8.925923347473145
56,-0.4281356930732727,-2.1552374362945557,0.0258089117705822,36.7142225,3.1811753,11.78,-4.97,-7.66,0.0,75,236,9.143112182617188,9.143111228942871
57,-0.2629496455192566,-2.1551265716552734,-0.015354429371654987,36.7141491,3.1810354,11.79,-4.19,-6.41,0.02,75,236,7.664290904998779,7.664252758026123
58,-0.2838650345802307,-2.130411148071289,0.04598205164074898,36.7140982,3.1809352,11.77,-3.46,-5.68,0.02,75,237,6.662289619445801,6.662235736846924
59,-0.29560163617134094,-2.102670192718506,-0.013021005317568779,36.7140457,3.1808239,11.76,-3.22,-5.62,0.0,74,239,6.485563278198242,6.48555850982666
60,-0.2432626336812973,-2.1003990173339844,0.03183113783597946,36.714002,3.1807285,11.76,-3.19,-5.62,0.0,74,239,6.466226100921631,6.466225624084473
61,0.0002927471650764346,-2.100449323654175,-0.02410387434065342,36.7139624,3.1806424,11.76,-2.45,-4.29,0.02,73,239,4.945521354675293,4.9454779624938965
62,0.17033931612968445,-2.100498914718628,0.00708315335214138,36.7139385,3.1805902,11.74,-0.58,-1.03,-0.01,73,239,1.1912041902542114,1.1910572052001953
63,-0.006121916230767965,-2.1004514694213867,-0.008399545215070248,36.7139364,3.1805854,11.75,0.1,0.14,0.01,73,239,0.18120254576206207,0.1808777004480362
