timestamp,pitch,yaw,roll,lat,lon,alt,velocity_x,velocity_y,velocity_z,battery,heading,airspeed,groundspeed
0,-0.014797965064644814,0.03999742120504379,-0.01583794131875038,36.7156066,3.1846301,24.88,-0.02,0.02,-0.09,96,2,0.10267867892980576,0.030899520963430405
1,-0.042170532047748566,0.03464013338088989,0.09729527682065964,36.715608,3.1846319,24.93,0.33,0.45,-0.06,95,1,0.5708599090576172,0.5668380856513977
2,-0.2552652955055237,1.2391183376312256,-0.0736914724111557,36.7156205,3.1846506,24.95,1.62,2.02,-0.04,95,70,2.594575881958008,2.594187021255493
3,-0.19786591827869415,0.8906745314598083,-0.027455275878310204,36.7156563,3.1847052,24.97,2.69,3.26,-0.03,95,51,4.229647159576416,4.229538917541504
4,-0.060925137251615524,0.865211009979248,0.02131224051117897,36.7156935,3.1847604,24.98,2.61,3.1,-0.01,94,49,4.05892276763916,4.058890342712402
5,0.3175211548805237,0.5536605715751648,-0.10839320719242096,36.7157196,3.1847959,25.0,0.06,-0.23,-0.04,94,31,0.2524695098400116,0.24799442291259766
6,-0.05210643261671066,-1.0312739610671997,-0.21208949387073517,36.7157036,3.184764,25.0,-2.07,-3.01,0.05,93,300,3.660724639892578,3.6602978706359863
7,-0.09035652875900269,-2.405914068222046,0.05035202577710152,36.7156682,3.1847001,25.03,-2.25,-3.28,-0.03,93,222,3.985734224319458,3.985600233078003
8,-0.031562257558107376,-1.813226342201233,0.17347261309623718,36.7156464,3.1846459,25.0,-0.6,-3.0,0.03,93,256,3.062908172607422,3.0626604557037354
9,-0.33005374670028687,-0.6693580746650696,0.10719572007656097,36.715663,3.1845978,24.98,3.16,-2.92,0.0,92,321,4.307997226715088,4.307994842529297
10,-0.5110586285591125,-0.6086922287940979,-0.02112622559070587,36.7157274,3.1845385,24.98,6.17,-4.3,0.0,92,325,7.5243730545043945,7.524369716644287
11,-0.4822699725627899,-0.6136149764060974,0.01247014943510294,36.7158401,3.1844415,25.0,7.81,-5.4,0.0,91,324,9.503921508789062,9.503920555114746
12,-0.4430392384529114,-0.6194371581077576,-0.005207109730690718,36.7159643,3.1843328,25.02,7.69,-5.45,-0.01,91,324,9.428608894348145,9.42859935760498
13,-0.1123151034116745,-0.6214276552200317,0.028360659256577492,36.7160594,3.1842487,25.06,5.98,-4.24,0.02,91,324,7.338515758514404,7.338457107543945
14,0.059497952461242676,-0.8724290728569031,-0.21854354441165924,36.7161192,3.1841902,25.08,2.46,-2.93,-0.11,90,310,3.8347930908203125,3.833078145980835
15,-0.33439478278160095,-2.126481056213379,-0.10249663144350052,36.7161185,3.1841279,25.87,-2.38,-4.02,-0.79,90,238,4.752316951751709,4.685166358947754
16,-0.5080080628395081,-2.171933174133301,0.0028848673682659864,36.7160691,3.1840398,27.55,-4.59,-6.49,-1.35,89,235,8.0712308883667,7.9562859535217285
17,-0.4261595606803894,-2.162553310394287,0.008765011094510555,36.7159869,3.183893,30.28,-5.49,-7.98,-1.61,89,236,9.828514099121094,9.695633888244629
18,-0.4703410267829895,-2.164626121520996,-0.025098292157053947,36.7159119,3.1837561,32.75,-5.53,-8.19,-1.57,88,235,10.014625549316406,9.89019775390625
19,-0.49216681718826294,-2.1628637313842773,0.009626828134059906,36.7158368,3.1836164,35.2,-5.55,-8.26,-1.58,88,236,10.08039665222168,9.955127716064453
20,-0.4234062731266022,-2.1658787727355957,-0.007954536937177181,36.7157491,3.1834536,38.1,-5.54,-8.24,-1.59,87,235,10.065505981445312,9.938108444213867
21,-0.46827995777130127,-2.163618803024292,-0.03017588146030903,36.7156745,3.1833145,40.57,-5.49,-8.26,-1.6,87,236,10.05639934539795,9.92716121673584
22,-0.4391744136810303,-2.1636152267456055,0.027623217552900314,36.7155873,3.1831517,43.48,-5.51,-8.27,-1.62,87,236,10.080194473266602,9.948352813720703
23,-0.43094462156295776,-2.1629040241241455,0.02592519298195839,36.7155249,3.1830351,45.57,-5.51,-8.28,-1.62,86,236,10.083696365356445,9.9518461227417
24,-0.4917604625225067,-2.1653008460998535,-0.011736643500626087,36.7154381,3.1828726,48.48,-5.51,-8.28,-1.62,86,235,10.078475952148438,9.946918487548828
25,-0.4272506535053253,-2.164886236190796,0.021955624222755432,36.7153507,3.1827092,51.39,-5.53,-8.33,-1.64,85,235,10.140862464904785,10.007250785827637
26,-0.4438296854496002,-2.1640992164611816,-0.02686045505106449,36.7152757,3.1825689,53.91,-5.5,-8.27,-1.63,85,236,10.076281547546387,9.943267822265625
27,-0.46305206418037415,-2.1656434535980225,0.04586214944720268,36.7151885,3.1824062,56.83,-5.49,-8.27,-1.63,84,235,10.06916618347168,9.936145782470703
28,-0.43014833331108093,-2.1628518104553223,0.002777540124952793,36.7151144,3.1822668,59.32,-5.53,-8.32,-1.64,84,236,10.133797645568848,9.999824523925781
29,-0.33136898279190063,-2.1677844524383545,-0.023107388988137245,36.7150408,3.1821298,61.79,-5.15,-7.6,-1.51,83,235,9.310589790344238,9.1865816116333
30,-0.052658312022686005,-2.1652841567993164,0.02931354008615017,36.7149731,3.1820043,64.01,-3.29,-4.95,-0.84,83,235,6.00870418548584,5.9485273361206055
31,-0.16050469875335693,-2.131031036376953,-0.0023298657033592463,36.7149369,3.1819337,64.82,-2.27,-3.72,-0.26,83,237,4.3719635009765625,4.36391544342041
32,-0.12636657059192657,-2.1025161743164062,-0.007520934101194143,36.7149031,3.1818618,64.97,-2.07,-3.67,0.0,82,239,4.218940734863281,4.218934059143066
33,-0.07301989197731018,-2.10357928276062,0.013319101184606552,36.7148755,3.1818013,64.96,-1.89,-3.36,-0.02,82,239,3.867943525314331,3.8678627014160156
34,0.06733353435993195,-2.2069618701934814,-0.044701769948005676,36.7148542,3.1817572,64.57,-1.27,-1.81,0.7,82,233,2.327237129211426,2.216627359390259
35,-0.020501617342233658,-2.4862771034240723,0.02367938496172428,36.7148359,3.1817341,62.25,-1.03,-0.81,1.48,81,217,1.9797775745391846,1.3115990161895752
36,-0.03781579062342644,-2.4718315601348877,-0.02218441478908062,36.7148218,3.1817209,59.99,-1.04,-0.82,1.42,81,218,1.9478516578674316,1.330871343612671
37,-0.01048638392239809,-2.470043182373047,0.008373823016881943,36.7148053,3.1817048,57.38,-1.06,-0.86,1.43,80,218,1.988822102546692,1.371840476989746
38,-0.06507334858179092,-2.469511032104492,-0.007322445046156645,36.7147908,3.1816903,55.14,-1.07,-0.89,1.44,80,218,2.0097405910491943,1.395823359489441
39,-0.011624442413449287,-2.469289779663086,0.009876742027699947,36.7147763,3.1816756,52.89,-1.07,-0.87,1.44,80,218,2.003553628921509,1.3846443891525269
40,-0.045304037630558014,-2.469984531402588,0.02485467866063118,36.7147593,3.1816585,50.27,-1.06,-0.87,1.45,79,218,2.0054354667663574,1.3803257942199707
41,-0.019926073029637337,-2.4698774814605713,-0.01930255815386772,36.7147447,3.181644,48.04,-1.08,-0.89,1.47,79,218,2.0330569744110107,1.4043244123458862
42,-0.01362219825387001,-2.469529867172241,0.018546897917985916,36.7147276,3.1816267,45.41,-1.06,-0.88,1.46,79,218,2.0212080478668213,1.3878902196884155
43,-0.05001724883913994,-2.469075918197632,-0.02157512865960598,36.714713,3.181612,43.17,-1.07,-0.89,1.47,78,218,2.025883197784424,1.3929280042648315
44,-0.014602410607039928,-2.4695279598236084,-0.014270913787186146,36.7146961,3.1815949,40.55,-1.07,-0.88,1.47,78,218,2.0288727283477783,1.3898587226867676
45,-0.06105561926960945,-2.469820737838745,0.01582818664610386,36.7146815,3.1815801,38.3,-1.06,-0.89,1.48,78,218,2.032510757446289,1.3909598588943481
46,-0.012295163236558437,-2.4700543880462646,-0.00806428026407957,36.7146669,3.1815654,36.05,-1.06,-0.87,1.47,77,218,2.0207881927490234,1.3787297010421753
47,-0.026606325060129166,-2.4693667888641357,0.02698715403676033,36.7146499,3.1815482,33.43,-1.05,-0.87,1.48,77,218,2.0218420028686523,1.3765441179275513
48,-0.03972465917468071,-2.469381332397461,-0.02355286106467247,36.7146353,3.1815335,31.18,-1.07,-0.89,1.48,76,218,2.0336973667144775,1.3932163715362549
49,-0.010192517191171646,-2.4693751335144043,-0.0007851397967897356,36.7146183,3.1815162,28.55,-1.06,-0.88,1.47,76,218,2.018279790878296,1.3758313655853271
50,-0.10976184159517288,-2.771336317062378,-0.08964718133211136,36.7146024,3.1815025,26.32,-1.48,-0.59,1.38,76,201,2.1228883266448975,1.6050164699554443
51,-0.21361787617206573,2.6955504417419434,-0.04320066049695015,36.7145731,3.1815061,25.01,-2.96,1.22,0.19,75,154,3.2197887897491455,3.2136006355285645
52,-0.17877361178398132,2.672450542449951,0.02169465832412243,36.7145154,3.181541,25.06,-3.99,2.02,-0.04,75,153,4.485673427581787,4.485483646392822
53,-0.041011370718479156,2.7940969467163086,0.09247153997421265,36.7144616,3.1815729,25.03,-3.76,1.34,0.06,75,160,3.9965784549713135,3.9960923194885254
54,-0.31316596269607544,-2.3125882148742676,0.18582680821418762,36.7144094,3.1815643,25.0,-2.95,-2.74,0.02,74,227,4.027131080627441,4.027066230773926
55,-0.4932810962200165,-2.148040771484375,-0.020236486569046974,36.7143648,3.1814884,25.0,-3.88,-6.08,0.02,74,236,7.215804100036621,7.215768337249756
56,-0.5000350475311279,-2.1528091430664062,0.02590501680970192,36.714305,3.1813713,25.01,-4.82,-7.55,0.0,73,236,8.96762466430664,8.967623710632324
57,-0.3839310109615326,-2.1567022800445557,-0.030324699357151985,36.7142269,3.1812211,25.02,-4.92,-7.5,0.0,73,236,8.978747367858887,8.978745460510254
58,-0.27521705627441406,-2.154315233230591,0.02737201377749443,36.7141652,3.1811035,25.03,-4.11,-6.35,0.02,73,236,7.568718433380127,7.5686798095703125
59,-0.27341124415397644,-2.123237371444702,-0.008367493748664856,36.714107,3.1809879,25.01,-3.4,-5.66,0.02,72,238,6.611169338226318,6.611128330230713
60,-0.29136255383491516,-2.1023924350738525,0.032985445111989975,36.7140626,3.180893,25.01,-3.21,-5.64,0.0,72,239,6.499831199645996,6.499824523925781
61,-0.22042861580848694,-2.1002540588378906,-0.015769729390740395,36.714019,3.1807976,25.01,-3.2,-5.62,0.0,71,239,6.471004962921143,6.47100305557251
62,0.07311255484819412,-2.1005630493164062,0.028050631284713745,36.7139747,3.1807012,25.0,-2.13,-3.72,0.03,71,239,4.29452657699585,4.294355869293213
63,0.13407869637012482,-2.100647211074829,-0.026087293401360512,36.7139572,3.1806631,24.98,-0.52,-0.91,-0.02,71,239,1.0523890256881714,1.0521881580352783
64,0.029186032712459564,-2.1002395153045654,0.006806889548897743,36.713956,3.18066,24.99,0.11,0.16,0.02,70,239,0.2062760293483734,0.20410659909248352
