timestamp,pitch,yaw,roll,lat,lon,alt,velocity_x,velocity_y,velocity_z,battery,heading,airspeed,groundspeed
0,0.029966743662953377,-0.024188995361328125,0.008180889301002026,36.7156067,3.1846299,22.85,-0.02,0.03,-0.11,96,358,0.1269310712814331,0.043503135442733765
1,-0.07686851918697357,-0.030795011669397354,0.09215586632490158,36.7156074,3.1846321,22.86,0.24,0.51,-0.04,95,358,0.5770224332809448,0.5752466917037964
2,-0.1809893697500229,1.5989634990692139,-0.11667166650295258,36.7156199,3.18466,22.9,1.35,2.44,-0.03,95,91,2.7993197441101074,2.7991232872009277
3,-0.09752673655748367,0.8911447525024414,0.01946284994482994,36.7156418,3.1847081,22.89,1.72,3.1,0.0,95,51,3.554342269897461,3.554330825805664
4,0.19725936651229858,1.0560389757156372,0.04479089751839638,36.7156661,3.1847618,22.87,0.87,1.65,0.0,94,59,2.442314624786377,2.442314386367798
5,0.09721236675977707,2.164531707763672,0.2363707423210144,36.7156619,3.1847564,22.89,-1.53,-2.21,-0.01,94,124,2.690173387527466,2.690145969390869
6,-0.13676179945468903,-2.550199508666992,0.08441022038459778,36.7156345,3.184707,22.85,-2.26,-3.31,-0.03,93,213,4.014131546020508,4.013958930969238
7,-0.05218612402677536,-2.1510775089263916,0.12831708788871765,36.715601,3.1846418,22.9,-1.58,-3.23,0.03,93,236,3.5968832969665527,3.5967142581939697
8,-0.20752981305122375,-1.0249007940292358,0.20892974734306335,36.7155983,3.1845909,22.86,1.57,-2.76,0.0,93,301,3.182302713394165,3.1822996139526367
9,-0.4797208309173584,-0.6195284128189087,0.039210669696331024,36.7156567,3.1845283,22.86,5.58,-3.89,0.0,92,324,6.814500331878662,6.8144941329956055
10,-0.4942263066768646,-0.619513750076294,-0.020109865814447403,36.7157467,3.1844503,22.87,7.49,-5.17,0.0,92,324,9.102709770202637,9.102705001831055
11,-0.5168337225914001,-0.6188859343528748,-0.017750607803463936,36.715852,3.1843586,22.88,7.9,-5.58,0.0,91,324,9.673393249511719,9.673393249511719
12,-0.23938214778900146,-0.6240536570549011,-0.0006927970098331571,36.7159715,3.1842525,22.92,6.83,-4.89,-0.01,91,324,8.408305168151855,8.408296585083008
13,0.011413739994168282,-0.6808561682701111,-0.10773768275976181,36.7160475,3.1841838,22.91,4.01,-3.28,0.0,91,320,5.191081523895264,5.191078186035156
14,-0.2858729660511017,-1.9110227823257446,-0.2320992648601532,36.7160728,3.1841243,23.36,-0.99,-3.31,-0.54,90,250,3.5074410438537598,3.4644181728363037
15,-0.4802800416946411,-2.174906015396118,0.031049126759171486,36.7160368,3.1840518,24.7,-3.97,-5.54,-1.17,90,235,6.924066543579102,6.823641777038574
16,-0.44710516929626465,-2.1651840209960938,0.009706523269414902,36.7159728,3.1839389,26.83,-5.23,-7.57,-1.55,89,235,9.344144821166992,9.21337890625
17,-0.4960249364376068,-2.1669065952301025,-0.003252327209338546,36.7158858,3.1837817,29.7,-5.55,-8.11,-1.58,89,235,9.958616256713867,9.832271575927734
18,-0.45429205894470215,-2.164950370788574,0.03724637255072594,36.7158105,3.1836428,32.15,-5.53,-8.23,-1.59,88,235,10.049190521240234,9.922591209411621
19,-0.45936718583106995,-2.1637372970581055,-0.034018803387880325,36.715723,3.1834799,35.03,-5.53,-8.25,-1.6,88,236,10.07040023803711,9.942203521728516
20,-0.48957303166389465,-2.165527820587158,0.01500597596168518,36.715648,3.1833405,37.51,-5.51,-8.26,-1.6,87,235,10.060797691345215,9.931341171264648
21,-0.4469291567802429,-2.1631078720092773,0.0322924442589283,36.7155735,3.1832012,40.0,-5.48,-8.24,-1.61,87,236,10.033191680908203,9.901620864868164
22,-0.47619426250457764,-2.163395881652832,-0.031810447573661804,36.7154867,3.1830386,42.91,-5.53,-8.3,-1.63,87,236,10.11816692352295,9.985871315002441
23,-0.4802793562412262,-2.162797212600708,-0.024919435381889343,36.7154242,3.1829217,44.99,-5.53,-8.3,-1.63,86,236,10.11646842956543,9.983073234558105
24,-0.4295479655265808,-2.1652987003326416,-0.010505505837500095,36.7153244,3.1827354,48.33,-5.51,-8.28,-1.64,86,235,10.09069538116455,9.956092834472656
25,-0.48564842343330383,-2.1653785705566406,-0.017105944454669952,36.7152496,3.1825956,50.83,-5.5,-8.3,-1.63,85,235,10.098291397094727,9.964766502380371
26,-0.4732486605644226,-2.1635758876800537,0.03388912230730057,36.715175,3.1824557,53.34,-5.5,-8.28,-1.63,85,236,10.081208229064941,9.947540283203125
27,-0.4446491301059723,-2.1653120517730713,-0.02364305965602398,36.7150878,3.1822926,56.26,-5.53,-8.28,-1.63,84,235,10.101829528808594,9.96848201751709
28,-0.4258681833744049,-2.1633358001708984,-0.01397235319018364,36.7150132,3.1821534,58.76,-5.4,-8.06,-1.6,84,236,9.843033790588379,9.711559295654297
29,-0.07689812779426575,-2.1678335666656494,-0.005867564585059881,36.7149373,3.1820126,61.31,-3.95,-5.88,-1.13,83,235,7.176661491394043,7.085758209228516
30,-0.09775155037641525,-2.1440439224243164,0.008664132095873356,36.7148948,3.1819316,62.5,-2.49,-3.95,-0.45,83,237,4.701038837432861,4.678852558135986
31,-0.13453184068202972,-2.0915069580078125,-0.014247473329305649,36.7148604,3.1818585,62.85,-2.03,-3.67,-0.03,83,240,4.203371524810791,4.203188896179199
32,-0.14008769392967224,-2.0875415802001953,0.026629067957401276,36.7148332,3.1817968,62.84,-1.98,-3.67,-0.02,82,240,4.172135829925537,4.172069072723389
33,0.0648808553814888,-2.114154577255249,-0.04158569872379303,36.7148095,3.1817437,62.73,-1.44,-2.45,0.29,82,238,2.8609378337860107,2.8457813262939453
34,0.014135162346065044,-2.4587156772613525,-0.004724636673927307,36.7147899,3.1817127,60.99,-1.13,-0.95,1.48,82,219,2.102094888687134,1.484204888343811
35,-0.04865492507815361,-2.469489097595215,-0.022469064220786095,36.7147755,3.1816992,58.7,-1.04,-0.8,1.42,81,218,1.945713996887207,1.3198617696762085
36,-0.02790110558271408,-2.474698305130005,0.03219073265790939,36.7147612,3.1816857,56.46,-1.05,-0.84,1.43,81,218,1.973947286605835,1.3519130945205688
37,-0.06412021070718765,-2.4758174419403076,0.004407886881381273,36.7147442,3.181669,53.84,-1.08,-0.88,1.44,81,218,2.0112109184265137,1.4000144004821777
38,-0.012054560706019402,-2.4758663177490234,0.0034288677852600813,36.7147295,3.1816545,51.6,-1.09,-0.88,1.45,80,218,2.022677183151245,1.4074558019638062
39,-0.04385055601596832,-2.475727081298828,0.026183880865573883,36.7147122,3.1816374,48.99,-1.07,-0.87,1.46,80,218,2.0154852867126465,1.3880716562271118
40,-0.03523999825119972,-2.4760043621063232,-0.023928945884108543,36.7146976,3.1816228,46.75,-1.08,-0.87,1.47,79,218,2.030416965484619,1.39932382106781
41,-0.008846554905176163,-2.4757368564605713,0.011562366969883442,36.7146803,3.1816056,44.13,-1.08,-0.88,1.47,79,218,2.0353050231933594,1.39882230758667
42,-0.060913365334272385,-2.4760384559631348,-0.011815356090664864,36.7146655,3.1815908,41.88,-1.07,-0.88,1.47,79,218,2.0330421924591064,1.3963702917099
43,-0.018075264990329742,-2.4753684997558594,0.020586492493748665,36.7146507,3.1815761,39.63,-1.07,-0.87,1.47,78,218,2.024787187576294,1.3857594728469849
44,-0.05209249258041382,-2.476137638092041,0.024027209728956223,36.7146335,3.181559,37.0,-1.07,-0.88,1.47,78,218,2.028200387954712,1.390093207359314
45,-0.012554067187011242,-2.4759254455566406,-0.01654408872127533,36.7146187,3.1815443,34.75,-1.07,-0.87,1.47,78,218,2.0272738933563232,1.3905771970748901
46,-0.021013712510466576,-2.475919246673584,0.023991111665964127,36.7146016,3.1815271,32.13,-1.06,-0.88,1.47,77,218,2.023045301437378,1.3859156370162964
47,-0.045432087033987045,-2.4754786491394043,-0.024823913350701332,36.7145868,3.1815124,29.88,-1.08,-0.88,1.47,77,218,2.0292909145355225,1.3941571712493896
48,-0.023260336369276047,-2.4756548404693604,0.026390986517071724,36.714572,3.1814977,27.64,-1.07,-0.87,1.48,77,218,2.031351327896118,1.390345811843872
49,-0.05374770611524582,-2.4823169708251953,-0.04486700892448425,36.7145572,3.1814831,25.39,-1.1,-0.87,1.48,76,217,2.043426990509033,1.4062860012054443
50,-0.1636112928390503,2.8933732509613037,-0.11022201180458069,36.7145318,3.1814748,23.13,-2.31,0.46,0.69,76,165,2.465522289276123,2.3651373386383057
51,-0.20315489172935486,2.670865297317505,0.029061952605843544,36.714481,3.1815022,22.9,-3.87,1.93,-0.05,75,153,4.331924915313721,4.331516742706299
52,-0.10382471233606339,2.6865367889404297,0.02476905845105648,36.7144268,3.1815361,22.94,-3.94,1.89,0.06,75,153,4.3832573890686035,4.382833957672119
53,-0.0773400291800499,-2.980276584625244,0.29200708866119385,36.7143771,3.1815521,22.89,-3.21,-0.52,0.04,75,189,3.2534518241882324,3.253199577331543
54,-0.4749099910259247,-2.182016372680664,0.04090650752186775,36.7143289,3.1814967,22.88,-3.31,-5.04,0.02,74,234,6.0395097732543945,6.039469242095947
55,-0.48580682277679443,-2.156925678253174,0.038785699754953384,36.7142752,3.1813915,22.88,-4.51,-7.19,0.0,74,236,8.498638153076172,8.498637199401855
56,-0.450847864151001,-2.150789737701416,-0.03464870527386665,36.7141989,3.1812421,22.9,-4.95,-7.71,0.0,73,236,9.166952133178711,9.166952133178711
57,-0.31267276406288147,-2.1526198387145996,0.03012465313076973,36.7141349,3.1811184,22.92,-4.39,-6.81,0.01,73,236,8.108277320861816,8.108268737792969
58,-0.2321372926235199,-2.139249563217163,0.0039383661933243275,36.7140809,3.1810129,22.89,-3.62,-5.79,0.02,73,237,6.829730987548828,6.829669952392578
59,-0.27711221575737,-2.114454984664917,0.03727295249700546,36.7140266,3.1809007,22.88,-3.31,-5.62,0.0,72,238,6.52885103225708,6.528849124908447
60,-0.25890541076660156,-2.1082615852355957,-0.01610581949353218,36.7139821,3.1808058,22.88,-3.28,-5.64,0.0,72,239,6.532441139221191,6.5324387550354
61,-0.04876355454325676,-2.1089179515838623,0.02883840724825859,36.7139329,3.1807009,22.88,-2.67,-4.58,0.0,71,239,5.308445930480957,5.308440685272217
62,0.14679674804210663,-2.109222888946533,-0.029669664800167084,36.7139069,3.1806454,22.85,-1.04,-1.79,0.0,71,239,2.0793604850769043,2.079359769821167
63,0.06884486228227615,-2.109001874923706,8.781710494076833e-05,36.713901,3.1806325,22.87,0.02,0.0,0.0,71,239,0.02433496154844761,0.02300414815545082
64,-0.040569767355918884,-2.112811326980591,0.1169956624507904,36.7139036,3.180634,22.83,0.53,-0.2,0.0,70,238,0.5715909600257874,0.5715909004211426
