timestamp,pitch,yaw,roll,lat,lon,alt,velocity_x,velocity_y,velocity_z,battery,heading,airspeed,groundspeed
0,0.020556004717946053,-0.005902194883674383,0.022043993696570396,36.7156066,3.1846299,14.79,-0.02,0.02,-0.04,96,359,0.059888821095228195,0.03550677374005318
1,-0.10579022020101547,-0.00839315541088581,0.06116519868373871,36.7156083,3.1846319,14.81,0.46,0.45,-0.02,95,359,0.6527761816978455,0.6523454785346985
2,-0.2409791350364685,0.9382594227790833,-0.06947799026966095,36.71563,3.1846564,14.83,2.45,2.23,-0.05,95,53,3.32074236869812,3.3202197551727295
3,-0.18751293420791626,0.7604331970214844,0.019729502499103546,36.7156707,3.1847023,14.81,3.4,3.02,-0.01,95,43,4.556488990783691,4.556468963623047
4,-0.06870807707309723,0.7257857918739319,-0.026885010302066803,36.7157173,3.1847534,14.82,3.25,2.85,0.0,94,41,4.33113956451416,4.3311333656311035
5,0.3260442316532135,0.2332722395658493,-0.21203793585300446,36.7157512,3.184786,14.84,0.34,-0.25,-0.03,94,13,0.42476990818977356,0.4233595132827759
6,-0.17591260373592377,-1.4333935976028442,-0.1583952009677887,36.7157368,3.1847539,14.85,-2.13,-3.06,0.05,93,277,3.733684539794922,3.7332282066345215
7,-0.12575677037239075,-2.197906494140625,-0.01312301680445671,36.7157005,3.184689,14.86,-2.31,-3.32,-0.02,93,234,4.053024768829346,4.0529375076293945
8,-0.003465931164100766,-1.7829166650772095,0.23511551320552826,36.715678,3.1846344,14.83,-0.56,-3.01,0.03,93,257,3.0687432289123535,3.068523406982422
9,-0.3821192979812622,-0.6758416295051575,0.08267569541931152,36.7156954,3.184586,14.81,3.26,-2.94,0.0,92,321,4.397295951843262,4.397294998168945
10,-0.47442737221717834,-0.6222167015075684,0.025442734360694885,36.7157753,3.1845133,14.81,6.59,-4.59,0.0,92,324,8.034289360046387,8.034287452697754
11,-0.5018630027770996,-0.6213712096214294,-0.0261579267680645,36.7158742,3.1844274,14.83,7.81,-5.46,0.0,91,324,9.533221244812012,9.533222198486328
12,-0.39697811007499695,-0.6231900453567505,0.03322194889187813,36.7159983,3.1843182,14.86,7.65,-5.43,-0.01,91,324,9.38895034790039,9.38893985748291
13,-0.09334289282560349,-0.6249783635139465,-0.02164219319820404,36.716092,3.1842351,14.89,5.85,-4.17,0.03,91,324,7.195516109466553,7.195412635803223
14,0.05717867985367775,-0.9166489243507385,-0.18716804683208466,36.7161494,3.1841772,14.92,2.27,-2.93,-0.13,90,307,3.7149195671081543,3.712496519088745
15,-0.3970537483692169,-2.123213529586792,-0.11473958194255829,36.7161457,3.1841136,15.77,-2.53,-4.14,-0.82,90,238,4.929386138916016,4.859727382659912
16,-0.4771701991558075,-2.1662867069244385,0.0365472137928009,36.7160951,3.1840236,17.49,-4.66,-6.66,-1.38,89,235,8.249889373779297,8.133042335510254
17,-0.45105889439582825,-2.1639366149902344,-0.02837725542485714,36.716012,3.1838754,20.23,-5.55,-8.02,-1.6,89,236,9.889800071716309,9.75805377960205
18,-0.4890826940536499,-2.165186882019043,0.012048782780766487,36.7159366,3.1837377,22.7,-5.52,-8.18,-1.57,88,235,9.999529838562012,9.874224662780762
19,-0.42378413677215576,-2.163975715637207,-0.0009204366360791028,36.715849,3.1835753,25.58,-5.53,-8.23,-1.59,88,236,10.0513916015625,9.924275398254395
20,-0.46835094690322876,-2.1648030281066895,-0.028281113132834435,36.7157741,3.1834358,28.06,-5.53,-8.27,-1.59,88,235,10.077951431274414,9.951107025146484
21,-0.48787593841552734,-2.163846731185913,0.01552774291485548,36.7156994,3.1832963,30.54,-5.49,-8.26,-1.59,87,236,10.055143356323242,9.927228927612305
22,-0.4257034659385681,-2.1618311405181885,-0.012282613664865494,36.7156123,3.1831334,33.45,-5.51,-8.27,-1.61,87,236,10.077702522277832,9.947220802307129
23,-0.477999746799469,-2.164214611053467,-0.022825784981250763,36.7155373,3.1829938,35.95,-5.53,-8.28,-1.62,86,236,10.090099334716797,9.959080696105957
24,-0.4798840582370758,-2.1643636226654053,0.032782189548015594,36.7154627,3.1828542,38.44,-5.48,-8.3,-1.62,86,236,10.085468292236328,9.953338623046875
25,-0.43657100200653076,-2.165682315826416,-0.01693565770983696,36.7153759,3.1826914,41.35,-5.56,-8.3,-1.63,85,235,10.132086753845215,9.998555183410645
26,-0.48225054144859314,-2.1658201217651367,-0.01813044399023056,36.7153007,3.1825511,43.86,-5.53,-8.3,-1.63,85,235,10.107769966125488,9.974658012390137
27,-0.42632049322128296,-2.164353370666504,0.03001665323972702,36.7152133,3.1823876,46.79,-5.49,-8.28,-1.64,84,236,10.078660011291504,9.944321632385254
28,-0.44111722707748413,-2.164318323135376,-0.022757800295948982,36.7151389,3.1822481,49.29,-5.51,-8.28,-1.63,84,236,10.084790229797363,9.951814651489258
29,-0.27757444977760315,-2.168667793273926,0.03460558131337166,36.7150547,3.1820918,52.12,-4.87,-7.23,-1.44,83,235,8.838936805725098,8.71923828125
30,-0.04415072500705719,-2.1639907360076904,0.005604800768196583,36.7149997,3.1819892,53.91,-3.21,-4.85,-0.8,83,236,5.878782749176025,5.823181629180908
31,-0.1655316948890686,-2.1197993755340576,0.026155300438404083,36.7149645,3.1819196,54.67,-2.21,-3.71,-0.24,83,238,4.333102703094482,4.326449394226074
32,-0.14709600806236267,-2.086573600769043,-0.018327511847019196,36.7149319,3.1818478,54.79,-1.99,-3.68,0.0,82,240,4.193718433380127,4.193709373474121
33,-0.04879852011799812,-2.087653875350952,0.024439144879579544,36.7149053,3.1817875,54.79,-1.8,-3.32,-0.01,82,240,3.7823410034179688,3.782304525375366
34,0.051360830664634705,-2.2162556648254395,-0.06610787659883499,36.714885,3.1817445,54.32,-1.23,-1.73,0.79,82,233,2.274691343307495,2.1306278705596924
35,-0.011931446380913258,-2.485883951187134,0.02034042775630951,36.7148669,3.1817224,51.93,-1.03,-0.79,1.47,81,217,1.9664784669876099,1.3036067485809326
36,-0.048602841794490814,-2.4722201824188232,-0.023441817611455917,36.7148529,3.1817093,49.68,-1.03,-0.81,1.42,81,218,1.938866138458252,1.3190144300460815
37,-0.011438312940299511,-2.470264196395874,-0.006273059174418449,36.7148364,3.1816931,47.07,-1.06,-0.87,1.43,81,218,1.9926719665527344,1.3808413743972778
38,-0.06610105186700821,-2.469635248184204,0.004846547264605761,36.714822,3.1816786,44.82,-1.07,-0.88,1.43,80,218,2.00341796875,1.393448829650879
39,-0.008784742094576359,-2.4695072174072266,-9.972621774068102e-05,36.7148073,3.1816639,42.58,-1.07,-0.88,1.44,80,218,2.0096700191497803,1.3938301801681519
40,-0.06248224899172783,-2.469505786895752,-0.005185383837670088,36.7147927,3.1816493,40.34,-1.07,-0.88,1.45,80,218,2.0141799449920654,1.3904304504394531
41,-0.026333948597311974,-2.4697911739349365,-0.023790713399648666,36.7147757,3.1816322,37.72,-1.07,-0.88,1.46,79,218,2.021846055984497,1.3936357498168945
42,-0.011180928908288479,-2.469705104827881,0.014253861270844936,36.7147588,3.1816151,35.11,-1.07,-0.88,1.47,79,218,2.0308473110198975,1.3932600021362305
43,-0.051914241164922714,-2.4689133167266846,-0.01801235042512417,36.7147442,3.1816002,32.86,-1.07,-0.89,1.47,78,218,2.034173011779785,1.4003632068634033
44,-0.015038357116281986,-2.469649314880371,-0.017928460612893105,36.7147271,3.181583,30.23,-1.07,-0.88,1.47,78,218,2.02573299407959,1.3886749744415283
45,-0.05960242077708244,-2.4695396423339844,0.014798992313444614,36.7147125,3.1815684,27.98,-1.06,-0.88,1.47,78,218,2.0233991146087646,1.3861076831817627
46,-0.012463057413697243,-2.4701225757598877,-0.00964485015720129,36.7146979,3.1815537,25.73,-1.06,-0.87,1.47,77,218,2.0211918354034424,1.3816019296646118
47,-0.026526834815740585,-2.469391107559204,0.02527528814971447,36.714681,3.1815364,23.11,-1.06,-0.87,1.46,77,218,2.014538526535034,1.3777945041656494
48,-0.03862341120839119,-2.4694314002990723,-0.0256941057741642,36.7146664,3.1815217,20.86,-1.06,-0.88,1.47,77,218,2.0223357677459717,1.3870574235916138
49,-0.00759282847866416,-2.469566822052002,0.0012322799302637577,36.7146494,3.1815045,18.23,-1.07,-0.87,1.47,76,218,2.021968126296997,1.385053038597107
50,-0.11904039978981018,-2.830324411392212,-0.09610526263713837,36.714633,3.1814912,16.01,-1.55,-0.53,1.34,76,197,2.128462314605713,1.647137999534607
51,-0.21055695414543152,2.6888997554779053,-0.0344623327255249,36.7146026,3.1814964,14.82,-3.08,1.31,0.13,75,154,3.3535783290863037,3.350752592086792
52,-0.19289423525333405,2.679961919784546,0.016584372147917747,36.7145435,3.1815317,14.9,-4.06,2.02,-0.02,75,153,4.542522430419922,4.542460918426514
53,-0.03116811439394951,2.815455675125122,0.10154213011264801,36.7144891,3.1815631,14.87,-3.79,1.26,0.06,75,161,4.003654956817627,4.003128528594971
54,-0.3303524851799011,-2.289834976196289,0.18644239008426666,36.7144369,3.1815522,14.83,-2.91,-2.88,0.02,74,228,4.10136079788208,4.101291656494141
55,-0.4793854355812073,-2.141669750213623,-0.02593580260872841,36.7143926,3.1814746,14.83,-3.87,-6.16,0.02,74,237,7.2808356285095215,7.2808027267456055
56,-0.4618339240550995,-2.1473333835601807,0.03227190673351288,36.7143221,3.1813352,14.84,-4.87,-7.67,0.0,73,236,9.088854789733887,9.08885383605957
57,-0.352076917886734,-2.1526317596435547,-0.022346489131450653,36.7142553,3.1812057,14.86,-4.84,-7.46,0.0,73,236,8.897172927856445,8.897171020507812
58,-0.2746303081512451,-2.149756908416748,0.005600914359092712,36.7141948,3.1810892,14.86,-4.04,-6.31,0.02,73,236,7.497089862823486,7.497030258178711
59,-0.2582978308200836,-2.1193132400512695,-0.008616342209279537,36.7141375,3.1809739,14.84,-3.39,-5.71,0.02,72,238,6.647076606750488,6.647037982940674
60,-0.3102269470691681,-2.1015775203704834,0.01517071109265089,36.714093,3.1808784,14.84,-3.23,-5.64,0.01,72,239,6.508976459503174,6.50896692276001
61,-0.18947412073612213,-2.1005823612213135,-0.019775377586483955,36.7140421,3.1807675,14.84,-3.12,-5.46,0.0,71,239,6.290367603302002,6.290367126464844
62,0.06001850962638855,-2.100893497467041,0.02516729012131691,36.7140056,3.1806881,14.83,-2.06,-3.6,0.03,71,239,4.155489921569824,4.155299663543701
63,0.154386967420578,-2.100874423980713,-0.02256852015852928,36.713989,3.1806518,14.81,-0.47,-0.82,-0.02,71,239,0.9578640460968018,0.957628071308136
64,0.018338877707719803,-2.1003942489624023,0.03633120656013489,36.7139881,3.1806493,14.81,0.11,0.15,0.03,70,239,0.19630761444568634,0.19366490840911865
