timestamp,pitch,yaw,roll,lat,lon,alt,velocity_x,velocity_y,velocity_z,battery,heading,airspeed,groundspeed
0,-0.024146556854248047,-0.03640857711434364,0.010285749100148678,36.7156065,3.1846299,28.82,-0.01,0.02,0.02,96,357,0.038574885576963425,0.031295087188482285
1,-0.019196273759007454,-0.015158755704760551,0.11605433374643326,36.7156073,3.1846332,28.71,0.22,0.72,-0.04,95,359,0.7621123790740967,0.7609685063362122
2,-0.0732245072722435,1.8385984897613525,-0.0692623034119606,36.7156162,3.184668,28.73,0.87,2.62,-0.06,95,105,2.7721822261810303,2.7714650630950928
3,0.018501251935958862,1.069959044456482,0.030878670513629913,36.7156287,3.1847135,28.75,0.77,2.46,-0.04,95,61,2.5854544639587402,2.5851430892944336
4,0.15117527544498444,2.268831729888916,0.3184145390987396,36.7156306,3.1847324,28.75,-0.86,-0.87,0.0,94,129,1.2331523895263672,1.233116865158081
5,-0.1480981409549713,-2.2009027004241943,0.021015169098973274,36.7156026,3.1846834,28.78,-2.26,-3.33,-0.04,94,233,4.031853675842285,4.031575679779053
6,-0.11545807868242264,-2.244797468185425,0.049885351210832596,36.7155716,3.1846256,28.78,-2.12,-3.36,0.0,93,231,3.9843482971191406,3.984341859817505
7,-0.1358124166727066,-1.2751517295837402,0.2422075867652893,36.7155569,3.184563,28.77,0.9,-2.83,0.0,93,286,2.9806644916534424,2.980663776397705
8,-0.4568280577659607,-0.6582373380661011,0.08932417631149292,36.7155954,3.1845127,28.78,4.69,-3.4,0.0,93,322,5.7988667488098145,5.7988667488098145
9,-0.48448190093040466,-0.6270447373390198,-0.004496569279581308,36.7156768,3.1844421,28.78,7.08,-4.91,-0.01,92,324,8.622115135192871,8.622106552124023
10,-0.5119858980178833,-0.6220265030860901,0.024613097310066223,36.7157976,3.1843368,28.81,7.87,-5.58,0.0,92,324,9.658344268798828,9.658345222473145
11,-0.3245857059955597,-0.6228610873222351,0.015617557801306248,36.7159027,3.1842439,28.84,7.36,-5.25,-0.01,91,324,9.049188613891602,9.049179077148438
12,-0.008444206789135933,-0.6493449807167053,-0.04979909583926201,36.7160009,3.1841564,28.85,4.53,-3.48,0.04,91,322,5.716787338256836,5.716591835021973
13,-0.07463502883911133,-1.4554892778396606,-0.30013659596443176,36.7160358,3.1841053,29.06,0.29,-2.96,-0.34,91,276,2.996901512145996,2.976619005203247
14,-0.44559794664382935,-2.1364827156066895,-0.03148691728711128,36.7160139,3.1840437,30.1,-3.27,-4.74,-0.98,90,237,5.847412586212158,5.76321268081665
15,-0.4500616490840912,-2.161651849746704,-0.019822731614112854,36.7159446,3.1839218,32.4,-5.11,-7.4,-1.52,90,236,9.132731437683105,9.004196166992188
16,-0.48083946108818054,-2.164022922515869,-0.01124943234026432,36.7158707,3.1837884,34.84,-5.5,-8.03,-1.6,89,236,9.867831230163574,9.736590385437012
17,-0.4367106556892395,-2.1635661125183105,0.028146876022219658,36.7157831,3.1836272,37.72,-5.55,-8.19,-1.58,89,236,10.020977973937988,9.895483016967773
18,-0.4498080909252167,-2.164315700531006,-0.029288269579410553,36.7157082,3.183488,40.19,-5.54,-8.26,-1.58,88,236,10.080517768859863,9.955810546875
19,-0.4879700243473053,-2.1636102199554443,-0.0037009185180068016,36.7156333,3.1833484,42.67,-5.53,-8.27,-1.59,88,236,10.081319808959961,9.954123497009277
20,-0.42354631423950195,-2.165210485458374,0.00863322988152504,36.7155458,3.1831856,45.57,-5.52,-8.29,-1.61,87,235,10.094588279724121,9.964948654174805
21,-0.4515949487686157,-2.163459539413452,-0.03449178859591484,36.7154713,3.1830462,48.07,-5.49,-8.29,-1.6,87,236,10.077176094055176,9.948012351989746
22,-0.45399847626686096,-2.1636874675750732,0.03047557733952999,36.7153841,3.182883,50.98,-5.52,-8.28,-1.62,86,236,10.092377662658691,9.960128784179688
23,-0.4220729172229767,-2.163978338241577,-0.00622856430709362,36.7153091,3.1827429,53.48,-5.52,-8.29,-1.63,86,236,10.096796989440918,9.964200973510742
24,-0.47802239656448364,-2.1639602184295654,-0.025767633691430092,36.7152347,3.1826036,55.99,-5.49,-8.29,-1.62,86,236,10.082846641540527,9.951847076416016
25,-0.44197404384613037,-2.165675640106201,0.03750339895486832,36.7151474,3.1824404,58.91,-5.54,-8.32,-1.63,85,235,10.134702682495117,10.002697944641113
26,-0.4288526475429535,-2.1650242805480957,-0.012914669699966908,36.7150724,3.1823,61.4,-5.51,-8.28,-1.63,85,235,10.083756446838379,9.949726104736328
27,-0.4459672272205353,-2.163304328918457,0.02060796320438385,36.7149857,3.1821377,64.33,-5.45,-8.17,-1.62,84,236,9.963783264160156,9.831077575683594
28,-0.16647276282310486,-2.1670026779174805,0.008435619063675404,36.7149167,3.1820099,66.64,-4.5,-6.69,-1.33,84,235,8.180431365966797,8.070968627929688
29,-0.07848403602838516,-2.1517410278320312,0.03857451677322388,36.714861,3.1819054,68.31,-2.62,-4.1,-0.53,83,236,4.906131744384766,4.876699924468994
30,-0.11606589704751968,-2.0982837677001953,0.009797492995858192,36.7148305,3.181842,68.74,-2.07,-3.68,-0.1,83,239,4.231309413909912,4.230029106140137
31,-0.18477332592010498,-2.0863444805145264,0.008860597386956215,36.7148036,3.1817808,68.76,-2.01,-3.71,-0.01,83,240,4.226377487182617,4.226340293884277
32,0.02425585314631462,-2.0978007316589355,-0.046634357422590256,36.714774,3.1817144,68.7,-1.54,-2.72,0.17,82,239,3.1348161697387695,3.1298725605010986
33,0.017035944387316704,-2.3738067150115967,-0.018876194953918457,36.7147564,3.1816825,67.59,-1.17,-1.21,1.31,82,224,2.1396591663360596,1.6891543865203857
34,-0.022001685574650764,-2.4702205657958984,-0.024170946329832077,36.7147418,3.1816677,65.3,-1.03,-0.78,1.43,82,218,1.9350448846817017,1.300015926361084
35,-0.011657331138849258,-2.4688658714294434,0.009662666358053684,36.7147254,3.1816522,62.7,-1.05,-0.84,1.42,81,218,1.9646940231323242,1.3517786264419556
36,-0.06358221918344498,-2.469369649887085,-0.009817918762564659,36.714711,3.1816379,60.45,-1.07,-0.88,1.43,81,218,1.9995896816253662,1.3907240629196167
37,-0.021489767357707024,-2.469949960708618,-0.02146090939640999,36.7146941,3.1816209,57.83,-1.07,-0.87,1.43,80,218,1.998759150505066,1.3884336948394775
38,-0.04756508767604828,-2.469701051712036,0.022683972492814064,36.7146795,3.1816062,55.59,-1.06,-0.87,1.44,80,218,1.9946157932281494,1.3733201026916504
39,-0.051504284143447876,-2.4690897464752197,-0.01849336363375187,36.7146625,3.1815891,52.98,-1.07,-0.88,1.46,80,218,2.0181329250335693,1.3913078308105469
40,-0.0157975722104311,-2.4692723751068115,0.02127489447593689,36.714648,3.1815745,50.73,-1.06,-0.88,1.46,79,218,2.0174667835235596,1.3886520862579346
41,-0.049830563366413116,-2.4694390296936035,-0.02039852738380432,36.7146334,3.1815598,48.49,-1.07,-0.89,1.46,79,218,2.023817300796509,1.3962775468826294
42,-0.009792793542146683,-2.469970703125,-0.009305532090365887,36.7146163,3.1815426,45.87,-1.07,-0.87,1.47,79,218,2.0256717205047607,1.386813998222351
43,-0.059454210102558136,-2.4691708087921143,0.0069931866601109505,36.7146017,3.1815279,43.62,-1.05,-0.88,1.47,78,218,2.0193674564361572,1.378106951713562
44,-0.04505663737654686,-2.4694507122039795,-0.024321842938661575,36.7145848,3.1815108,40.99,-1.06,-0.89,1.47,78,218,2.0240275859832764,1.3898985385894775
45,-0.02693874202668667,-2.469411611557007,0.031805459409952164,36.7145702,3.181496,38.75,-1.06,-0.88,1.47,78,218,2.0246450901031494,1.3841015100479126
46,-0.032270755618810654,-2.469766855239868,-0.02499428018927574,36.7145555,3.1814812,36.5,-1.07,-0.88,1.47,77,218,2.030019760131836,1.392694354057312
47,-0.01134696789085865,-2.469440221786499,0.007650672923773527,36.7145386,3.1814642,33.87,-1.06,-0.87,1.47,77,218,2.0180153846740723,1.3825373649597168
48,-0.06423037499189377,-2.469662666320801,-0.0031147953122854233,36.714524,3.1814494,31.63,-1.06,-0.88,1.47,76,218,2.021108388900757,1.3821312189102173
49,-0.1573304533958435,3.02485728263855,-0.14056158065795898,36.714501,3.1814381,29.23,-2.1,0.13,0.9,76,173,2.298142194747925,2.111950159072876
50,-0.2340897172689438,2.676215648651123,0.018714342266321182,36.7144616,3.1814559,28.78,-3.64,1.79,-0.07,76,153,4.061690807342529,4.061040878295898
51,-0.14379221200942993,2.678978204727173,-0.025380833074450493,36.7144076,3.1814892,28.88,-4.06,2.04,0.03,75,153,4.554281711578369,4.554173946380615
52,-0.011313925497233868,3.1221258640289307,0.25063586235046387,36.7143464,3.1815174,28.81,-3.39,0.07,0.04,75,178,3.397662878036499,3.397341251373291
53,-0.4190177321434021,-2.2001700401306152,0.08966578543186188,36.714305,3.1814867,28.8,-3.01,-3.9,0.02,75,233,4.9304118156433105,4.930370330810547
54,-0.4547349512577057,-2.152867317199707,0.017192689701914787,36.7142474,3.181376,28.8,-4.39,-6.97,0.0,74,236,8.245972633361816,8.2459716796875
55,-0.4636250436306,-2.150372266769409,-0.02904621697962284,36.7141832,3.1812499,28.81,-4.93,-7.68,0.0,74,236,9.13698959350586,9.13698959350586
56,-0.34792348742485046,-2.152575969696045,0.02101975306868553,36.7141168,3.1811219,28.84,-4.64,-7.15,0.0,73,236,8.528766632080078,8.528766632080078
57,-0.2549951374530792,-2.1435906887054443,-0.013825519941747189,36.7140509,3.180994,28.83,-3.7,-5.87,0.04,73,237,6.946455955505371,6.946328639984131
58,-0.28763648867607117,-2.119466543197632,0.038739193230867386,36.7140035,3.1808973,28.81,-3.37,-5.67,0.01,73,238,6.607254505157471,6.607229709625244
59,-0.2992963194847107,-2.1089248657226562,-0.017484165728092194,36.7139513,3.1807865,28.81,-3.29,-5.66,0.01,72,239,6.553475379943848,6.553450107574463
60,-0.143056258559227,-2.1083984375,0.029193243011832237,36.7139077,3.1806932,28.81,-3.0,-5.18,0.0,72,239,5.993880271911621,5.9938788414001465
61,0.13689900934696198,-2.1090893745422363,-0.00813247263431549,36.7138711,3.1806152,28.78,-1.33,-2.29,0.02,71,239,2.6581618785858154,2.658043146133423
62,0.1226070374250412,-2.1089789867401123,0.005061446223407984,36.7138626,3.1805967,28.79,-0.06,-0.14,-0.01,71,239,0.15867966413497925,0.15797097980976105
63,-0.03580436855554581,-2.1111764907836914,0.05337778478860855,36.7138639,3.1805987,28.76,0.21,0.05,0.03,71,239,0.22742192447185516,0.22408364713191986
