timestamp,pitch,yaw,roll,lat,lon,alt,velocity_x,velocity_y,velocity_z,battery,heading,airspeed,groundspeed
0,-0.023068642243742943,0.039052702486515045,0.011281543411314487,36.7156066,3.1846299,20.06,-0.02,0.02,0.04,96,2,0.05423654615879059,0.03198375180363655
1,-0.09148512780666351,0.04844385012984276,0.05295591428875923,36.7156087,3.1846317,20.02,0.57,0.39,0.0,95,2,0.697068452835083,0.6970605850219727
2,-0.22427217662334442,0.6559808254241943,0.01442780252546072,36.7156289,3.184648,19.99,2.47,1.62,-0.03,95,37,2.958493947982788,2.9583191871643066
3,-0.16889691352844238,0.5674205422401428,-0.00641280971467495,36.7156769,3.1846873,20.04,3.34,2.14,-0.03,95,32,3.9770946502685547,3.976935386657715
4,0.14253203570842743,0.5171608328819275,-0.02837372198700905,36.7157196,3.1847201,20.06,2.49,1.37,-0.01,94,29,2.845494270324707,2.845460891723633
5,-0.09914923459291458,-1.0745060443878174,-0.26181259751319885,36.7157303,3.1847123,20.06,-1.35,-2.32,-0.02,94,298,2.686432123184204,2.686340808868408
6,-0.15857674181461334,-2.4306046962738037,0.00015685347898397595,36.7157024,3.1846609,20.1,-2.38,-3.41,0.0,93,220,4.164976119995117,4.164968490600586
7,-0.006248541176319122,-2.0542891025543213,0.10393825173377991,36.7156677,3.1845939,20.08,-1.57,-3.23,0.01,93,242,3.597808361053467,3.5977766513824463
8,-0.3131926655769348,-0.932733952999115,0.22806790471076965,36.7156671,3.1845433,20.07,1.87,-2.77,0.01,93,306,3.3489937782287598,3.3489723205566406
9,-0.4495331346988678,-0.6238790154457092,0.01079029031097889,36.7157172,3.1844902,20.07,5.38,-3.74,0.0,92,324,6.5573577880859375,6.557352542877197
10,-0.545748233795166,-0.6210426092147827,-0.009678744710981846,36.7158048,3.1844144,20.08,7.43,-5.08,0.0,92,324,9.00571346282959,9.00571346282959
11,-0.4486401677131653,-0.6169652938842773,0.00508944783359766,36.7159281,3.1843077,20.1,7.93,-5.55,0.0,91,324,9.688419342041016,9.688419342041016
12,-0.275867223739624,-0.6215856671333313,0.0108258705586195,36.716047,3.184203,20.14,6.73,-4.78,0.0,91,324,8.260018348693848,8.260018348693848
13,0.07860566675662994,-0.7022246718406677,-0.1085825264453888,36.7161208,3.1841363,20.13,3.82,-3.22,0.0,91,319,5.004035472869873,5.004034519195557
14,-0.25853127241134644,-1.7584971189498901,-0.24114708602428436,36.7161443,3.1840859,20.48,-0.53,-3.17,-0.47,90,259,3.2594687938690186,3.224889039993286
15,-0.4469347298145294,-2.178142786026001,-0.02635764144361019,36.7161042,3.1840019,22.02,-4.09,-5.69,-1.19,90,235,7.111362934112549,7.009600639343262
16,-0.5223672986030579,-2.168384075164795,0.013474889099597931,36.7160392,3.1838875,24.17,-5.32,-7.62,-1.55,89,235,9.433490753173828,9.304022789001465
17,-0.41821449995040894,-2.1660420894622803,0.00830124132335186,36.7159517,3.1837298,27.03,-5.53,-8.11,-1.58,89,235,9.955574989318848,9.828068733215332
18,-0.4802389442920685,-2.1660470962524414,-0.021335765719413757,36.7158762,3.1835909,29.49,-5.55,-8.22,-1.57,88,235,10.049117088317871,9.924247741699219
19,-0.4859527349472046,-2.165343999862671,0.027387710288167,36.7158011,3.1834517,31.96,-5.54,-8.25,-1.59,88,235,10.067103385925293,9.939887046813965
20,-0.4339008629322052,-2.1679770946502686,-0.02137305587530136,36.7157137,3.1832891,34.85,-5.54,-8.25,-1.6,87,235,10.071292877197266,9.942012786865234
21,-0.4810939431190491,-2.164590835571289,-0.02304518036544323,36.7156388,3.1831496,37.34,-5.49,-8.25,-1.6,87,235,10.045522689819336,9.916190147399902
22,-0.4333149790763855,-2.1634578704833984,0.014605660922825336,36.7155517,3.182987,40.24,-5.52,-8.26,-1.62,87,236,10.072297096252441,9.940520286560059
23,-0.4546695649623871,-2.164909601211548,-0.031113676726818085,36.7154768,3.1828474,42.74,-5.54,-8.29,-1.63,86,235,10.112224578857422,9.979585647583008
24,-0.46050435304641724,-2.1676864624023438,0.04071667045354843,36.7153892,3.1826845,45.66,-5.51,-8.27,-1.62,86,235,10.081109046936035,9.948616027832031
25,-0.42610764503479004,-2.1640336513519287,-0.002480630064383149,36.7153146,3.1825446,48.16,-5.51,-8.28,-1.63,85,236,10.085344314575195,9.952374458312988
26,-0.478961706161499,-2.1653130054473877,-0.027926016598939896,36.7152398,3.1824051,50.65,-5.55,-8.29,-1.64,85,235,10.12017822265625,9.986324310302734
27,-0.4342096447944641,-2.1662824153900146,0.03271130844950676,36.7151521,3.1822418,53.58,-5.53,-8.28,-1.64,84,235,10.099555015563965,9.964343070983887
28,-0.3638407289981842,-2.1673760414123535,-0.023268718272447586,36.7150774,3.182103,56.08,-5.38,-8.01,-1.59,84,235,9.78719711303711,9.65667724609375
29,-0.16734479367733002,-2.1684815883636475,0.001401082263328135,36.7150116,3.181981,58.29,-4.17,-6.23,-1.22,84,235,7.603365898132324,7.504090785980225
30,-0.05467463657259941,-2.142226457595825,0.0030348843429237604,36.7149607,3.1818842,59.74,-2.47,-3.9,-0.43,83,237,4.642030715942383,4.621786117553711
31,-0.1576405167579651,-2.0954647064208984,0.036571092903614044,36.714931,3.1818215,60.05,-2.05,-3.66,-0.05,83,239,4.198492527008057,4.198081016540527
32,-0.12455389648675919,-2.08777117729187,-0.02036450244486332,36.7148993,3.18175,60.05,-1.97,-3.64,-0.02,82,240,4.14705753326416,4.146962642669678
33,0.06127375364303589,-2.1193511486053467,-0.00420696334913373,36.7148759,3.1816978,59.92,-1.4,-2.38,0.32,82,238,2.785270929336548,2.766061782836914
34,-0.018428446725010872,-2.458721876144409,-0.012621992267668247,36.7148566,3.1816677,58.1,-1.08,-0.94,1.49,82,219,2.074842929840088,1.4436675310134888
35,-0.009412689134478569,-2.463834047317505,-0.006845742929726839,36.7148425,3.1816542,55.82,-1.03,-0.8,1.42,81,218,1.9352613687515259,1.3121095895767212
36,-0.0668351873755455,-2.4688825607299805,0.009047886356711388,36.7148283,3.1816407,53.59,-1.06,-0.85,1.44,81,218,1.984683632850647,1.3622268438339233
37,-0.03847340866923332,-2.469573736190796,-0.024910571053624153,36.7148115,3.181624,50.96,-1.06,-0.88,1.44,81,218,1.9987760782241821,1.3841806650161743
38,-0.036778271198272705,-2.469611883163452,0.026307957246899605,36.714797,3.1816095,48.72,-1.06,-0.87,1.45,80,218,2.002492666244507,1.3809207677841187
39,-0.061874158680438995,-2.4687693119049072,-0.006635628640651703,36.7147801,3.1815924,46.11,-1.06,-0.89,1.46,80,218,2.0197856426239014,1.3910938501358032
40,-0.009431982412934303,-2.4694581031799316,4.1534669435350224e-05,36.7147654,3.1815777,43.86,-1.07,-0.88,1.46,79,218,2.0251007080078125,1.393712043762207
41,-0.062048908323049545,-2.469576120376587,-0.002302497858181596,36.7147508,3.181563,41.61,-1.06,-0.89,1.46,79,218,2.0198192596435547,1.387122392654419
42,-0.03171214461326599,-2.469956636428833,-0.024589648470282555,36.7147338,3.1815459,39.0,-1.06,-0.89,1.47,79,218,2.0274994373321533,1.3885599374771118
43,-0.0475723072886467,-2.469266414642334,0.02809022180736065,36.7147192,3.1815311,36.75,-1.06,-0.89,1.47,78,218,2.0298585891723633,1.390807032585144
44,-0.02697019651532173,-2.469942808151245,-0.024678289890289307,36.7147047,3.1815163,34.49,-1.05,-0.89,1.47,78,218,2.025268077850342,1.387279748916626
45,-0.012628136202692986,-2.469224691390991,0.01616825722157955,36.7146877,3.1814992,31.88,-1.06,-0.88,1.48,78,218,2.0271356105804443,1.3851332664489746
46,-0.0545491948723793,-2.4697635173797607,-0.011484961025416851,36.714673,3.1814845,29.63,-1.06,-0.89,1.47,77,218,2.0313098430633545,1.3914165496826172
47,-0.014837086200714111,-2.4694392681121826,-0.017766257748007774,36.714656,3.1814674,27.0,-1.06,-0.88,1.47,77,218,2.0172414779663086,1.3793261051177979
48,-0.051906485110521317,-2.469778537750244,0.026740889996290207,36.7146414,3.1814527,24.75,-1.05,-0.88,1.47,77,218,2.018338441848755,1.3792662620544434
49,-0.032360319048166275,-2.4817006587982178,-0.041614875197410583,36.7146269,3.181438,22.5,-1.1,-0.87,1.47,76,217,2.043808698654175,1.4096812009811401
50,-0.18047231435775757,2.8697752952575684,-0.076439268887043,36.7146009,3.1814302,20.3,-2.37,0.52,0.63,76,164,2.517937183380127,2.4375088214874268
51,-0.23276269435882568,2.6788105964660645,-0.016306890174746513,36.7145576,3.1814531,20.1,-3.81,1.87,-0.05,75,153,4.2492218017578125,4.248913288116455
52,-0.08660445362329483,2.6960859298706055,0.04444000497460365,36.7144941,3.1814922,20.15,-3.99,1.87,0.06,75,154,4.413878917694092,4.4134440422058105
53,-0.10218407213687897,-2.9678468704223633,0.28642597794532776,36.7144439,3.1815076,20.1,-3.22,-0.58,0.03,75,189,3.2742371559143066,3.274022102355957
54,-0.4521622359752655,-2.181800127029419,0.04110589250922203,36.7143954,3.181451,20.09,-3.33,-5.09,0.01,74,235,6.08823823928833,6.088206768035889
55,-0.5082990527153015,-2.159954309463501,0.039063602685928345,36.7143417,3.1813454,20.09,-4.54,-7.25,0.0,74,236,8.555593490600586,8.55559253692627
56,-0.4240177869796753,-2.1513442993164062,0.010065949521958828,36.7142765,3.1812173,20.11,-4.95,-7.73,0.0,73,236,9.1865234375,9.1865234375
57,-0.3199899196624756,-2.153113842010498,0.024034149944782257,36.7142012,3.1810719,20.13,-4.38,-6.78,0.01,73,236,8.073250770568848,8.073238372802734
58,-0.231291264295578,-2.136021852493286,0.01958446018397808,36.7141477,3.1809669,20.1,-3.58,-5.76,0.03,73,237,6.794041156768799,6.793972969055176
59,-0.28866133093833923,-2.1069910526275635,0.034847721457481384,36.714094,3.1808549,20.09,-3.26,-5.63,0.0,72,239,6.5154643058776855,6.5154619216918945
60,-0.2532579004764557,-2.099661111831665,-0.00921464804559946,36.7140502,3.1807597,20.09,-3.21,-5.64,0.0,72,239,6.501378059387207,6.501373767852783
61,-0.125246062874794,-2.100426435470581,0.007530577946454287,36.7140082,3.1806684,20.1,-2.77,-4.87,0.0,71,239,5.607268810272217,5.607268333435059
62,0.15279468894004822,-2.1011414527893066,-0.03307981416583061,36.713977,3.1806003,20.06,-1.01,-1.77,0.0,71,239,2.043729305267334,2.043729066848755
63,0.06149505823850632,-2.1010496616363525,0.028140919283032417,36.7139714,3.1805879,20.09,0.03,0.01,0.0,71,239,0.04112295061349869,0.04060426354408264
64,-0.0398276261985302,-2.102808952331543,0.11618883162736893,36.7139742,3.1805893,20.04,0.57,-0.22,0.0,70,239,0.6161670684814453,0.6161575317382812
