timestamp,pitch,yaw,roll,lat,lon,alt,velocity_x,velocity_y,velocity_z,battery,heading,airspeed,groundspeed
0,-0.012122384272515774,0.03308965265750885,-0.01931227371096611,36.7156066,3.1846299,29.61,-0.01,0.01,-0.11,96,1,0.11361538618803024,0.024586722254753113
1,-0.045245278626680374,0.05046204477548599,0.13947825133800507,36.7156078,3.184633,29.56,0.31,0.67,-0.06,95,2,0.7500818371772766,0.7468107342720032
2,-0.25750604271888733,1.6059396266937256,-0.11194873601198196,36.7156194,3.1846607,29.63,1.4,2.81,-0.1,95,92,3.1490519046783447,3.147170305252075
3,-0.1906639039516449,1.0067769289016724,-0.01600477658212185,36.7156479,3.1847311,29.6,2.02,4.0,-0.01,94,57,4.492430210113525,4.492387294769287
4,0.013469375669956207,1.068442702293396,0.031683824956417084,36.7156752,3.1847967,29.58,1.81,3.51,0.0,94,61,3.951698064804077,3.9516899585723877
5,0.26928308606147766,1.6884325742721558,0.2527220547199249,36.7156877,3.1848294,29.59,-0.73,-0.85,-0.02,94,96,1.1229263544082642,1.1225850582122803
6,-0.09681589156389236,-2.9983441829681396,0.11676394939422607,36.715666,3.1847913,29.57,-2.18,-3.13,0.04,93,188,3.821631669998169,3.8213162422180176
7,-0.08329986780881882,-2.091325521469116,0.05672589689493179,36.7156358,3.1847356,29.61,-2.24,-3.25,-0.04,93,247,3.9521143436431885,3.9518744945526123
8,-0.06793433427810669,-1.5998672246932983,0.21055078506469727,36.7156135,3.1846731,29.57,-0.07,-2.94,0.02,93,268,2.941462993621826,2.9413907527923584
9,-0.35087448358535767,-0.6510424017906189,0.08706805855035782,36.7156381,3.1846248,29.57,3.72,-3.06,0.0,92,322,4.826296806335449,4.826292991638184
10,-0.5313040614128113,-0.6202494502067566,-0.005483101587742567,36.7157082,3.1845619,29.57,6.5,-4.52,0.0,92,324,7.922773838043213,7.922773361206055
11,-0.4728817045688629,-0.6204045414924622,0.016385341063141823,36.7158242,3.1844614,29.59,7.81,-5.48,0.0,91,324,9.545681953430176,9.545679092407227
12,-0.4077158272266388,-0.6222158670425415,-0.0332840271294117,36.7159304,3.1843677,29.61,7.68,-5.48,-0.01,91,324,9.442915916442871,9.442895889282227
13,-0.04976058751344681,-0.6259331107139587,0.0043908655643463135,36.716038,3.1842725,29.64,5.49,-3.94,0.04,91,324,6.767951488494873,6.76781702041626
14,0.030455639585852623,-1.0362554788589478,-0.26038944721221924,36.7160891,3.1842171,29.71,1.67,-2.91,-0.19,90,300,3.3697705268859863,3.363851547241211
15,-0.36726734042167664,-2.132486581802368,-0.10020462423563004,36.7160771,3.1841507,30.69,-2.91,-4.39,-0.91,90,237,5.351168155670166,5.272961616516113
16,-0.5082604289054871,-2.162782907485962,0.006869674194604158,36.7160226,3.184055,32.51,-4.8,-6.88,-1.43,89,236,8.517495155334473,8.395963668823242
17,-0.45756593346595764,-2.162341594696045,0.03064611926674843,36.7159512,3.183927,34.89,-5.52,-8.01,-1.61,89,236,9.863568305969238,9.730398178100586
18,-0.47560039162635803,-2.164888381958008,-0.028466161340475082,36.7158634,3.1837667,37.76,-5.55,-8.2,-1.58,88,235,10.029326438903809,9.903738975524902
19,-0.4934682250022888,-2.165837049484253,0.02578973025083542,36.7157881,3.1836275,40.23,-5.51,-8.24,-1.58,88,235,10.045876502990723,9.919424057006836
20,-0.4297875165939331,-2.1636297702789307,-0.020869774743914604,36.7157009,3.1834643,43.12,-5.5,-8.23,-1.59,87,236,10.034786224365234,9.90688419342041
21,-0.48351335525512695,-2.163365602493286,-0.020900825038552284,36.7156263,3.1833251,45.6,-5.55,-8.29,-1.61,87,236,10.1116943359375,9.981955528259277
22,-0.4242035448551178,-2.163167953491211,0.020516445860266685,36.7155388,3.183162,48.51,-5.53,-8.28,-1.62,87,235,10.100384712219238,9.968201637268066
23,-0.45394936203956604,-2.164247751235962,-0.025897415354847908,36.7154642,3.1830228,51.02,-5.5,-8.27,-1.62,86,236,10.074241638183594,9.942920684814453
24,-0.4881860315799713,-2.164832353591919,0.0036609815433621407,36.7153894,3.1828825,53.52,-5.48,-8.27,-1.62,86,235,10.054354667663574,9.922711372375488
25,-0.4233867824077606,-2.1649818420410156,0.0036793516483157873,36.7153024,3.1827195,56.42,-5.54,-8.32,-1.64,85,235,10.132747650146484,9.998552322387695
26,-0.4625231921672821,-2.164182662963867,-0.02905348129570484,36.7152276,3.1825798,58.93,-5.54,-8.3,-1.63,85,236,10.120949745178223,9.987990379333496
27,-0.44623997807502747,-2.1648035049438477,0.0429491326212883,36.7151403,3.182417,61.85,-5.51,-8.31,-1.64,84,235,10.111437797546387,9.977296829223633
28,-0.4286385476589203,-2.1637349128723145,-0.013692404143512249,36.7150656,3.1822768,64.35,-5.5,-8.28,-1.64,84,236,10.077377319335938,9.942740440368652
29,-0.3042689859867096,-2.1673858165740967,-0.011974851600825787,36.7149935,3.1821427,66.77,-4.91,-7.29,-1.47,83,235,8.915675163269043,8.793627738952637
30,-0.03741326928138733,-2.1611037254333496,0.00610693171620369,36.7149305,3.1820252,68.81,-3.04,-4.61,-0.72,83,236,5.579930782318115,5.532329559326172
31,-0.1655030995607376,-2.1120169162750244,0.023412911221385002,36.7148968,3.1819578,69.47,-2.17,-3.71,-0.19,83,239,4.309523582458496,4.30514669418335
32,-0.15192116796970367,-2.0861713886260986,-0.025149298831820488,36.7148645,3.1818862,69.55,-1.99,-3.68,0.0,82,240,4.189377307891846,4.189373016357422
33,-0.025572430342435837,-2.087460994720459,0.025156497955322266,36.7148382,3.1818266,69.55,-1.7,-3.14,0.02,82,240,3.5804736614227295,3.5803933143615723
34,0.03878328576683998,-2.265759229660034,-0.07253588736057281,36.7148189,3.1817873,68.91,-1.23,-1.58,0.97,82,230,2.229403495788574,2.00559139251709
35,-0.0070937578566372395,-2.48526668548584,0.010962550528347492,36.714801,3.1817667,66.41,-1.05,-0.8,1.46,81,217,1.974605679512024,1.328910231590271
36,-0.06085973232984543,-2.4780433177948,-0.010883615352213383,36.7147868,3.1817537,64.16,-1.04,-0.82,1.42,81,218,1.9492305517196655,1.3310776948928833
37,-0.021156135946512222,-2.4761228561401367,-0.020225785672664642,36.7147699,3.1817373,61.55,-1.07,-0.87,1.43,80,218,1.9989018440246582,1.388598084449768
38,-0.05593565106391907,-2.4756863117218018,0.024699894711375237,36.7147553,3.1817228,59.31,-1.08,-0.89,1.45,80,218,2.019486665725708,1.403324007987976
39,-0.017297327518463135,-2.4756245613098145,-0.01761215552687645,36.7147405,3.1817081,57.06,-1.09,-0.88,1.45,80,218,2.0250065326690674,1.4098695516586304
40,-0.060477714985609055,-2.4757707118988037,0.01943732239305973,36.7147258,3.1816935,54.82,-1.09,-0.88,1.45,79,218,2.026994228363037,1.4063327312469482
41,-0.050090476870536804,-2.475517988204956,-0.021067943423986435,36.7147085,3.1816763,52.21,-1.07,-0.88,1.47,79,218,2.030052900314331,1.3972692489624023
42,-0.012124565429985523,-2.475950002670288,-0.00989723764359951,36.7146912,3.1816591,49.59,-1.08,-0.88,1.47,79,218,2.0340499877929688,1.4003809690475464
43,-0.05971471220254898,-2.4750568866729736,0.006115185562521219,36.7146766,3.1816444,47.34,-1.07,-0.89,1.47,78,218,2.0307886600494385,1.3977733850479126
44,-0.04877330735325813,-2.475287914276123,-0.023054108023643494,36.7146593,3.1816273,44.72,-1.08,-0.89,1.47,78,218,2.040921211242676,1.4054547548294067
45,-0.02862764522433281,-2.4753975868225098,0.025090433657169342,36.7146446,3.1816126,42.46,-1.07,-0.88,1.47,78,218,2.031151533126831,1.3930312395095825
46,-0.04083244875073433,-2.4755711555480957,-0.025009984150528908,36.7146297,3.1815978,40.21,-1.07,-0.89,1.47,77,218,2.0314135551452637,1.39861261844635
47,-0.00664965994656086,-2.475473642349243,0.00032031137379817665,36.7146125,3.1815807,37.6,-1.07,-0.88,1.48,77,218,2.0353684425354004,1.3957055807113647
48,-0.062013257294893265,-2.475588083267212,0.004271638114005327,36.7145979,3.1815659,35.34,-1.07,-0.89,1.48,76,218,2.036590576171875,1.3988226652145386
49,-0.013278715312480927,-2.475250482559204,0.006608008407056332,36.7145831,3.1815512,33.09,-1.08,-0.88,1.47,76,218,2.0279834270477295,1.3952157497406006
50,-0.10917908698320389,-2.9645230770111084,-0.07431630045175552,36.7145631,3.1815362,30.52,-1.69,-0.36,1.25,76,190,2.1373040676116943,1.7324358224868774
51,-0.22758902609348297,2.670226573944092,-0.06411153078079224,36.7145299,3.1815458,29.57,-3.25,1.5,0.04,75,152,3.586879014968872,3.5866098403930664
52,-0.14349301159381866,2.6726107597351074,0.005427068565040827,36.7144701,3.1815827,29.66,-4.02,2.04,0.0,75,153,4.511491298675537,4.511491298675537
53,-0.06100849062204361,2.891552448272705,0.14653891324996948,36.7144172,3.1816117,29.62,-3.65,0.9,0.05,75,165,3.761488437652588,3.7610368728637695
54,-0.3644305169582367,-2.2115726470947266,0.09878486394882202,36.7143669,3.18159,29.59,-2.98,-3.48,0.02,74,233,4.582503795623779,4.58245325088501
55,-0.5038765668869019,-2.143052339553833,0.023713279515504837,36.7143201,3.1815036,29.59,-4.09,-6.48,0.01,74,237,7.668177127838135,7.668160915374756
56,-0.44044753909111023,-2.1474406719207764,0.020073730498552322,36.7142586,3.1813825,29.6,-4.87,-7.67,0.0,73,236,9.089004516601562,9.089004516601562
57,-0.37130504846572876,-2.151329517364502,0.002272426849231124,36.7141812,3.1812324,29.62,-4.73,-7.33,0.0,73,236,8.731822967529297,8.731820106506348
58,-0.21968048810958862,-2.1471107006073,0.03161156550049782,36.7141224,3.1811185,29.62,-3.91,-6.11,0.02,73,236,7.260435104370117,7.260377883911133
59,-0.29770025610923767,-2.12180757522583,0.021109381690621376,36.7140656,3.1810041,29.59,-3.38,-5.65,0.01,72,238,6.584001064300537,6.583987236022949
60,-0.2553830146789551,-2.1079273223876953,0.020845018327236176,36.7140209,3.1809095,29.59,-3.28,-5.64,0.0,72,239,6.53574275970459,6.535739421844482
61,-0.22501306235790253,-2.1082570552825928,-0.01595066860318184,36.7139765,3.1808146,29.59,-3.18,-5.48,0.0,71,239,6.3443427085876465,6.34434175491333
62,0.14603735506534576,-2.1100387573242188,-0.021167172119021416,36.7139347,3.1807254,29.57,-1.85,-3.13,0.03,71,239,3.6387665271759033,3.638557195663452
63,0.09916039556264877,-2.109445810317993,0.01396380364894867,36.7139209,3.180696,29.58,-0.3,-0.55,-0.02,71,239,0.6379640698432922,0.6376034617424011
64,-0.015425763092935085,-2.1097614765167236,0.018891796469688416,36.713921,3.1806957,29.56,0.16,0.1,0.04,70,239,0.2011794149875641,0.19648759067058563
