timestamp,pitch,yaw,roll,lat,lon,alt,velocity_x,velocity_y,velocity_z,battery,heading,airspeed,groundspeed
0,-0.022526906803250313,-0.051692426204681396,-0.004022560548037291,36.7156067,3.1846299,19.5,-0.02,0.02,0.04,96,357,0.061101872473955154,0.041388705372810364
1,-0.10567980259656906,-0.024932608008384705,0.05038062110543251,36.7156091,3.1846318,19.45,0.64,0.42,0.0,95,358,0.7689977884292603,0.7689977288246155
2,-0.20591674745082855,0.6341536045074463,0.0036568508949130774,36.7156307,3.1846479,19.42,2.57,1.55,-0.03,95,36,3.0121548175811768,3.0119495391845703
3,-0.16733995079994202,0.5286176204681396,0.003129144897684455,36.7156801,3.1846846,19.47,3.37,1.96,-0.03,95,30,3.9084737300872803,3.9082846641540527
4,0.17113783955574036,0.44163626432418823,-0.053465258330106735,36.715722,3.1847135,19.5,2.31,1.04,-0.01,94,25,2.5390493869781494,2.539013624191284
5,-0.1300390213727951,-1.2563679218292236,-0.22821541130542755,36.7157285,3.1846987,19.5,-1.57,-2.56,-0.03,94,288,3.01509690284729,3.0149343013763428
6,-0.15878158807754517,-2.436229944229126,0.006307758390903473,36.7156993,3.1846454,19.55,-2.39,-3.41,0.0,93,220,4.169794082641602,4.169794082641602
7,-0.019934814423322678,-2.0796594619750977,0.13023127615451813,36.7156692,3.184588,19.53,-1.71,-3.27,0.01,93,240,3.694486379623413,3.6944589614868164
8,-0.3469717800617218,-0.8151364922523499,0.1932864785194397,36.7156699,3.1845286,19.51,2.3,-2.81,0.0,93,313,3.6373813152313232,3.637376546859741
9,-0.45653557777404785,-0.6131494641304016,-0.0011813521850854158,36.715725,3.1844735,19.51,5.68,-3.92,0.01,92,324,6.91044807434082,6.910440444946289
10,-0.5354613065719604,-0.6131483316421509,0.017744092270731926,36.7158331,3.1843806,19.53,7.69,-5.28,0.0,92,324,9.334418296813965,9.334417343139648
11,-0.4459021985530853,-0.6162540316581726,0.013901839032769203,36.7159397,3.1842879,19.54,7.92,-5.57,0.0,91,324,9.691760063171387,9.691760063171387
12,-0.2638170123100281,-0.6206792593002319,-0.027137218043208122,36.7160418,3.1841978,19.58,6.86,-4.86,0.0,91,324,8.413975715637207,8.413973808288574
13,0.09548988193273544,-0.74797123670578,-0.11769060045480728,36.7161263,3.1841203,19.58,3.38,-3.1,-0.03,91,317,4.591513633728027,4.591364860534668
14,-0.31491002440452576,-1.9075673818588257,-0.20958685874938965,36.7161431,3.1840701,20.01,-0.99,-3.3,-0.54,90,250,3.490138292312622,3.4478251934051514
15,-0.43833810091018677,-2.18044376373291,-0.004166207276284695,36.716098,3.1839816,21.66,-4.28,-6.0,-1.25,90,235,7.483735084533691,7.377330780029297
16,-0.5104260444641113,-2.170614004135132,-0.008819286711513996,36.716031,3.1838634,23.88,-5.4,-7.75,-1.56,89,235,9.58257007598877,9.453376770019531
17,-0.4324125051498413,-2.1655566692352295,0.03214846923947334,36.7159434,3.1837051,26.74,-5.52,-8.14,-1.58,89,235,9.966395378112793,9.83939266204834
18,-0.44818201661109924,-2.164202928543091,-0.031881727278232574,36.7158682,3.1835659,29.2,-5.56,-8.24,-1.58,88,236,10.077569007873535,9.95138168334961
19,-0.48735126852989197,-2.1650965213775635,-0.01215296145528555,36.7157927,3.1834264,31.67,-5.54,-8.24,-1.59,88,235,10.065879821777344,9.938032150268555
20,-0.4231675863265991,-2.1638317108154297,0.009549181908369064,36.7157053,3.183264,34.56,-5.49,-8.24,-1.61,87,236,10.04327392578125,9.913115501403809
21,-0.4569369852542877,-2.165304660797119,-0.032924946397542953,36.7156307,3.1831247,37.06,-5.54,-8.24,-1.61,87,235,10.070314407348633,9.940680503845215
22,-0.4788954555988312,-2.165952682495117,0.034919366240501404,36.7155435,3.1829623,39.97,-5.54,-8.3,-1.62,87,235,10.114203453063965,9.98358154296875
23,-0.42364606261253357,-2.1656253337860107,-0.00019232624617870897,36.7154684,3.182822,42.46,-5.54,-8.3,-1.62,86,235,10.116472244262695,9.984343528747559
24,-0.4684712290763855,-2.1668219566345215,-0.028344104066491127,36.7153934,3.1826825,44.96,-5.52,-8.26,-1.62,86,235,10.075801849365234,9.94334602355957
25,-0.4465833902359009,-2.167114019393921,0.04114611819386482,36.7153061,3.1825196,47.88,-5.52,-8.29,-1.63,85,235,10.102935791015625,9.969633102416992
26,-0.4249503016471863,-2.1653659343719482,0.0030296817421913147,36.7152312,3.1823797,50.37,-5.53,-8.28,-1.64,85,235,10.094670295715332,9.96013355255127
27,-0.49223917722702026,-2.164586305618286,0.013771792873740196,36.715144,3.1822167,53.29,-5.52,-8.28,-1.64,84,235,10.090059280395508,9.955475807189941
28,-0.35920682549476624,-2.166353940963745,0.02794576995074749,36.7150695,3.1820785,55.78,-5.33,-7.89,-1.58,84,235,9.658675193786621,9.528529167175293
29,-0.09704771637916565,-2.169125556945801,-0.018613331019878387,36.7150053,3.1819599,57.94,-3.98,-5.92,-1.14,84,235,7.231834888458252,7.140262603759766
30,-0.08356814831495285,-2.1359825134277344,0.043207716196775436,36.7149571,3.1818674,59.25,-2.35,-3.8,-0.37,83,237,4.491582870483398,4.476218223571777
31,-0.15492065250873566,-2.0918381214141846,-0.017020273953676224,36.7149281,3.1818051,59.5,-2.03,-3.67,-0.03,83,240,4.202119827270508,4.201963901519775
32,-0.1266154944896698,-2.0876286029815674,0.02850053645670414,36.7149008,3.1817436,59.49,-2.0,-3.66,-0.02,82,240,4.175412654876709,4.175352096557617
33,0.030854668468236923,-2.138059616088867,-0.036200448870658875,36.7148738,3.1816838,59.29,-1.33,-2.17,0.43,82,237,2.5911569595336914,2.554194688796997
34,0.029083792120218277,-2.4499175548553467,-0.014127346687018871,36.7148574,3.181659,57.67,-1.1,-0.97,1.47,82,219,2.088768243789673,1.4754453897476196
35,-0.05153821036219597,-2.4669764041900635,0.02608252316713333,36.7148409,3.1816431,55.01,-1.03,-0.81,1.42,81,218,1.9384167194366455,1.3117083311080933
36,-0.02060849778354168,-2.468824625015259,-0.02165103703737259,36.7148267,3.1816296,52.77,-1.05,-0.84,1.44,81,218,1.9785157442092896,1.355015516281128
37,-0.017609834671020508,-2.469071626663208,0.022822756320238113,36.7148099,3.1816128,50.16,-1.06,-0.88,1.44,81,218,2.00264835357666,1.3839846849441528
38,-0.05071692168712616,-2.469653606414795,-0.02159903571009636,36.7147953,3.1815982,47.91,-1.07,-0.88,1.45,80,218,2.010943651199341,1.3889590501785278
39,-0.027891693636775017,-2.469216823577881,0.028197601437568665,36.7147808,3.1815835,45.67,-1.05,-0.88,1.46,80,218,2.01059889793396,1.381506085395813
40,-0.0627044066786766,-2.4694299697875977,0.010060403496026993,36.7147638,3.1815664,43.05,-1.06,-0.88,1.46,79,218,2.0166008472442627,1.3870034217834473
41,-0.008692524395883083,-2.4693875312805176,0.0008795219473540783,36.7147492,3.1815517,40.8,-1.07,-0.88,1.46,79,218,2.02266001701355,1.3915412425994873
42,-0.03543723374605179,-2.469712495803833,0.03168020397424698,36.7147321,3.1815346,38.19,-1.06,-0.88,1.47,79,218,2.025207281112671,1.3877308368682861
43,-0.021362673491239548,-2.4693586826324463,-0.02315712161362171,36.7147176,3.1815199,35.95,-1.05,-0.88,1.48,78,218,2.0280869007110596,1.3820738792419434
44,-0.04556775465607643,-2.469693660736084,0.02678874507546425,36.714703,3.1815052,33.69,-1.05,-0.88,1.48,78,218,2.0293970108032227,1.3832226991653442
45,-0.0610608272254467,-2.4693169593811035,-0.013567257672548294,36.714686,3.181488,31.07,-1.06,-0.89,1.48,78,218,2.0316996574401855,1.3902864456176758
46,-0.013110106810927391,-2.4695632457733154,0.021594947203993797,36.7146714,3.1814732,28.82,-1.06,-0.88,1.47,77,218,2.0238070487976074,1.3815315961837769
47,-0.05803827941417694,-2.469898223876953,0.017536018043756485,36.7146544,3.1814561,26.19,-1.05,-0.88,1.47,77,218,2.0218417644500732,1.3798648118972778
48,-0.010220803320407867,-2.469566822052002,-0.009048023261129856,36.7146399,3.1814414,23.93,-1.06,-0.88,1.47,77,218,2.024261474609375,1.3883286714553833
49,-0.08644355088472366,-2.506850242614746,-0.032967232167720795,36.7146251,3.1814267,21.68,-1.15,-0.85,1.47,76,216,2.05612850189209,1.434417724609375
50,-0.23396822810173035,2.7972421646118164,-0.1166982650756836,36.7145971,3.1814218,19.65,-2.58,0.77,0.46,76,160,2.741152286529541,2.70086407661438
51,-0.21362774074077606,2.67887020111084,0.02696514129638672,36.7145518,3.1814471,19.55,-3.9,1.92,-0.05,75,153,4.350500583648682,4.350147724151611
52,-0.11414886265993118,2.7139039039611816,0.05303893983364105,36.7144879,3.1814861,19.58,-3.94,1.73,0.06,75,155,4.31273078918457,4.312187194824219
53,-0.10543320327997208,-2.808590888977051,0.2836754322052002,36.7144391,3.1814964,19.54,-3.09,-1.02,0.03,75,199,3.2614104747772217,3.261187791824341
54,-0.4654770493507385,-2.1869471073150635,0.05211221054196358,36.7143979,3.1814459,19.53,-3.28,-4.9,0.02,74,234,5.901310920715332,5.90126895904541
55,-0.4575609862804413,-2.1562917232513428,0.016945457085967064,36.7143345,3.1813218,19.53,-4.63,-7.35,0.0,74,236,8.690787315368652,8.69078540802002
56,-0.44596999883651733,-2.1509461402893066,-0.03531903773546219,36.7142689,3.1811931,19.55,-4.95,-7.72,0.0,73,236,9.180527687072754,9.180526733398438
57,-0.268528550863266,-2.1516528129577637,0.026333516463637352,36.7141947,3.1810499,19.56,-4.3,-6.66,0.01,73,236,7.932822227478027,7.932805061340332
58,-0.2722621262073517,-2.13283634185791,-0.014939028769731522,36.7141422,3.1809464,19.54,-3.54,-5.74,0.02,73,237,6.752246856689453,6.752197265625
59,-0.24983157217502594,-2.104605197906494,0.026694661006331444,36.7140889,3.1808346,19.53,-3.23,-5.62,0.0,72,239,6.487195014953613,6.487194061279297
60,-0.28199031949043274,-2.0991780757904053,-0.02186439000070095,36.7140454,3.1807396,19.53,-3.21,-5.66,0.0,72,239,6.514827728271484,6.514825820922852
61,-0.06401200592517853,-2.1004724502563477,0.030233679339289665,36.7140041,3.1806497,19.54,-2.67,-4.67,0.0,71,239,5.385311603546143,5.385306358337402
62,0.12235476821660995,-2.1006221771240234,-0.008455319330096245,36.7139755,3.1805875,19.5,-0.83,-1.46,0.0,71,239,1.6871346235275269,1.6871051788330078
63,0.0724400207400322,-2.1005375385284424,0.013180730864405632,36.7139715,3.1805785,19.53,0.06,0.09,0.0,71,239,0.11175709217786789,0.1117560863494873
64,-0.036261457949876785,-2.0630598068237305,0.1713879406452179,36.7139753,3.1805793,19.48,0.72,-0.35,-0.01,70,241,0.8054974675178528,0.8053592443466187
