timestamp,pitch,yaw,roll,lat,lon,alt,velocity_x,velocity_y,velocity_z,battery,heading,airspeed,groundspeed
0,0.0172377061098814,-0.016572309657931328,-0.023347260430455208,36.7156067,3.1846299,27.17,-0.03,0.02,0.11,96,359,0.12293706089258194,0.03754889965057373
1,-0.07577629387378693,-0.01458763051778078,0.13097615540027618,36.715608,3.1846322,27.07,0.37,0.54,0.0,95,359,0.6612269878387451,0.6612264513969421
2,-0.2592289447784424,1.3555995225906372,-0.09913239628076553,36.7156261,3.1846622,27.03,2.1,2.7,-0.05,95,77,3.4315059185028076,3.4310412406921387
3,-0.19692595303058624,0.8964155316352844,-0.033356353640556335,36.7156614,3.1847185,27.1,2.95,3.77,-0.07,94,51,4.791480541229248,4.790895938873291
4,-0.13539768755435944,0.8905472159385681,0.020560255274176598,36.7157023,3.1847826,27.16,2.9,3.67,-0.05,94,51,4.685881614685059,4.6855621337890625
5,0.31560781598091125,0.823352038860321,-0.0568326860666275,36.7157353,3.184833,27.19,0.61,0.65,0.0,94,47,0.8925397992134094,0.8925397992134094
6,0.014006629586219788,-0.6285153031349182,-0.21794678270816803,36.7157248,3.1848116,27.22,-1.9,-2.74,-0.04,93,323,3.33960223197937,3.339289426803589
7,-0.1492713987827301,-2.357079267501831,0.05150322988629341,36.7156904,3.1847495,27.24,-2.26,-3.25,0.01,93,224,3.9656763076782227,3.9656476974487305
8,-0.01618899777531624,-1.8987146615982056,0.11141452938318253,36.7156649,3.1846945,27.22,-1.17,-3.09,0.01,93,251,3.3130605220794678,3.313004732131958
9,-0.327812135219574,-0.7778616547584534,0.17935627698898315,36.7156707,3.1846459,27.21,2.34,-2.74,0.0,92,315,3.611157178878784,3.6111514568328857
10,-0.514503538608551,-0.6042760610580444,-0.02069033496081829,36.7157388,3.1845803,27.21,6.04,-4.19,0.01,92,325,7.359164714813232,7.359157085418701
11,-0.5165206789970398,-0.6165163516998291,0.036631543189287186,36.7158328,3.1844991,27.23,7.64,-5.29,0.0,91,324,9.300259590148926,9.300257682800293
12,-0.448324590921402,-0.6197316646575928,-0.024815551936626434,36.7159568,3.1843909,27.25,7.84,-5.52,0.0,91,324,9.59799575805664,9.597994804382324
13,-0.2321312576532364,-0.6211926937103271,0.01727466844022274,36.7160562,3.1843034,27.29,6.52,-4.62,0.01,91,324,7.996836185455322,7.996827125549316
14,0.09225926548242569,-0.7434865832328796,-0.14799602329730988,36.716126,3.1842391,27.28,3.41,-3.1,-0.02,90,317,4.618926525115967,4.618837833404541
15,-0.3154469132423401,-2.056490898132324,-0.11099124699831009,36.7161404,3.1841796,27.86,-1.61,-3.57,-0.64,90,242,3.9753730297088623,3.923213481903076
16,-0.4683613181114197,-2.18233060836792,-0.01951485499739647,36.7160986,3.1841014,29.34,-4.26,-5.98,-1.25,89,234,7.451010227203369,7.345162391662598
17,-0.48409342765808105,-2.166883707046509,0.04148930683732033,36.7160195,3.183961,31.95,-5.46,-7.87,-1.59,89,235,9.720184326171875,9.588488578796387
18,-0.42463019490242004,-2.1676783561706543,-0.004858128260821104,36.7159441,3.1838245,34.42,-5.54,-8.11,-1.57,88,235,9.951468467712402,9.825483322143555
19,-0.47019121050834656,-2.165024995803833,-0.02759629115462303,36.715869,3.1836857,36.88,-5.56,-8.24,-1.57,88,235,10.066454887390137,9.941832542419434
20,-0.4372354745864868,-2.167109966278076,0.035177771002054214,36.715781,3.1835229,39.76,-5.56,-8.25,-1.6,87,235,10.085579872131348,9.957706451416016
21,-0.41840121150016785,-2.165012836456299,-0.014652925543487072,36.7157061,3.1833836,42.25,-5.49,-8.24,-1.6,87,235,10.041147232055664,9.912595748901367
22,-0.48303958773612976,-2.1640937328338623,0.018864070996642113,36.715619,3.1832211,45.15,-5.52,-8.26,-1.6,87,236,10.073312759399414,9.943939208984375
23,-0.477465957403183,-2.1652064323425293,0.030919237062335014,36.7155564,3.1831047,47.23,-5.53,-8.28,-1.61,86,235,10.089420318603516,9.958992958068848
24,-0.4442557692527771,-2.1654133796691895,-0.02797516994178295,36.7154693,3.1829419,50.14,-5.51,-8.28,-1.62,86,235,10.083927154541016,9.952375411987305
25,-0.4757605195045471,-2.1686766147613525,0.04020655155181885,36.7153819,3.1827792,53.04,-5.56,-8.31,-1.64,85,235,10.143877983093262,10.009978294372559
26,-0.42532646656036377,-2.1659953594207764,0.01903972215950489,36.7153067,3.182639,55.55,-5.52,-8.28,-1.63,85,235,10.090400695800781,9.95650577545166
27,-0.4921937584877014,-2.1646056175231934,-0.005392308812588453,36.7152196,3.182476,58.47,-5.52,-8.27,-1.63,84,235,10.085262298583984,9.95248794555664
28,-0.4572993516921997,-2.1653149127960205,0.03656915947794914,36.7151446,3.1823364,60.97,-5.53,-8.28,-1.63,84,235,10.091510772705078,9.957670211791992
29,-0.33855488896369934,-2.168790340423584,-0.027277082204818726,36.7150584,3.1821763,63.86,-5.19,-7.68,-1.53,83,235,9.654088020324707,9.524457931518555
30,-0.09987310320138931,-2.1685197353363037,0.025428442284464836,36.7149971,3.1820627,65.9,-3.68,-5.5,-1.02,83,235,6.705658912658691,6.626959323883057
31,-0.07136130332946777,-2.137197494506836,0.009054659865796566,36.7149573,3.1819863,66.94,-2.36,-3.8,-0.37,83,237,4.49625301361084,4.480639934539795
32,-0.1445491909980774,-2.089399576187134,0.03838064521551132,36.7149238,3.1819139,67.2,-2.0,-3.67,-0.02,82,240,4.19059419631958,4.1905293464660645
33,-0.09141393005847931,-2.088345527648926,-0.024683931842446327,36.7148967,3.1818525,67.19,-1.96,-3.6,-0.03,82,240,4.103473663330078,4.1033477783203125
34,0.07370743155479431,-2.177812099456787,-0.035546477884054184,36.714871,3.1817966,66.86,-1.27,-1.9,0.62,82,235,2.377866744995117,2.2940914630889893
35,-0.021816980093717575,-2.4730072021484375,-0.02512473240494728,36.7148551,3.1817746,65.0,-1.06,-0.88,1.5,81,218,2.04337739944458,1.385655403137207
36,-0.01125679723918438,-2.4663050174713135,0.016538992524147034,36.7148411,3.1817616,62.72,-1.03,-0.8,1.41,81,218,1.9300789833068848,1.3073711395263672
37,-0.05266523361206055,-2.4700186252593994,0.026079533621668816,36.7148245,3.1817456,60.11,-1.05,-0.86,1.43,80,218,1.9779455661773682,1.3623783588409424
38,-0.015954120084643364,-2.4694528579711914,-0.02128981612622738,36.7148101,3.1817311,57.87,-1.07,-0.87,1.43,80,218,1.9978930950164795,1.388363242149353
39,-0.019883686676621437,-2.469043493270874,0.026477742940187454,36.7147931,3.181714,55.25,-1.06,-0.87,1.44,80,218,2.0013930797576904,1.3826144933700562
40,-0.012733330018818378,-2.469644784927368,-0.012863988988101482,36.7147809,3.1817019,53.39,-1.07,-0.87,1.45,79,218,2.009162664413452,1.384903073310852
41,-0.023644205182790756,-2.469539165496826,0.026299767196178436,36.714764,3.1816848,50.77,-1.06,-0.87,1.46,79,218,2.0156636238098145,1.3849575519561768
42,-0.057657040655612946,-2.4702036380767822,0.012722252868115902,36.714747,3.1816676,48.16,-1.07,-0.89,1.47,79,218,2.0366482734680176,1.401458501815796
43,-0.007536543067544699,-2.4691367149353027,0.0004734698450192809,36.7147323,3.1816529,45.91,-1.06,-0.87,1.47,78,218,2.023282051086426,1.3836565017700195
44,-0.06033296883106232,-2.4697604179382324,0.0069707599468529224,36.7147177,3.1816382,43.66,-1.06,-0.88,1.47,78,218,2.0249009132385254,1.3847181797027588
45,-0.03134309500455856,-2.4696524143218994,-0.03173473849892616,36.7147007,3.181621,41.03,-1.06,-0.88,1.47,78,218,2.025325059890747,1.3858388662338257
46,-0.039589352905750275,-2.4696884155273438,0.025783009827136993,36.7146862,3.1816063,38.78,-1.05,-0.88,1.47,77,218,2.018373727798462,1.3758114576339722
47,-0.0580890066921711,-2.46954345703125,-0.0017796435859054327,36.7146692,3.1815891,36.16,-1.06,-0.89,1.47,77,218,2.0229380130767822,1.3869279623031616
48,-0.0081472247838974,-2.4693846702575684,0.010922973975539207,36.7146545,3.1815743,33.91,-1.06,-0.87,1.47,76,218,2.0208914279937744,1.3833519220352173
49,-0.06304556876420975,-2.469175100326538,-0.014971588738262653,36.7146399,3.1815597,31.66,-1.06,-0.88,1.47,76,218,2.02247953414917,1.384942650794983
50,-0.055166397243738174,-2.587554693222046,-0.08607972413301468,36.7146225,3.1815428,29.04,-1.26,-0.76,1.46,76,211,2.082083225250244,1.4813686609268188
51,-0.24338451027870178,2.804914712905884,-0.06387336552143097,36.7145975,3.1815399,27.36,-2.56,0.74,0.48,75,160,2.7186310291290283,2.674830913543701
52,-0.2175007164478302,2.6802115440368652,-0.025204671546816826,36.7145434,3.1815703,27.27,-4.0,1.98,-0.06,75,153,4.471536636352539,4.470992565155029
53,-0.07714121788740158,2.713636875152588,0.09336242824792862,36.7144882,3.181604,27.28,-3.94,1.74,0.06,75,155,4.313586235046387,4.313076019287109
54,-0.25783514976501465,-2.6168320178985596,0.2651538848876953,36.7144325,3.1816115,27.23,-2.96,-1.68,0.03,74,210,3.4098033905029297,3.4096486568450928
55,-0.43469077348709106,-2.168757200241089,0.04431971535086632,36.7143909,3.181551,27.23,-3.45,-5.4,0.02,74,235,6.420357704162598,6.420319080352783
56,-0.5048520565032959,-2.154388427734375,-0.023257093504071236,36.7143353,3.1814413,27.23,-4.62,-7.35,0.0,73,236,8.688838958740234,8.688837051391602
57,-0.39097166061401367,-2.151632308959961,0.012890319339931011,36.7142585,3.181291,27.25,-4.94,-7.66,0.0,73,236,9.119861602783203,9.119860649108887
58,-0.28553515672683716,-2.152965784072876,-0.021779591217637062,36.7141951,3.1811692,27.27,-4.3,-6.66,0.02,73,236,7.931710720062256,7.931682109832764
59,-0.2500529885292053,-2.127633810043335,0.029385697096586227,36.714135,3.1810499,27.24,-3.47,-5.72,0.03,72,238,6.699047565460205,6.698980331420898
60,-0.29206931591033936,-2.1048526763916016,-0.013354468159377575,36.7140897,3.1809541,27.24,-3.27,-5.64,0.01,72,239,6.528030872344971,6.5280232429504395
61,-0.27264946699142456,-2.0997228622436523,0.03254963085055351,36.7140458,3.1808587,27.23,-3.22,-5.66,0.0,71,239,6.519495964050293,6.519489288330078
62,-0.044798098504543304,-2.10019588470459,-0.010012945160269737,36.7139986,3.180756,27.23,-2.48,-4.34,0.02,71,239,5.001976490020752,5.001932144165039
63,0.17752188444137573,-2.1010730266571045,0.014878354966640472,36.7139756,3.1807059,27.2,-0.84,-1.48,0.0,71,239,1.7091095447540283,1.7090984582901
64,4.9544076318852603e-05,-2.10062313079834,0.022415831685066223,36.7139717,3.1806969,27.22,0.09,0.14,0.0,70,239,0.17786641418933868,0.17774736881256104
65,-0.004289594478905201,-2.06384015083313,0.11503482609987259,36.7139752,3.1806976,27.18,0.69,-0.35,-0.01,70,241,0.7802020907402039,0.7800503373146057
