timestamp,pitch,yaw,roll,lat,lon,alt,velocity_x,velocity_y,velocity_z,battery,heading,airspeed,groundspeed
0,-0.02346951887011528,-0.021383484825491905,0.008511344902217388,36.7156066,3.18463,17.8,-0.02,0.03,-0.01,96,358,0.039321769028902054,0.036733511835336685
1,0.015310601331293583,-0.019564112648367882,0.10119308531284332,36.7156068,3.1846327,17.84,0.03,0.61,-0.01,95,358,0.6183379292488098,0.6182143688201904
2,-0.12887057662010193,1.8827296495437622,-0.050379812717437744,36.7156094,3.1846654,17.81,0.26,2.74,-0.03,95,107,2.7542877197265625,2.7540674209594727
3,-0.11994755268096924,1.3030476570129395,0.0204476248472929,36.7156136,3.1847169,17.85,0.31,3.19,-0.02,95,74,3.2127366065979004,3.2126312255859375
4,0.2333463728427887,1.7953779697418213,0.14673379063606262,36.7156151,3.1847599,17.86,-0.38,1.21,0.0,94,102,1.276822566986084,1.276821255683899
5,-0.18748746812343597,-2.555373191833496,0.1253078728914261,36.7155941,3.1847369,17.86,-2.11,-3.03,-0.04,94,213,3.6989474296569824,3.698699474334717
6,-0.17544583976268768,-2.1771364212036133,-2.187199061154388e-05,36.7155633,3.1846803,17.89,-2.32,-3.43,0.0,93,235,4.151294231414795,4.1512885093688965
7,0.010832531377673149,-1.8655756711959839,0.1746181696653366,36.7155383,3.1846233,17.87,-0.94,-3.17,0.01,93,253,3.3145790100097656,3.3145415782928467
8,-0.3900822401046753,-0.6649224162101746,0.13131868839263916,36.7155563,3.1845652,17.86,3.43,-3.01,0.0,93,321,4.572925090789795,4.572924613952637
9,-0.48009687662124634,-0.6144142150878906,-0.01305584516376257,36.715624,3.1845036,17.86,6.37,-4.44,0.0,92,324,7.77449893951416,7.77449893951416
10,-0.5161864757537842,-0.619714617729187,0.02990536019206047,36.7157386,3.1844045,17.88,7.84,-5.48,0.0,92,324,9.570582389831543,9.570582389831543
11,-0.39357125759124756,-0.6207165718078613,0.001120376749895513,36.7158455,3.1843106,17.9,7.74,-5.5,-0.01,91,324,9.500190734863281,9.500178337097168
12,-0.11335162818431854,-0.6261353492736816,0.018390849232673645,36.7159553,3.184213,17.93,5.7,-4.09,0.03,91,324,7.021416187286377,7.021310329437256
13,0.09922421723604202,-0.969619870185852,-0.2408754974603653,36.7160102,3.1841563,17.98,2.03,-2.92,-0.15,91,304,3.569460153579712,3.5658833980560303
14,-0.3774833083152771,-2.111715793609619,-0.07609082758426666,36.7160086,3.1841031,18.67,-2.16,-3.9,-0.75,90,239,4.524857521057129,4.462026119232178
15,-0.4633365273475647,-2.1632134914398193,-0.03210480138659477,36.7159508,3.1839994,20.63,-4.7,-6.73,-1.4,90,236,8.334859848022461,8.215047836303711
16,-0.5069003701210022,-2.1663310527801514,0.01419457420706749,36.7158801,3.1838731,22.98,-5.49,-7.96,-1.61,89,235,9.813383102416992,9.679756164550781
17,-0.4203459322452545,-2.163567543029785,0.01644560880959034,36.7157923,3.1837126,25.86,-5.52,-8.19,-1.58,89,236,10.011807441711426,9.885396957397461
18,-0.47272688150405884,-2.1635406017303467,-0.0334148108959198,36.7157172,3.1835731,28.33,-5.53,-8.22,-1.58,88,236,10.038782119750977,9.913145065307617
19,-0.4901616871356964,-2.165400981903076,0.017910275608301163,36.7156423,3.1834342,30.8,-5.53,-8.26,-1.6,88,235,10.075629234313965,9.947661399841309
20,-0.42733195424079895,-2.1617226600646973,-0.01772170513868332,36.7155552,3.1832713,33.7,-5.5,-8.28,-1.61,87,236,10.080824851989746,9.950982093811035
21,-0.48267731070518494,-2.1630892753601074,-0.03242243453860283,36.7154804,3.1831316,36.2,-5.53,-8.24,-1.6,87,236,10.065574645996094,9.936147689819336
22,-0.439227819442749,-2.164804220199585,0.0339326411485672,36.7153931,3.182969,39.11,-5.49,-8.28,-1.62,87,235,10.07491683959961,9.943415641784668
23,-0.4267539381980896,-2.1623857021331787,0.0184730663895607,36.7153312,3.1828526,41.19,-5.51,-8.31,-1.63,86,236,10.11387825012207,9.980929374694824
24,-0.4892003834247589,-2.1653823852539062,-0.0020172407384961843,36.7152436,3.182689,44.11,-5.53,-8.29,-1.62,86,235,10.101428985595703,9.969820976257324
25,-0.4271164536476135,-2.163672685623169,0.01826600730419159,36.7151565,3.1825261,47.03,-5.5,-8.26,-1.63,85,236,10.061420440673828,9.927841186523438
26,-0.46156010031700134,-2.1638293266296387,-0.031846024096012115,36.7150819,3.1823865,49.52,-5.52,-8.31,-1.64,85,236,10.116196632385254,9.982337951660156
27,-0.45279642939567566,-2.1648900508880615,0.039248593151569366,36.7149946,3.182223,52.45,-5.51,-8.28,-1.64,84,235,10.088628768920898,9.953810691833496
28,-0.27096250653266907,-2.1683127880096436,-0.005719861947000027,36.7149218,3.182088,54.9,-5.0,-7.43,-1.49,84,235,9.086240768432617,8.963122367858887
29,-0.10100463777780533,-2.1664891242980957,-0.0015619498444721103,36.7148643,3.1819809,56.79,-3.38,-5.1,-0.9,84,235,6.194001197814941,6.127951622009277
30,-0.1197807788848877,-2.1154351234436035,0.0018586678197607398,36.7148223,3.1818983,57.74,-2.19,-3.71,-0.22,83,238,4.324213027954102,4.318304538726807
31,-0.17144067585468292,-2.087307929992676,0.023563725873827934,36.7147945,3.1818366,57.85,-1.99,-3.67,-0.01,83,240,4.182785987854004,4.182772636413574
32,-0.03892318531870842,-2.0871758460998535,-0.021713025867938995,36.7147634,3.1817664,57.84,-1.78,-3.27,0.0,82,240,3.7300257682800293,3.730024576187134
33,0.03803788870573044,-2.232020854949951,-0.029139744117856026,36.7147434,3.1817246,57.32,-1.23,-1.66,0.86,82,232,2.2464096546173096,2.0745441913604736
34,-0.010068487375974655,-2.4857101440429688,-0.0349312499165535,36.7147279,3.1817053,55.26,-1.03,-0.81,1.48,82,217,1.9875074625015259,1.3207913637161255
35,-0.01423185970634222,-2.472245216369629,0.0009903960162773728,36.7147116,3.1816902,52.63,-1.04,-0.82,1.41,81,218,1.944679856300354,1.3299953937530518
36,-0.062314536422491074,-2.4701602458953857,0.0034377656411379576,36.7146974,3.1816762,50.39,-1.05,-0.88,1.43,81,218,1.992027997970581,1.3771588802337646
37,-0.030188219621777534,-2.4698033332824707,-0.025700092315673828,36.7146804,3.1816592,47.77,-1.07,-0.88,1.44,81,218,2.0042099952697754,1.3939317464828491
38,-0.04468996450304985,-2.4695661067962646,0.0313728041946888,36.7146658,3.1816446,45.53,-1.06,-0.87,1.44,80,218,2.001450777053833,1.3817014694213867
39,-0.02881438657641411,-2.469618558883667,-0.02129366621375084,36.7146513,3.1816301,43.29,-1.07,-0.88,1.46,80,218,2.019746780395508,1.394769549369812
40,-0.011587195098400116,-2.4693539142608643,0.012174779549241066,36.7146343,3.1816129,40.67,-1.07,-0.87,1.46,79,218,2.021911144256592,1.3906704187393188
41,-0.057364609092473984,-2.4694623947143555,-0.013729137368500233,36.7146197,3.1815982,38.42,-1.06,-0.89,1.46,79,218,2.0221807956695557,1.3921895027160645
42,-0.019989244639873505,-2.4702155590057373,-0.01938754692673683,36.7146027,3.1815811,35.81,-1.06,-0.88,1.47,79,218,2.0262370109558105,1.3875958919525146
43,-0.0590766966342926,-2.4693777561187744,0.017642207443714142,36.7145881,3.1815663,33.56,-1.06,-0.89,1.47,78,218,2.0299558639526367,1.3914382457733154
44,-0.05237274989485741,-2.4693987369537354,-0.017909429967403412,36.7145711,3.1815491,30.93,-1.06,-0.89,1.47,78,218,2.0269463062286377,1.3920137882232666
45,-0.020763350650668144,-2.4693045616149902,0.027029093354940414,36.7145565,3.1815344,28.69,-1.06,-0.88,1.47,78,218,2.0256924629211426,1.3838820457458496
46,-0.047217804938554764,-2.4696707725524902,-0.021996978670358658,36.7145419,3.1815197,26.44,-1.07,-0.88,1.47,77,218,2.0306203365325928,1.3908854722976685
47,-0.010551589541137218,-2.4693963527679443,-0.004208971746265888,36.7145249,3.1815025,23.81,-1.06,-0.87,1.47,77,218,2.0192983150482178,1.3815470933914185
48,-0.06196831166744232,-2.46956467628479,0.010719754733145237,36.7145103,3.1814878,21.56,-1.05,-0.88,1.47,77,218,2.0158705711364746,1.3777506351470947
49,-0.05223410576581955,-2.720125198364258,-0.08832306414842606,36.7144948,3.1814738,19.32,-1.43,-0.65,1.41,76,204,2.120929002761841,1.577632188796997
50,-0.2272261381149292,2.6817867755889893,-0.011077024973928928,36.7144598,3.1814787,17.86,-3.15,1.37,0.09,76,153,3.4384047985076904,3.437206983566284
51,-0.18280591070652008,2.6795570850372314,-0.035922251641750336,36.7144094,3.1815089,17.94,-4.05,2.03,-0.05,75,153,4.539181232452393,4.538888454437256
52,-0.01673891767859459,2.8410258293151855,0.1423027515411377,36.7143461,3.1815454,17.91,-3.75,1.16,0.06,75,162,3.9356374740600586,3.935145139694214
53,-0.33627015352249146,-2.4055984020233154,0.20043319463729858,36.714301,3.1815389,17.88,-2.93,-2.41,0.02,75,222,3.799776792526245,3.799671173095703
54,-0.45127883553504944,-2.1397881507873535,-0.01540142297744751,36.7142493,3.1814509,17.88,-3.93,-6.27,0.01,74,236,6.943925380706787,6.943881988525391
55,-0.5106276273727417,-2.1467394828796387,-0.010163996368646622,36.7141893,3.1813321,17.89,-4.83,-7.62,0.0,74,237,9.027700424194336,9.02769947052002
56,-0.38804885745048523,-2.15045428276062,0.023984776809811592,36.7141224,3.1812022,17.9,-4.89,-7.56,0.0,73,236,9.009268760681152,9.009264945983887
57,-0.26649171113967896,-2.1489152908325195,-0.0003928745863959193,36.7140513,3.1810652,17.91,-3.99,-6.23,0.03,73,236,7.4033894538879395,7.403321266174316
58,-0.2582542896270752,-2.1223976612091064,0.04249061271548271,36.7140022,3.1809666,17.89,-3.41,-5.68,0.02,73,238,6.634343147277832,6.634294033050537
59,-0.30716854333877563,-2.101486921310425,0.0032464470714330673,36.7139502,3.1808554,17.89,-3.22,-5.65,0.01,72,239,6.513158798217773,6.513147354125977
60,-0.19955123960971832,-2.0992865562438965,0.0258912593126297,36.7139065,3.1807601,17.89,-3.17,-5.55,0.0,72,239,6.3993988037109375,6.399399280548096
61,0.017775962129235268,-2.100459098815918,-0.017733536660671234,36.7138683,3.1806773,17.88,-2.25,-3.94,0.03,72,239,4.54280424118042,4.542675018310547
62,0.15651348233222961,-2.1006252765655518,-0.019097035750746727,36.7138479,3.1806325,17.86,-0.42,-0.74,-0.02,71,239,0.8596677780151367,0.8594256043434143
63,-0.022311696782708168,-2.100846767425537,0.015400220640003681,36.7138471,3.1806304,17.87,0.11,0.14,0.02,71,239,0.18730342388153076,0.18583136796951294
