timestamp,pitch,yaw,roll,lat,lon,alt,velocity_x,velocity_y,velocity_z,battery,heading,airspeed,groundspeed
0,-0.006082065869122744,0.04126850515604019,-0.02303508296608925,36.7156066,3.18463,13.42,-0.03,0.02,-0.03,96,2,0.0487789623439312,0.03745320811867714
1,-0.08808068186044693,0.06173117831349373,0.10628588497638702,36.7156086,3.1846322,13.43,0.53,0.5,-0.01,95,3,0.7365632653236389,0.7363088726997375
2,-0.2197878062725067,0.9020898938179016,-0.03159821033477783,36.7156274,3.1846517,13.43,2.19,1.88,-0.02,95,51,2.8962693214416504,2.8961782455444336
3,-0.1082245334982872,0.714716374874115,-0.03200870007276535,36.7156678,3.1846953,13.44,2.72,2.29,0.0,95,40,3.558371067047119,3.5583574771881104
4,0.23575343191623688,0.5323001146316528,-0.053957127034664154,36.7156987,3.184725,13.44,1.27,0.67,0.0,94,30,1.4464876651763916,1.446470022201538
5,-0.17793063819408417,-1.3436670303344727,-0.1747666895389557,36.7156904,3.184698,13.47,-2.03,-2.98,0.02,94,283,3.616288661956787,3.6162312030792236
6,-0.12503618001937866,-2.399242401123047,0.0036831230390816927,36.7156596,3.1846424,13.46,-2.35,-3.39,-0.06,93,222,4.1326093673706055,4.1320481300354
7,-0.023836717009544373,-1.971829891204834,0.18080724775791168,36.7156327,3.1845858,13.46,-1.18,-3.17,0.04,93,247,3.3930342197418213,3.3927276134490967
8,-0.38956892490386963,-0.6821524500846863,0.09814432263374329,36.715646,3.1845281,13.43,3.16,-2.91,0.0,93,320,4.303379535675049,4.303379535675049
9,-0.4854571223258972,-0.6083973050117493,0.0345364473760128,36.7157105,3.1844689,13.43,6.2,-4.3,0.0,92,325,7.551938533782959,7.551935195922852
10,-0.48995181918144226,-0.6143822073936462,-0.02717502787709236,36.7158062,3.1843865,13.45,7.71,-5.34,0.0,92,324,9.38770580291748,9.38770580291748
11,-0.4527141749858856,-0.6188366413116455,0.028897229582071304,36.7159307,3.1842779,13.47,7.83,-5.52,0.0,91,324,9.583442687988281,9.583439826965332
12,-0.14426040649414062,-0.6217880249023438,-0.027583573013544083,36.7160432,3.1841787,13.51,5.99,-4.25,0.03,91,324,7.355086803436279,7.355017185211182
13,0.08805925399065018,-0.8782097101211548,-0.16796573996543884,36.7161031,3.1841199,13.53,2.47,-2.95,-0.11,91,309,3.858405828475952,3.856708526611328
14,-0.3551449775695801,-2.0818142890930176,-0.1576366424560547,36.7161072,3.1840681,14.13,-1.83,-3.68,-0.68,90,240,4.175714015960693,4.119623184204102
15,-0.44469213485717773,-2.1694324016571045,0.024900060147047043,36.7160531,3.1839693,16.01,-4.57,-6.51,-1.36,90,235,8.07898235321045,7.963108539581299
16,-0.4725656509399414,-2.167259454727173,-0.02638068236410618,36.7159836,3.1838455,18.32,-5.49,-7.93,-1.6,89,235,9.789799690246582,9.657648086547852
17,-0.46624666452407837,-2.16452693939209,0.033459413796663284,36.7158956,3.1836852,21.2,-5.51,-8.16,-1.57,89,235,9.978269577026367,9.852760314941406
18,-0.4265793561935425,-2.1633353233337402,-0.004351124633103609,36.7158206,3.1835459,23.66,-5.53,-8.23,-1.58,88,236,10.046629905700684,9.921595573425293
19,-0.47275683283805847,-2.162963390350342,-0.03326520323753357,36.7157458,3.1834065,26.13,-5.54,-8.25,-1.59,88,236,10.07051944732666,9.944162368774414
20,-0.443679541349411,-2.166881799697876,0.037438489496707916,36.7156583,3.183244,29.02,-5.53,-8.27,-1.61,88,235,10.086999893188477,9.956393241882324
21,-0.4190320670604706,-2.163618564605713,-0.007365176919847727,36.7155836,3.1831043,31.52,-5.49,-8.28,-1.61,87,236,10.070030212402344,9.939703941345215
22,-0.48479947447776794,-2.1637942790985107,0.019957253709435463,36.7154967,3.1829415,34.43,-5.52,-8.28,-1.62,87,236,10.088065147399902,9.956700325012207
23,-0.4259397089481354,-2.1636602878570557,0.02487034723162651,36.7154217,3.1828017,36.93,-5.52,-8.29,-1.63,86,236,10.102862358093262,9.969728469848633
24,-0.446046382188797,-2.165616035461426,-0.02732524462044239,36.7153471,3.1826619,39.43,-5.5,-8.28,-1.63,86,235,10.08286190032959,9.950129508972168
25,-0.47130176424980164,-2.166229486465454,0.03853803128004074,36.7152599,3.182499,42.35,-5.52,-8.31,-1.63,85,235,10.116976737976074,9.983649253845215
26,-0.4230412244796753,-2.1634421348571777,0.004320245236158371,36.7151851,3.1823588,44.86,-5.52,-8.29,-1.63,85,236,10.097622871398926,9.96377944946289
27,-0.4902181327342987,-2.1661276817321777,0.014151851646602154,36.7150977,3.1821957,47.79,-5.51,-8.28,-1.63,84,235,10.084230422973633,9.95134162902832
28,-0.31244248151779175,-2.167677164077759,0.032138388603925705,36.7150247,3.1820594,50.24,-5.1,-7.58,-1.51,84,235,9.26547622680664,9.141141891479492
29,-0.0700981467962265,-2.167405128479004,-0.018485790118575096,36.714965,3.1819486,52.22,-3.57,-5.36,-0.97,84,235,6.517816543579102,6.4437384605407715
30,-0.11929052323102951,-2.130122184753418,0.04032668471336365,36.7149208,3.181863,53.28,-2.27,-3.72,-0.26,83,237,4.3727030754089355,4.3647661209106445
31,-0.16702237725257874,-2.1039626598358154,-0.012967935763299465,36.7148917,3.1818014,53.42,-2.07,-3.65,-0.01,83,239,4.20540189743042,4.205370903015137
32,-0.024499965831637383,-2.102832794189453,-0.006674868054687977,36.7148594,3.181731,53.41,-1.9,-3.37,-0.02,82,239,3.8802220821380615,3.880126476287842
33,0.014232940040528774,-2.2055814266204834,-0.036785788834095,36.7148382,3.1816868,53.01,-1.26,-1.81,0.71,82,233,2.3244478702545166,2.21325421333313
34,0.02592458762228489,-2.4789414405822754,-0.0062830750830471516,36.7148222,3.1816658,51.08,-1.06,-0.85,1.49,82,217,2.023305892944336,1.366160273551941
35,-0.031451109796762466,-2.471574544906616,0.02864987961947918,36.7148058,3.1816505,48.44,-1.02,-0.81,1.42,81,218,1.9333953857421875,1.3118364810943604
36,-0.03895268589258194,-2.469813108444214,-0.02362119033932686,36.7147916,3.1816367,46.2,-1.05,-0.86,1.43,81,218,1.9857776165008545,1.3691480159759521
37,-0.008537845686078072,-2.469651937484741,0.005095666740089655,36.7147748,3.1816198,43.58,-1.07,-0.87,1.44,81,218,2.001991033554077,1.386252760887146
38,-0.06225962191820145,-2.469454288482666,-0.005522619932889938,36.7147603,3.1816052,41.34,-1.06,-0.88,1.44,80,218,2.007108449935913,1.3885161876678467
39,-0.024134887382388115,-2.4693050384521484,-0.022680070251226425,36.7147432,3.1815882,38.73,-1.07,-0.88,1.45,80,218,2.017683267593384,1.393536925315857
40,-0.043616585433483124,-2.469729423522949,0.02807759679853916,36.7147286,3.1815735,36.48,-1.07,-0.87,1.46,80,218,2.0150041580200195,1.3855903148651123
41,-0.023132093250751495,-2.4698359966278076,-0.021164443343877792,36.7147141,3.1815588,34.23,-1.07,-0.88,1.46,79,218,2.0184741020202637,1.391778588294983
42,-0.01526951789855957,-2.4697999954223633,0.016274528577923775,36.7146971,3.1815417,31.62,-1.07,-0.88,1.47,79,218,2.027994155883789,1.3903791904449463
43,-0.05024053901433945,-2.469108819961548,-0.01646202802658081,36.7146824,3.1815268,29.36,-1.07,-0.89,1.47,78,218,2.0305747985839844,1.3977822065353394
44,-0.018387550488114357,-2.4697229862213135,-0.02107054740190506,36.7146654,3.1815096,26.74,-1.06,-0.88,1.47,78,218,2.0182952880859375,1.3821909427642822
45,-0.053654927760362625,-2.469698429107666,0.022399049252271652,36.7146509,3.181495,24.49,-1.06,-0.88,1.47,78,218,2.0215749740600586,1.381324052810669
46,-0.012494738213717937,-2.4701242446899414,-0.01514777448028326,36.7146363,3.1814803,22.25,-1.07,-0.88,1.47,77,218,2.034773349761963,1.3965775966644287
47,-0.02278956025838852,-2.4690990447998047,0.0289363581687212,36.7146193,3.1814631,19.62,-1.06,-0.88,1.47,77,218,2.019977569580078,1.3823882341384888
48,-0.05050738900899887,-2.469209671020508,-0.02103850245475769,36.7146047,3.1814483,17.37,-1.06,-0.88,1.47,77,218,2.025440216064453,1.387966513633728
49,-0.056472666561603546,-2.7789974212646484,-0.09966468065977097,36.7145863,3.1814322,14.77,-1.5,-0.58,1.38,76,200,2.1274991035461426,1.61131751537323
50,-0.2663761079311371,2.696424961090088,-0.03771984577178955,36.714557,3.1814357,13.46,-2.96,1.21,0.19,76,154,3.212001085281372,3.205886125564575
51,-0.18417103588581085,2.671785354614258,-0.030102575197815895,36.7144996,3.1814705,13.51,-4.01,2.04,-0.03,75,153,4.508447170257568,4.508296489715576
52,-0.05394266918301582,2.7916834354400635,0.14787396788597107,36.7144456,3.1815025,13.49,-3.76,1.34,0.06,75,159,3.999134063720703,3.9985897541046143
53,-0.2798970341682434,-2.4917967319488525,0.20413489639759064,36.7144001,3.1815007,13.45,-2.92,-2.05,0.03,75,217,3.581005811691284,3.5808799266815186
54,-0.45617300271987915,-2.141028881072998,0.014944769442081451,36.7143496,3.1814182,13.45,-3.82,-6.08,0.02,74,237,7.184242248535156,7.184212684631348
55,-0.4884415864944458,-2.148836135864258,-0.03120572865009308,36.7142905,3.1813015,13.46,-4.8,-7.6,0.0,74,236,8.994060516357422,8.994058609008789
56,-0.42602524161338806,-2.150820255279541,0.016473492607474327,36.7142237,3.1811714,13.47,-4.91,-7.61,0.0,73,236,9.062068939208984,9.062067985534668
57,-0.2507103383541107,-2.1501922607421875,-0.019117802381515503,36.7141517,3.1810327,13.48,-4.07,-6.34,0.02,73,236,7.547619342803955,7.547565937042236
58,-0.2980579435825348,-2.1303586959838867,0.03765096887946129,36.7141015,3.180933,13.46,-3.47,-5.69,0.02,73,237,6.675127029418945,6.675072193145752
59,-0.2874217629432678,-2.110414981842041,-0.020225340500473976,36.7140484,3.1808219,13.46,-3.29,-5.64,0.01,72,239,6.538772106170654,6.538763046264648
60,-0.25409209728240967,-2.108459234237671,0.030053304508328438,36.714004,3.1807267,13.45,-3.25,-5.59,0.0,72,239,6.475055694580078,6.4750542640686035
61,0.03961268812417984,-2.108607769012451,-0.016695067286491394,36.713959,3.1806308,13.45,-2.16,-3.71,0.03,71,239,4.3001885414123535,4.300010681152344
62,0.16687539219856262,-2.1087260246276855,0.012530130334198475,36.7139413,3.1805927,13.43,-0.52,-0.9,-0.01,71,239,1.047743320465088,1.0475660562515259
63,-0.014723901636898518,-2.108985424041748,-0.015310904942452908,36.7139397,3.1805891,13.44,0.1,0.15,0.01,71,239,0.18531884253025055,0.18485519289970398
