timestamp,pitch,yaw,roll,lat,lon,alt,velocity_x,velocity_y,velocity_z,battery,heading,airspeed,groundspeed
0,0.005047926679253578,0.03853888437151909,0.03241705149412155,36.7156063,3.1846302,10.12,0.0,0.0,-0.21,98,2,0.21556676924228668,0.009783163666725159
1,-0.10512422770261765,0.03970097005367279,0.03063928335905075,36.7156083,3.1846318,10.16,0.55,0.35,-0.05,97,2,0.6570741534233093,0.6543825268745422
2,-0.19605085253715515,0.5588281750679016,-0.011571458540856838,36.7156328,3.1846514,10.22,2.6,1.74,0.0,97,32,3.1317555904388428,3.1317453384399414
3,-0.1544962227344513,0.5781334042549133,0.023629747331142426,36.7156738,3.1846855,10.17,3.24,2.15,0.02,97,33,3.897278308868408,3.8972151279449463
4,0.1265479028224945,0.5311383008956909,-0.058376494795084,36.7157158,3.1847189,10.11,2.51,1.45,0.01,96,30,2.9052298069000244,2.905179500579834
5,-0.068970687687397,-1.023483395576477,-0.29170745611190796,36.7157283,3.1847137,10.11,-1.3,-2.25,-0.01,96,301,2.6105313301086426,2.6105034351348877
6,-0.17623849213123322,-2.414752960205078,0.02847159653902054,36.7157004,3.1846623,10.06,-2.38,-3.39,-0.02,95,221,4.149681568145752,4.149583339691162
7,-0.02941025234758854,-2.0692405700683594,0.08411800116300583,36.7156653,3.1845951,10.11,-1.64,-3.21,0.02,95,241,3.6104533672332764,3.6103358268737793
8,-0.2631073594093323,-0.9772748947143555,0.2543637454509735,36.7156628,3.1845444,10.07,1.7,-2.76,0.0,95,304,3.2514612674713135,3.251450777053833
9,-0.46122676134109497,-0.6296043992042542,-0.0020481590181589127,36.7157112,3.184492,10.08,5.27,-3.71,0.0,94,323,6.449443340301514,6.4494428634643555
10,-0.5083264112472534,-0.6204690337181091,0.03551285341382027,36.7158147,3.1844018,10.09,7.53,-5.24,0.0,94,324,9.17705249786377,9.177048683166504
11,-0.4606708586215973,-0.6211156249046326,-0.009665829129517078,36.7159203,3.1843094,10.11,7.92,-5.59,0.01,93,324,9.700584411621094,9.700578689575195
12,-0.2610592544078827,-0.624969482421875,0.0267681535333395,36.7160395,3.1842038,10.16,6.78,-4.84,0.0,93,324,8.335000038146973,8.33499813079834
13,0.07597531378269196,-0.7009837627410889,-0.1279727965593338,36.7161142,3.1841361,10.15,3.84,-3.24,0.01,93,319,5.029601097106934,5.029581069946289
14,-0.24032409489154816,-1.7431671619415283,-0.22047929465770721,36.716138,3.1840862,10.49,-0.52,-3.15,-0.46,92,260,3.2269906997680664,3.193979263305664
15,-0.47825944423675537,-2.177595615386963,-0.02126103639602661,36.7160982,3.184003,12.0,-4.04,-5.71,-1.19,92,235,7.100852966308594,6.999423027038574
16,-0.5049082636833191,-2.169102191925049,0.03634123504161835,36.7160333,3.1838881,14.16,-5.27,-7.65,-1.56,91,235,9.42171573638916,9.291104316711426
17,-0.4363687336444855,-2.1663434505462646,-0.017616983503103256,36.7159465,3.1837301,17.03,-5.51,-8.09,-1.57,91,235,9.91845417022705,9.792001724243164
18,-0.49041375517845154,-2.1629791259765625,-0.02444620244204998,36.7158714,3.1835912,19.49,-5.56,-8.23,-1.57,90,236,10.06214714050293,9.938752174377441
19,-0.46258440613746643,-2.1649115085601807,0.037544406950473785,36.7157961,3.1834516,21.97,-5.54,-8.24,-1.58,90,235,10.063682556152344,9.937734603881836
20,-0.44236600399017334,-2.1639552116394043,-0.024841737002134323,36.715709,3.1832894,24.86,-5.52,-8.27,-1.59,89,236,10.07323932647705,9.946357727050781
21,-0.49555739760398865,-2.16672682762146,0.004423260223120451,36.7156343,3.1831501,27.35,-5.55,-8.32,-1.59,89,235,10.130985260009766,10.004066467285156
22,-0.41987988352775574,-2.163289785385132,0.014634111896157265,36.7155469,3.1829867,30.26,-5.49,-8.27,-1.61,89,236,10.062840461730957,9.93246841430664
23,-0.4612559676170349,-2.163595199584961,-0.031220417469739914,36.7154722,3.1828469,32.76,-5.51,-8.29,-1.61,88,236,10.088125228881836,9.957781791687012
24,-0.49071192741394043,-2.163647413253784,0.005628786515444517,36.7153973,3.1827071,35.26,-5.5,-8.29,-1.62,88,236,10.090347290039062,9.958855628967285
25,-0.42437729239463806,-2.165207862854004,-0.0021101762540638447,36.7153103,3.1825442,38.17,-5.5,-8.29,-1.63,87,235,10.089927673339844,9.956439971923828
26,-0.46729907393455505,-2.1649911403656006,-0.026654139161109924,36.7152356,3.1824043,40.68,-5.53,-8.3,-1.62,87,235,10.114246368408203,9.982063293457031
27,-0.4420744478702545,-2.164196014404297,0.038087427616119385,36.7151483,3.182241,43.6,-5.5,-8.28,-1.63,86,236,10.079763412475586,9.946725845336914
28,-0.3629628121852875,-2.1653966903686523,-0.023700017482042313,36.7150739,3.1821022,46.1,-5.39,-8.02,-1.59,86,235,9.799273490905762,9.669326782226562
29,-0.16271759569644928,-2.167611837387085,-0.0013463658979162574,36.7150079,3.1819798,48.32,-4.16,-6.21,-1.21,85,235,7.5808610916137695,7.482989311218262
30,-0.05320246145129204,-2.1418135166168213,-4.926580731989816e-05,36.7149572,3.1818834,49.76,-2.43,-3.91,-0.41,85,237,4.633332252502441,4.614440441131592
31,-0.1657124012708664,-2.094614267349243,0.028049122542142868,36.7149277,3.1818208,50.06,-2.04,-3.68,-0.05,85,239,4.216027736663818,4.215631008148193
32,-0.11657404899597168,-2.087847948074341,-0.02279559150338173,36.7148961,3.1817491,50.05,-1.98,-3.65,-0.03,84,240,4.162342071533203,4.162196636199951
33,0.055199623107910156,-2.1195943355560303,-0.0019484064541757107,36.7148726,3.1816969,49.92,-1.4,-2.37,0.32,84,238,2.7760860919952393,2.757474899291992
34,0.013711751438677311,-2.4276082515716553,-0.058476559817790985,36.7148559,3.1816697,48.48,-1.13,-1.05,1.43,84,220,2.1136162281036377,1.5485126972198486
35,-0.008431990630924702,-2.4635088443756104,0.012996086850762367,36.7148392,3.1816536,45.8,-1.03,-0.8,1.41,83,218,1.926277995109558,1.3104674816131592
36,-0.06346633285284042,-2.4684596061706543,-0.0008616689592599869,36.7148251,3.1816401,43.56,-1.05,-0.85,1.42,83,218,1.968065857887268,1.3594965934753418
37,-0.023206273093819618,-2.46968674659729,-0.02579597756266594,36.7148083,3.1816233,40.95,-1.07,-0.87,1.42,82,218,1.9912227392196655,1.3858977556228638
38,-0.04825585335493088,-2.4697704315185547,0.0244700126349926,36.7147938,3.1816088,38.7,-1.06,-0.88,1.43,82,218,1.99592125415802,1.3866065740585327
39,-0.015554644167423248,-2.469385862350464,-0.014011586084961891,36.7147791,3.1815941,36.47,-1.07,-0.88,1.44,82,218,2.0053157806396484,1.3900035619735718
40,-0.01172412745654583,-2.4693243503570557,0.01968589425086975,36.7147621,3.1815769,33.85,-1.07,-0.88,1.45,81,218,2.01206636428833,1.3895931243896484
41,-0.0563027560710907,-2.4692564010620117,-0.02028864063322544,36.7147475,3.1815623,31.61,-1.07,-0.89,1.46,81,218,2.023010015487671,1.396984577178955
42,-0.011445464566349983,-2.469735860824585,-0.011726822704076767,36.7147305,3.1815452,28.99,-1.06,-0.88,1.47,81,218,2.0222513675689697,1.3862254619598389
43,-0.05473483353853226,-2.469419479370117,0.013853914104402065,36.714716,3.1815305,26.74,-1.05,-0.88,1.47,80,218,2.0144474506378174,1.3752057552337646
44,-0.010734767653048038,-2.4695394039154053,-0.010570223443210125,36.7147014,3.1815157,24.49,-1.06,-0.89,1.47,80,218,2.0251576900482178,1.3909457921981812
45,-0.024167809635400772,-2.469712495803833,0.026098962873220444,36.7146844,3.1814985,21.87,-1.06,-0.89,1.47,80,218,2.02349591255188,1.388437271118164
46,-0.03650430962443352,-2.469700813293457,-0.02499864622950554,36.7146698,3.1814838,19.62,-1.06,-0.88,1.47,79,218,2.0216100215911865,1.3862756490707397
47,-0.006284818984568119,-2.469944953918457,0.005146276205778122,36.7146528,3.1814667,16.99,-1.07,-0.87,1.46,79,218,2.0201611518859863,1.3869738578796387
48,-0.058020517230033875,-2.4691970348358154,-0.004885717295110226,36.7146382,3.181452,14.74,-1.05,-0.89,1.46,78,218,2.019723415374756,1.3850582838058472
49,-0.058507926762104034,-2.532036781311035,-0.0765262246131897,36.714621,3.1814349,12.12,-1.19,-0.81,1.47,78,214,2.0606141090393066,1.4435522556304932
50,-0.21600094437599182,2.869856834411621,-0.06868046522140503,36.7145976,3.1814296,10.3,-2.4,0.53,0.62,78,164,2.537916421890259,2.4602224826812744
51,-0.21176095306873322,2.678287982940674,-0.025713151320815086,36.7145543,3.1814524,10.11,-3.82,1.9,-0.05,77,153,4.268486976623535,4.268191337585449
52,-0.08522658050060272,2.696685791015625,0.07407590001821518,36.7144903,3.1814918,10.16,-3.96,1.87,0.06,77,154,4.388792991638184,4.3882856369018555
53,-0.1025685966014862,-2.960794687271118,0.2520688772201538,36.7144403,3.1815071,10.11,-3.19,-0.61,0.04,77,190,3.248847484588623,3.248589038848877
54,-0.40477684140205383,-2.1866490840911865,0.11330033093690872,36.7143994,3.1814636,10.1,-3.15,-4.55,0.01,76,234,5.54263162612915,5.542606830596924
55,-0.5193466544151306,-2.155665159225464,-0.00896362867206335,36.7143383,3.1813439,10.11,-4.55,-7.25,0.0,76,236,8.566603660583496,8.566598892211914
56,-0.450323224067688,-2.1510908603668213,0.023703372105956078,36.7142731,3.1812162,10.12,-4.96,-7.72,0.0,75,236,9.180275917053223,9.180275917053223
57,-0.30895382165908813,-2.1524410247802734,-0.016508914530277252,36.7141975,3.1810706,10.14,-4.38,-6.77,0.01,75,236,8.073625564575195,8.07360553741455
58,-0.24895891547203064,-2.136228561401367,0.04255254939198494,36.714144,3.1809655,10.12,-3.56,-5.74,0.03,75,237,6.761230945587158,6.761122226715088
59,-0.29793065786361694,-2.106013536453247,-0.007369185332208872,36.7140907,3.1808541,10.11,-3.26,-5.64,0.01,74,239,6.524891376495361,6.524874687194824
60,-0.27059292793273926,-2.0997512340545654,0.03136807307600975,36.714047,3.1807592,10.11,-3.23,-5.68,0.01,74,239,6.543418884277344,6.543403148651123
61,-0.07319242507219315,-2.1000194549560547,0.002446507103741169,36.7139988,3.1806541,10.11,-2.61,-4.57,0.01,73,239,5.6297831535339355,5.6297736167907715
62,0.19168557226657867,-2.1006312370300293,-0.0012168030953034759,36.7139735,3.1805991,10.08,-0.99,-1.73,0.0,73,239,1.9978162050247192,1.9978095293045044
63,0.03166433051228523,-2.1001386642456055,-0.00856978539377451,36.7139683,3.1805873,10.1,0.03,0.03,0.0,73,239,0.05102885141968727,0.05074836686253548
64,-0.011913932859897614,-2.0966737270355225,0.09652169048786163,36.7139713,3.1805891,10.05,0.57,-0.25,0.0,72,239,0.6286096572875977,0.6285874247550964
