timestamp,pitch,yaw,roll,lat,lon,alt,velocity_x,velocity_y,velocity_z,battery,heading,airspeed,groundspeed
0,0.010815821588039398,0.026427892968058586,0.029101790860295296,36.7156066,3.1846299,15.19,-0.02,0.02,-0.05,96,1,0.061768144369125366,0.0341034010052681
1,-0.08679205924272537,0.01885121501982212,0.04947487264871597,36.715608,3.1846318,15.22,0.38,0.42,-0.02,95,1,0.5722383260726929,0.5716732740402222
2,-0.23009248077869415,1.0373104810714722,-0.08424671739339828,36.7156269,3.1846547,15.22,2.16,2.16,-0.05,95,59,3.0607664585113525,3.060182809829712
3,-0.2087244838476181,0.8053046464920044,0.017786765471100807,36.7156641,3.1847008,15.22,3.19,3.14,-0.01,95,46,4.482096195220947,4.482074737548828
4,-0.10766107589006424,0.7695561051368713,-0.027001414448022842,36.7157087,3.1847547,15.23,3.24,3.13,0.0,94,44,4.516493797302246,4.516488075256348
5,0.34807145595550537,0.5667243599891663,-0.09236518293619156,36.7157469,3.1847978,15.24,0.88,0.49,-0.03,94,32,1.0114386081695557,1.010738492012024
6,-0.13515648245811462,-1.1143481731414795,-0.22114808857440948,36.7157382,3.184775,15.26,-1.9,-2.79,0.0,93,296,3.3839855194091797,3.3839781284332275
7,-0.15432964265346527,-2.3888885974884033,-0.003776881378144026,36.7157031,3.184712,15.26,-2.3,-3.31,-0.05,93,223,4.042428493499756,4.041983127593994
8,0.004120556637644768,-1.957277536392212,0.18061083555221558,36.7156771,3.1846569,15.25,-1.1,-3.1,0.04,93,247,3.3004817962646484,3.300220012664795
9,-0.35288628935813904,-0.769643247127533,0.13127940893173218,36.7156846,3.1846079,15.22,2.5,-2.81,0.0,92,315,3.7723593711853027,3.772357225418091
10,-0.47900351881980896,-0.611819863319397,0.03638486564159393,36.7157413,3.1845521,15.22,5.75,-4.01,0.01,92,324,7.011195659637451,7.0111870765686035
11,-0.5340670943260193,-0.6158843040466309,-0.027069345116615295,36.7158497,3.1844582,15.24,7.69,-5.32,0.0,91,324,9.35803508758545,9.358036041259766
12,-0.4167100191116333,-0.6200423836708069,0.0158208217471838,36.7159733,3.1843497,15.25,7.82,-5.54,-0.01,91,324,9.592293739318848,9.592287063598633
13,-0.19430243968963623,-0.6240172982215881,-0.024747144430875778,36.7160717,3.1842625,15.29,6.38,-4.56,0.01,91,324,7.846471786499023,7.84646463394165
14,0.08455827087163925,-0.7774983644485474,-0.12135941535234451,36.7161387,3.1841996,15.29,3.14,-3.07,-0.05,90,315,4.398903846740723,4.398545265197754
15,-0.37605464458465576,-2.081997871398926,-0.1237819492816925,36.7161486,3.1841393,15.93,-1.86,-3.71,-0.69,90,240,4.215900421142578,4.1587395668029785
16,-0.4389960765838623,-2.1777734756469727,0.028879357501864433,36.7161044,3.1840579,17.47,-4.33,-6.15,-1.29,89,235,7.6370673179626465,7.526876926422119
17,-0.5028442740440369,-2.163461208343506,-0.02808598056435585,36.7160245,3.1839157,20.14,-5.48,-7.91,-1.59,89,236,9.759531021118164,9.628427505493164
18,-0.463318407535553,-2.1665000915527344,0.04825092852115631,36.7159491,3.1837791,22.6,-5.53,-8.16,-1.57,88,235,9.987931251525879,9.862390518188477
19,-0.42262911796569824,-2.1618688106536865,0.0011440038215368986,36.7158741,3.1836395,25.05,-5.54,-8.24,-1.59,88,236,10.064783096313477,9.937891960144043
20,-0.49064433574676514,-2.1679728031158447,0.011591112241148949,36.7157863,3.1834771,27.94,-5.53,-8.23,-1.59,88,235,10.049320220947266,9.921287536621094
21,-0.45417892932891846,-2.1632933616638184,0.04492383822798729,36.715712,3.1833382,30.41,-5.49,-8.29,-1.61,87,236,10.084454536437988,9.95370101928711
22,-0.46896424889564514,-2.1614763736724854,-0.035368479788303375,36.7156248,3.1831747,33.33,-5.53,-8.27,-1.62,87,236,10.091574668884277,9.960552215576172
23,-0.4838527739048004,-2.1656243801116943,0.03165535628795624,36.7155497,3.1830351,35.82,-5.52,-8.26,-1.62,86,235,10.070051193237305,9.93757438659668
24,-0.4320310354232788,-2.1655163764953613,0.028884904459118843,36.7154751,3.1828956,38.32,-5.49,-8.28,-1.63,86,235,10.07642650604248,9.942758560180664
25,-0.48553362488746643,-2.163705587387085,-0.01901867240667343,36.7153881,3.1827326,41.25,-5.5,-8.3,-1.62,85,236,10.092242240905762,9.959935188293457
26,-0.47221294045448303,-2.164562940597534,0.03295553848147392,36.7153133,3.1825926,43.76,-5.52,-8.28,-1.62,85,235,10.091841697692871,9.95948314666748
27,-0.4460747539997101,-2.164130926132202,-0.023263830691576004,36.715226,3.1824294,46.67,-5.52,-8.3,-1.63,84,236,10.105732917785645,9.97313117980957
28,-0.49164602160453796,-2.1638031005859375,-0.001680967048741877,36.7151515,3.1822896,49.17,-5.52,-8.28,-1.63,84,236,10.090047836303711,9.956804275512695
29,-0.35155346989631653,-2.167544364929199,0.034558821469545364,36.7150773,3.1821519,51.65,-5.27,-7.83,-1.56,84,235,9.57689380645752,9.448476791381836
30,-0.09983024001121521,-2.1669235229492188,-0.014065368101000786,36.7150063,3.1820198,54.02,-3.55,-5.33,-0.97,83,235,6.487394332885742,6.413775444030762
31,-0.09586633741855621,-2.131718873977661,0.04323616251349449,36.7149677,3.181945,54.99,-2.31,-3.77,-0.33,83,237,4.445819854736328,4.432801246643066
32,-0.1727522760629654,-2.088524580001831,0.015026000328361988,36.7149343,3.1818726,55.21,-2.0,-3.66,-0.01,82,240,4.174342632293701,4.174325942993164
33,-0.05202266946434975,-2.0880753993988037,0.005387354176491499,36.7149073,3.1818115,55.2,-1.91,-3.52,-0.02,82,240,4.010523319244385,4.010413646697998
34,0.03028058260679245,-2.1525352001190186,-0.048114631325006485,36.7148854,3.1817635,54.95,-1.3,-2.06,0.51,82,236,2.493722438812256,2.4397268295288086
35,0.0012134741991758347,-2.4810967445373535,-0.03688925877213478,36.7148668,3.1817374,52.83,-1.06,-0.85,1.49,81,217,2.0235893726348877,1.3641626834869385
36,-0.0459878109395504,-2.468923807144165,0.027486609295010567,36.7148527,3.1817242,50.56,-1.03,-0.8,1.42,81,218,1.9341117143630981,1.3110392093658447
37,-0.06177825480699539,-2.4697911739349365,-0.00921615306288004,36.7148362,3.1817082,47.95,-1.05,-0.86,1.43,81,218,1.9813761711120605,1.362411379814148
38,-0.014859179966151714,-2.4695003032684326,0.014635532163083553,36.7148217,3.1816938,45.72,-1.07,-0.87,1.45,80,218,2.0081493854522705,1.3861275911331177
39,-0.053803566843271255,-2.4693567752838135,0.018230531364679337,36.7148047,3.1816767,43.1,-1.06,-0.88,1.45,80,218,2.010117292404175,1.3834221363067627
40,-0.01960311084985733,-2.469913959503174,-0.017910119146108627,36.7147901,3.1816621,40.85,-1.07,-0.88,1.46,79,218,2.0173075199127197,1.3887454271316528
41,-0.057155147194862366,-2.4699933528900146,0.021455002948641777,36.7147756,3.1816474,38.61,-1.06,-0.88,1.46,79,218,2.017620325088501,1.3854060173034668
42,-0.053892768919467926,-2.4695260524749756,-0.020624827593564987,36.7147586,3.1816303,35.99,-1.06,-0.89,1.47,79,218,2.024657726287842,1.3912850618362427
43,-0.028230834752321243,-2.4691646099090576,0.028832582756876945,36.714744,3.1816156,33.73,-1.06,-0.88,1.46,78,218,2.019695520401001,1.3858174085617065
44,-0.05928346887230873,-2.469599485397339,0.01700783148407936,36.7147269,3.1815984,31.12,-1.06,-0.89,1.47,78,218,2.0245018005371094,1.388570785522461
45,-0.013293801806867123,-2.4696156978607178,-0.005700458772480488,36.7147124,3.1815837,28.87,-1.06,-0.88,1.47,78,218,2.027211904525757,1.388204574584961
46,-0.062145404517650604,-2.470323324203491,0.00925756897777319,36.7146978,3.1815689,26.62,-1.05,-0.88,1.47,77,218,2.021663188934326,1.3783762454986572
47,-0.03670588508248329,-2.469494342803955,-0.02709599956870079,36.7146808,3.1815518,24.0,-1.06,-0.88,1.48,77,218,2.033651828765869,1.3878827095031738
48,-0.03154958412051201,-2.469479560852051,0.02898538112640381,36.7146662,3.1815371,21.75,-1.05,-0.88,1.48,77,218,2.024561882019043,1.378383755683899
49,-0.06242450326681137,-2.4695749282836914,0.0040499805472791195,36.7146492,3.1815199,19.12,-1.05,-0.88,1.47,76,218,2.023732900619507,1.3808879852294922
50,-0.04323023557662964,-2.6441843509674072,-0.07084310799837112,36.7146339,3.1815056,16.87,-1.33,-0.72,1.44,76,208,2.1013636589050293,1.5234013795852661
51,-0.2636357843875885,2.7616922855377197,-0.08024481683969498,36.7146075,3.1815048,15.31,-2.71,0.92,0.37,75,158,2.8872594833374023,2.863145351409912
52,-0.1822362095117569,2.6793627738952637,-0.028395501896739006,36.7145518,3.1815368,15.28,-4.03,2.0,-0.06,75,153,4.502991676330566,4.5024943351745605
53,-0.09286583214998245,2.7310962677001953,0.10961846262216568,36.7144969,3.1815701,15.28,-3.9,1.63,0.06,75,156,4.23931884765625,4.2388482093811035
54,-0.29660534858703613,-2.5096943378448486,0.21249522268772125,36.7144422,3.1815727,15.24,-2.95,-2.01,0.02,74,216,3.5757386684417725,3.575624942779541
55,-0.45225682854652405,-2.1596715450286865,0.05621867999434471,36.7143999,3.1815072,15.24,-3.57,-5.63,0.02,74,236,6.670554161071777,6.670520305633545
56,-0.47891080379486084,-2.153578996658325,-0.022851260378956795,36.7143431,3.1813955,15.25,-4.69,-7.45,0.0,73,236,8.811820030212402,8.811817169189453
57,-0.4032948315143585,-2.1513381004333496,0.02688923105597496,36.7142659,3.1812445,15.26,-4.91,-7.63,0.0,73,236,9.085001945495605,9.085001945495605
58,-0.25282442569732666,-2.1524734497070312,-0.012057323940098286,36.7142032,3.1811238,15.27,-4.24,-6.56,0.02,73,236,7.820297718048096,7.8202714920043945
59,-0.2697281539440155,-2.129971981048584,0.042365241795778275,36.7141435,3.1810055,15.24,-3.48,-5.69,0.02,72,237,6.675899028778076,6.67585563659668
60,-0.26339825987815857,-2.1114981174468994,-0.01341819204390049,36.7140979,3.1809102,15.24,-3.3,-5.62,0.0,72,239,6.528642177581787,6.528640270233154
61,-0.28954222798347473,-2.1080281734466553,0.021528536453843117,36.7140534,3.1808149,15.24,-3.27,-5.65,0.0,72,239,6.536121368408203,6.5361199378967285
62,-0.008119605481624603,-2.10911226272583,-0.02472841367125511,36.7140061,3.1807142,15.24,-2.43,-4.15,0.02,71,239,4.81692361831665,4.816862106323242
63,0.15874147415161133,-2.109651565551758,0.02784411981701851,36.7139844,3.1806679,15.21,-0.75,-1.31,-0.01,71,239,1.512159824371338,1.512096881866455
64,-0.01799163781106472,-2.109314203262329,0.006008513271808624,36.7139812,3.1806609,15.23,0.11,0.15,0.01,70,239,0.19693836569786072,0.19656357169151306
