timestamp,pitch,yaw,roll,lat,lon,alt,velocity_x,velocity_y,velocity_z,battery,heading,airspeed,groundspeed
0,-0.006062587723135948,0.020043212920427322,0.029021019116044044,36.7156067,3.1846299,16.58,-0.03,0.02,-0.05,96,1,0.0676613301038742,0.040415238589048386
1,-0.0930124893784523,0.03924509510397911,0.07752449810504913,36.7156081,3.184633,16.65,0.41,0.63,0.0,95,2,0.7597311735153198,0.7597046494483948
2,-0.22798939049243927,1.399038553237915,-0.09487701952457428,36.7156227,3.1846587,16.61,1.86,2.67,0.0,95,80,3.26210355758667,3.2620973587036133
3,-0.23267246782779694,0.9721865057945251,0.016487333923578262,36.7156617,3.1847286,16.64,2.88,4.13,-0.02,95,55,5.045935153961182,5.0458879470825195
4,-0.11423630267381668,0.9456402659416199,-0.02428467757999897,36.7157018,3.184799,16.64,2.86,4.01,0.0,94,54,4.93203592300415,4.932029724121094
5,0.28011244535446167,0.9410496950149536,0.03301440551877022,36.7157331,3.1848524,16.64,1.22,1.68,0.02,94,53,2.085875988006592,2.0857794284820557
6,0.06314098834991455,-0.24042797088623047,-0.22728747129440308,36.7157264,3.184839,16.64,-1.84,-2.64,-0.03,93,346,3.2306201457977295,3.230397939682007
7,-0.08582351356744766,-1.7829941511154175,-0.05125000327825546,36.7156975,3.1847865,16.66,-2.29,-3.26,0.01,93,257,3.9880530834198,3.988032817840576
8,-0.006140453275293112,-1.9230648279190063,0.14098908007144928,36.7156661,3.1847223,16.64,-1.32,-3.09,0.01,93,249,3.367318868637085,3.3672707080841064
9,-0.3309648633003235,-0.8665598034858704,0.1764148324728012,36.7156687,3.1846735,16.63,2.03,-2.72,0.0,92,310,3.3979854583740234,3.397975206375122
10,-0.45122814178466797,-0.6158590316772461,0.030758831650018692,36.7157201,3.1846207,16.63,5.41,-3.78,0.0,92,324,6.60796594619751,6.607964992523193
11,-0.5425200462341309,-0.6157181262969971,0.0029083569534122944,36.715825,3.1845299,16.64,7.57,-5.25,0.0,91,324,9.221221923828125,9.221220016479492
12,-0.4608571231365204,-0.6172429919242859,0.032333049923181534,36.7159309,3.1844376,16.66,7.88,-5.54,0.0,91,324,9.633848190307617,9.633848190307617
13,-0.264822781085968,-0.6211038827896118,-0.009280712343752384,36.7160493,3.1843333,16.7,6.68,-4.75,0.0,91,324,8.203843116760254,8.203841209411621
14,0.08287107199430466,-0.7107997536659241,-0.10412228852510452,36.7161223,3.1842671,16.7,3.72,-3.18,0.0,90,319,4.898996353149414,4.898993015289307
15,-0.3260287642478943,-1.9935840368270874,-0.13472284376621246,36.7161418,3.1842079,17.2,-1.34,-3.45,-0.59,90,245,3.756467580795288,3.7083423137664795
16,-0.4370684027671814,-2.181077241897583,-0.01229515764862299,36.7161028,3.1841327,18.61,-4.11,-5.77,-1.21,89,235,7.198662757873535,7.095461368560791
17,-0.5113721489906311,-2.166433095932007,-0.009445642121136189,36.7160373,3.1840168,20.79,-5.31,-7.67,-1.56,89,235,9.46442985534668,9.334754943847656
18,-0.41992518305778503,-2.1672580242156982,0.009545369073748589,36.7159497,3.1838586,23.65,-5.52,-8.09,-1.58,88,235,9.92615795135498,9.798798561096191
19,-0.46041515469551086,-2.165591239929199,-0.030083313584327698,36.7158747,3.1837201,26.11,-5.54,-8.21,-1.58,88,235,10.036904335021973,9.911722183227539
20,-0.4488906264305115,-2.164382219314575,0.0358441136777401,36.7157872,3.1835577,28.99,-5.56,-8.26,-1.59,88,236,10.090971946716309,9.964580535888672
21,-0.42031365633010864,-2.165339231491089,-0.0030356841161847115,36.7157119,3.183418,31.47,-5.54,-8.25,-1.6,87,235,10.078883171081543,9.949946403503418
22,-0.4865705966949463,-2.165863037109375,-0.014044560492038727,36.715637,3.1832786,33.96,-5.51,-8.24,-1.6,87,235,10.050159454345703,9.920513153076172
23,-0.4746859669685364,-2.1654486656188965,0.03532906621694565,36.7155622,3.1831395,36.46,-5.51,-8.27,-1.61,86,235,10.073840141296387,9.942906379699707
24,-0.4506782591342926,-2.1682958602905273,-0.027629811316728592,36.715475,3.1829768,39.36,-5.53,-8.3,-1.62,86,235,10.11098861694336,9.97954273223877
25,-0.4650886058807373,-2.167118549346924,0.04359418898820877,36.7153876,3.1828137,42.28,-5.52,-8.26,-1.63,85,235,10.075940132141113,9.943004608154297
26,-0.4292431175708771,-2.1647565364837646,0.00045604538172483444,36.7153128,3.1826739,44.79,-5.52,-8.29,-1.62,85,235,10.101990699768066,9.96999740600586
27,-0.48317867517471313,-2.164738416671753,-0.0219485592097044,36.715238,3.1825341,47.29,-5.53,-8.3,-1.62,84,235,10.113472938537598,9.982048988342285
28,-0.4401499629020691,-2.164677143096924,0.03354046493768692,36.7151504,3.1823709,50.2,-5.54,-8.27,-1.64,84,235,10.09677791595459,9.962430000305176
29,-0.3683651089668274,-2.1671245098114014,-0.028223779052495956,36.7150759,3.1822324,52.7,-5.37,-7.99,-1.58,84,235,9.76785659790039,9.638313293457031
30,-0.09240002930164337,-2.168402671813965,0.036194488406181335,36.715001,3.1820939,55.2,-3.83,-5.7,-1.08,83,235,6.955657958984375,6.870711803436279
31,-0.07399901002645493,-2.141552209854126,-0.006899518892168999,36.7149596,3.1820149,56.31,-2.41,-3.87,-0.41,83,237,4.5832200050354,4.564295768737793
32,-0.12184746563434601,-2.0907962322235107,0.016869252547621727,36.7149258,3.1819425,56.62,-2.02,-3.67,-0.03,82,240,4.195333957672119,4.195200443267822
33,-0.13124050199985504,-2.0881974697113037,-0.01120238471776247,36.7148989,3.1818812,56.6,-1.98,-3.66,-0.03,82,240,4.1669135093688965,4.166782379150391
34,0.07159725576639175,-2.1229922771453857,-0.010870736092329025,36.7148754,3.1818291,56.46,-1.39,-2.33,0.33,82,238,2.7445566654205322,2.723515510559082
35,-0.006889544893056154,-2.4637563228607178,0.002627844689413905,36.7148562,3.1817996,54.6,-1.08,-0.91,1.49,81,218,2.064218282699585,1.4209840297698975
36,-0.025552239269018173,-2.4652960300445557,-0.022893479093909264,36.7148421,3.1817865,52.31,-1.04,-0.8,1.41,81,218,1.937562108039856,1.3207529783248901
37,-0.01300140842795372,-2.46930193901062,0.01831173710525036,36.7148256,3.1817705,49.71,-1.05,-0.86,1.43,81,218,1.9799458980560303,1.3646796941757202
38,-0.059154246002435684,-2.469611644744873,-0.010604823008179665,36.7148112,3.181756,47.46,-1.06,-0.87,1.44,80,218,1.9927964210510254,1.3770747184753418
39,-0.012081888504326344,-2.4695587158203125,0.0123904375359416,36.7147967,3.1817415,45.21,-1.07,-0.87,1.44,80,218,1.9994456768035889,1.3847273588180542
40,-0.04127547889947891,-2.4701249599456787,0.028265079483389854,36.7147796,3.1817244,42.6,-1.07,-0.88,1.45,79,218,2.012829065322876,1.3912246227264404
41,-0.020974233746528625,-2.4702835083007812,-0.020139453932642937,36.714765,3.1817098,40.36,-1.07,-0.88,1.46,79,218,2.0210227966308594,1.3926918506622314
42,-0.009906287305057049,-2.4701383113861084,0.01568964682519436,36.7147481,3.1816927,37.74,-1.07,-0.88,1.46,79,218,2.0169484615325928,1.3882988691329956
43,-0.05659228563308716,-2.469305992126465,-0.01577875204384327,36.7147335,3.181678,35.49,-1.06,-0.89,1.46,78,218,2.0211915969848633,1.3919522762298584
44,-0.009042571298778057,-2.4698197841644287,0.009608210064470768,36.7147189,3.1816632,33.25,-1.06,-0.88,1.47,78,218,2.0220530033111572,1.3846577405929565
45,-0.04568726196885109,-2.470205545425415,0.02795291505753994,36.7147019,3.1816461,30.62,-1.05,-0.88,1.47,78,218,2.0204904079437256,1.3792335987091064
46,-0.02165723219513893,-2.470428943634033,-0.02276322990655899,36.7146873,3.1816314,28.37,-1.07,-0.89,1.47,77,218,2.0299410820007324,1.3974095582962036
47,-0.0076881879940629005,-2.469640016555786,0.013528991490602493,36.7146703,3.1816142,25.76,-1.06,-0.87,1.47,77,218,2.0211374759674072,1.3789523839950562
48,-0.05974139645695686,-2.4697999954223633,-0.005754153709858656,36.7146557,3.1815995,23.5,-1.05,-0.88,1.47,77,218,2.0205562114715576,1.3779282569885254
49,-0.01116515789180994,-2.4696731567382812,0.013724901713430882,36.7146411,3.1815848,21.25,-1.06,-0.87,1.47,76,218,2.0178964138031006,1.37856924533844
50,-0.07922414690256119,-2.5409505367279053,-0.028911244124174118,36.7146239,3.1815678,18.63,-1.2,-0.81,1.47,76,214,2.0682485103607178,1.4511971473693848
51,-0.2061827927827835,2.854837417602539,-0.12673062086105347,36.7146002,3.181563,16.84,-2.45,0.59,0.59,75,163,2.5902957916259766,2.5210862159729004
52,-0.1784364879131317,2.6805174350738525,0.007238906808197498,36.7145475,3.1815916,16.67,-3.95,1.96,-0.07,75,153,4.418163776397705,4.417604446411133
53,-0.125532329082489,2.6979804039001465,0.04937395453453064,36.7144924,3.1816255,16.7,-3.97,1.84,0.06,75,154,4.388080596923828,4.387645721435547
54,-0.16219137609004974,-2.7027699947357178,0.24106387794017792,36.7144355,3.1816372,16.65,-3.01,-1.36,0.03,74,205,3.314805030822754,3.314647674560547
55,-0.48163336515426636,-2.181293249130249,0.08744346350431442,36.7143944,3.1815817,16.65,-3.34,-5.19,0.02,74,235,6.181870460510254,6.181820392608643
56,-0.4578177034854889,-2.1553421020507812,-0.0005674294079653919,36.7143403,3.1814743,16.66,-4.58,-7.26,0.0,73,236,8.591116905212402,8.591115951538086
57,-0.4489758312702179,-2.151597499847412,0.018987130373716354,36.7142634,3.1813242,16.67,-4.95,-7.68,0.0,73,236,9.142842292785645,9.142842292785645
58,-0.26835277676582336,-2.1527156829833984,0.015332273207604885,36.7141995,3.1812012,16.69,-4.35,-6.72,0.02,73,236,8.010401725769043,8.010376930236816
59,-0.283645898103714,-2.136225700378418,5.676968430634588e-05,36.7141463,3.181097,16.67,-3.56,-5.77,0.03,72,237,6.788569927215576,6.788482189178467
60,-0.24111083149909973,-2.1052322387695312,0.00373609596863389,36.7140929,3.180985,16.66,-3.26,-5.65,0.01,72,239,6.527960300445557,6.527951717376709
61,-0.31231045722961426,-2.0997488498687744,0.006762671284377575,36.714049,3.1808897,16.66,-3.22,-5.67,0.01,71,239,6.5274529457092285,6.527440071105957
62,-0.03562605008482933,-2.100576162338257,-0.02454819343984127,36.7140013,3.1807855,16.66,-2.58,-4.51,0.01,71,239,5.204117774963379,5.204083442687988
63,0.14692623913288116,-2.101062059402466,0.026714304462075233,36.7139765,3.1807317,16.62,-0.95,-1.69,0.0,71,239,1.947871208190918,1.9478710889816284
64,0.008195322006940842,-2.10056471824646,-0.01024923101067543,36.7139716,3.1807206,16.64,0.09,0.12,0.0,70,239,0.1605738252401352,0.16056197881698608
65,0.0039639100432395935,-2.089909791946411,0.14495477080345154,36.7139746,3.1807219,16.6,0.6,-0.27,0.0,70,240,0.6613452434539795,0.6612997651100159
