timestamp,pitch,yaw,roll,lat,lon,alt,velocity_x,velocity_y,velocity_z,battery,heading,airspeed,groundspeed
0,-0.022464390844106674,0.03871669992804527,-0.008854752406477928,36.7156066,3.18463,21.53,-0.01,0.01,-0.03,96,2,0.04209722951054573,0.026344768702983856
1,-0.030718255788087845,0.03468357026576996,0.09248817712068558,36.7156078,3.1846321,21.48,0.29,0.48,-0.02,95,1,0.5679827928543091,0.5672993659973145
2,-0.2401552051305771,1.4165802001953125,-0.08709076046943665,36.7156227,3.1846593,21.53,1.74,2.6,-0.09,95,81,3.137035369873047,3.1356709003448486
3,-0.26030460000038147,0.9300377368927002,-0.01577647402882576,36.7156535,3.1847164,21.52,2.67,3.95,0.0,95,53,4.7734375,4.773434638977051
4,-0.14571714401245117,0.9485393166542053,0.026050951331853867,36.7156919,3.1847855,21.52,2.83,4.09,-0.02,94,54,4.9797139167785645,4.9796648025512695
5,0.22651633620262146,0.957885205745697,0.02195166051387787,36.7157292,3.1848514,21.53,1.31,1.87,0.0,94,54,2.2917137145996094,2.2917094230651855
6,0.26640546321868896,0.38141342997550964,-0.17742790281772614,36.7157279,3.1848478,21.56,-1.47,-2.17,0.0,93,21,2.6245789527893066,2.624577283859253
7,-0.07891353219747543,-1.605414628982544,-0.05387622117996216,36.715696,3.1847897,21.53,-2.27,-3.26,-0.06,93,268,3.9804513454437256,3.9798643589019775
8,-0.0672343447804451,-2.233548641204834,0.0816943421959877,36.7156674,3.1847347,21.57,-1.72,-3.19,0.04,93,232,3.628575325012207,3.628293037414551
9,-0.1476684957742691,-1.190698504447937,0.24830788373947144,36.7156607,3.1846842,21.52,1.13,-2.73,0.01,92,291,2.9596164226531982,2.959585428237915
10,-0.47044041752815247,-0.6311920881271362,0.05679252743721008,36.7157128,3.1846241,21.52,5.24,-3.7,0.0,92,323,6.424683570861816,6.424680709838867
11,-0.48512327671051025,-0.6230099201202393,-0.00830123946070671,36.7157993,3.1845489,21.53,7.3,-5.07,0.0,91,324,8.88818359375,8.888178825378418
12,-0.510715663433075,-0.6214733719825745,0.021749643608927727,36.7159211,3.1844424,21.55,7.86,-5.57,0.0,91,324,9.640761375427246,9.640761375427246
13,-0.27335184812545776,-0.6235727667808533,0.011860769242048264,36.7160242,3.1843509,21.58,7.04,-5.02,-0.01,91,324,8.657593727111816,8.657577514648438
14,0.02643386647105217,-0.6959088444709778,-0.08459603786468506,36.7161141,3.1842698,21.58,3.84,-3.22,0.0,90,320,5.0128092765808105,5.012808799743652
15,-0.1983249932527542,-1.7527284622192383,-0.2661159634590149,36.7161379,3.1842194,21.92,-0.5,-3.14,-0.47,90,259,3.2201151847839355,3.185408353805542
16,-0.46654564142227173,-2.159440755844116,-0.0006786258309148252,36.7161073,3.1841514,23.14,-3.71,-5.19,-1.1,89,236,6.484375953674316,6.3899688720703125
17,-0.44809243083000183,-2.1654090881347656,-0.021921735256910324,36.7160339,3.1840221,25.59,-5.3,-7.62,-1.56,89,235,9.421366691589355,9.291274070739746
18,-0.4888473451137543,-2.1659417152404785,-0.002826821291819215,36.7159592,3.1838872,28.05,-5.53,-8.1,-1.58,88,235,9.942427635192871,9.815110206604004
19,-0.47096818685531616,-2.1635220050811768,0.03503306582570076,36.7158839,3.1837484,30.51,-5.54,-8.22,-1.58,88,236,10.038594245910645,9.913159370422363
20,-0.4473990201950073,-2.1665971279144287,-0.0292719267308712,36.7157964,3.1835859,33.38,-5.54,-8.24,-1.59,88,235,10.05700969696045,9.930026054382324
21,-0.4872051477432251,-2.163541555404663,-0.002201635157689452,36.7157216,3.1834465,35.85,-5.49,-8.25,-1.6,87,236,10.049556732177734,9.91987133026123
22,-0.42269888520240784,-2.1633691787719727,0.0036753842141479254,36.7156346,3.1832838,38.76,-5.51,-8.26,-1.62,87,236,10.067792892456055,9.935811042785645
23,-0.4661387801170349,-2.1640608310699463,-0.024775736033916473,36.7155596,3.1831443,41.26,-5.51,-8.29,-1.62,86,236,10.089543342590332,9.95820426940918
24,-0.4546794593334198,-2.1634018421173096,0.03665485233068466,36.7154728,3.1829814,44.18,-5.51,-8.28,-1.62,86,236,10.085363388061523,9.953167915344238
25,-0.42808011174201965,-2.1658976078033447,-0.0018484286265447736,36.715398,3.1828417,46.68,-5.54,-8.3,-1.62,85,235,10.118210792541504,9.986183166503906
26,-0.47876986861228943,-2.1644747257232666,-0.021463245153427124,36.7153232,3.1827019,49.19,-5.52,-8.31,-1.62,85,235,10.115599632263184,9.98394775390625
27,-0.43834206461906433,-2.163994789123535,0.029655078426003456,36.715236,3.1825385,52.11,-5.51,-8.29,-1.63,84,236,10.095426559448242,9.962043762207031
28,-0.4306035041809082,-2.1649205684661865,-0.018251769244670868,36.7151611,3.1823987,54.61,-5.52,-8.29,-1.63,84,235,10.09553337097168,9.962355613708496
29,-0.41086816787719727,-2.164297342300415,0.022306034341454506,36.7150744,3.1822364,57.52,-5.36,-8.02,-1.59,83,236,9.783610343933105,9.652382850646973
30,-0.1119956225156784,-2.166749954223633,0.012251176871359348,36.7150082,3.1821138,59.73,-4.18,-6.21,-1.23,83,235,7.592259883880615,7.490999221801758
31,-0.08501634746789932,-2.1503820419311523,0.005700407084077597,36.714963,3.1820284,61.06,-2.62,-4.11,-0.53,83,236,4.909688949584961,4.880813121795654
32,-0.11617676168680191,-2.094233751296997,-0.003757285187020898,36.7149278,3.1819546,61.5,-2.04,-3.66,-0.06,82,240,4.198688983917236,4.198246002197266
33,-0.1679132729768753,-2.088047742843628,0.014438978396356106,36.7149007,3.1818933,61.5,-2.0,-3.69,-0.01,82,240,4.208930492401123,4.208884239196777
34,0.0438259020447731,-2.1187713146209717,-0.05664774030447006,36.7148728,3.1818309,61.37,-1.41,-2.39,0.32,82,238,2.800137758255005,2.781144857406616
35,0.012918978929519653,-2.4263007640838623,-0.008410191163420677,36.714856,3.1818035,59.93,-1.13,-1.07,1.43,81,220,2.1270384788513184,1.566899061203003
36,-0.031595271080732346,-2.463170289993286,-0.022395525127649307,36.7148415,3.1817894,57.63,-1.04,-0.8,1.42,81,218,1.9413782358169556,1.3174768686294556
37,-0.010361687280237675,-2.4684016704559326,0.008702502585947514,36.7148251,3.1817738,55.03,-1.04,-0.84,1.43,81,218,1.9661890268325806,1.34597647190094
38,-0.06532218307256699,-2.4694604873657227,-0.006540007423609495,36.7148108,3.1817595,52.79,-1.06,-0.88,1.44,80,218,2.00531005859375,1.3876992464065552
39,-0.012676022946834564,-2.469452381134033,0.010705932974815369,36.7147963,3.1817449,50.55,-1.07,-0.87,1.45,80,218,2.0085554122924805,1.3880304098129272
40,-0.046845197677612305,-2.469756841659546,0.02597249113023281,36.7147792,3.1817278,47.93,-1.07,-0.88,1.45,79,218,2.013620615005493,1.3892560005187988
41,-0.019015200436115265,-2.469784736633301,-0.019546229392290115,36.7147647,3.1817131,45.68,-1.07,-0.88,1.46,79,218,2.0208051204681396,1.3949424028396606
42,-0.01521711703389883,-2.4694576263427734,0.01858522929251194,36.7147477,3.181696,43.06,-1.06,-0.88,1.46,79,218,2.0188283920288086,1.3868733644485474
43,-0.0505995973944664,-2.4691808223724365,-0.022708846256136894,36.7147332,3.1816814,40.81,-1.07,-0.89,1.46,78,218,2.02842378616333,1.401251196861267
44,-0.012473220936954021,-2.4697296619415283,-0.014686769805848598,36.7147161,3.1816641,38.19,-1.08,-0.89,1.47,78,218,2.032447576522827,1.4012889862060547
45,-0.06558594107627869,-2.469599962234497,0.010184813290834427,36.7147014,3.1816493,35.95,-1.07,-0.88,1.47,78,218,2.028115749359131,1.3915435075759888
46,-0.012053296901285648,-2.4701695442199707,-0.006472383625805378,36.7146868,3.1816346,33.7,-1.06,-0.87,1.47,77,218,2.0197181701660156,1.3771177530288696
47,-0.027408376336097717,-2.4692091941833496,0.02692018821835518,36.7146699,3.1816175,31.08,-1.05,-0.87,1.48,77,218,2.0232746601104736,1.3739627599716187
48,-0.039896462112665176,-2.469482421875,-0.025194037705659866,36.7146553,3.1816027,28.83,-1.06,-0.88,1.48,77,218,2.030162811279297,1.386631727218628
49,-0.006865675561130047,-2.4697697162628174,-0.0011434514308348298,36.7146383,3.1815855,26.2,-1.06,-0.88,1.47,76,218,2.0268142223358154,1.3864959478378296
50,-0.07662220299243927,-2.480194568634033,-0.026918670162558556,36.7146237,3.1815708,23.95,-1.1,-0.86,1.47,76,217,2.039260149002075,1.4047141075134277
51,-0.1361660659313202,3.0076210498809814,-0.10258051753044128,36.7146028,3.1815624,21.95,-2.12,0.18,0.88,75,172,2.3045618534088135,2.12935471534729
52,-0.2297322005033493,2.6780221462249756,0.02648252621293068,36.7145547,3.181586,21.54,-3.81,1.87,-0.05,75,153,4.251626014709473,4.251263618469238
53,-0.1255737841129303,2.6809277534484863,-0.005099083762615919,36.7144998,3.1816196,21.6,-4.03,1.99,0.05,75,153,4.502936363220215,4.502644062042236
54,-0.05740255489945412,-2.958498954772949,0.29282233119010925,36.7144406,3.1816407,21.55,-3.2,-0.57,0.03,74,190,3.252896785736084,3.25268816947937
55,-0.4463423192501068,-2.192084312438965,0.06397309899330139,36.7143997,3.1815978,21.54,-3.15,-4.52,0.01,74,234,5.515514373779297,5.515480995178223
56,-0.49946093559265137,-2.154620885848999,0.036268722265958786,36.7143486,3.1814983,21.54,-4.38,-6.98,0.0,73,236,8.249741554260254,8.249739646911621
57,-0.46209967136383057,-2.1516685485839844,-0.03054286725819111,36.7142735,3.1813505,21.56,-4.95,-7.7,0.0,73,236,9.166312217712402,9.166311264038086
58,-0.33346807956695557,-2.153744697570801,0.028204845264554024,36.7142081,3.1812245,21.57,-4.52,-6.96,0.0,73,236,8.305609703063965,8.305609703063965
59,-0.26215073466300964,-2.137584686279297,-0.010300367139279842,36.7141444,3.1811003,21.56,-3.57,-5.75,0.03,72,237,6.780195713043213,6.780118465423584
60,-0.2857522666454315,-2.1092681884765625,0.035911139100790024,36.7140983,3.1810044,21.54,-3.27,-5.65,0.0,72,239,6.531063079833984,6.531057834625244
61,-0.2645570933818817,-2.099260091781616,-0.01525968499481678,36.7140546,3.1809094,21.54,-3.22,-5.68,0.01,71,239,6.533758163452148,6.533750057220459
62,-0.08990634977817535,-2.100346088409424,0.027636852115392685,36.7140052,3.1808016,21.55,-2.8,-4.89,0.0,71,239,5.643155097961426,5.643153190612793
63,0.16262608766555786,-2.1011624336242676,-0.02815927565097809,36.7139763,3.1807388,21.51,-1.28,-2.24,0.01,71,239,2.582288980484009,2.5822203159332275
64,0.09383370727300644,-2.1006412506103516,0.003369257552549243,36.7139683,3.1807208,21.53,0.04,0.02,0.0,70,239,0.051123637706041336,0.05044938996434212
65,-0.03615999594330788,-2.103179931640625,0.0839538499712944,36.7139701,3.1807228,21.49,0.36,-0.07,0.01,70,239,0.37338975071907043,0.3728656470775604
