timestamp,pitch,yaw,roll,lat,lon,alt,velocity_x,velocity_y,velocity_z,battery,heading,airspeed,groundspeed
0,-0.010387711226940155,0.0426185242831707,-0.021926918998360634,36.7156067,3.18463,21.68,-0.02,0.01,-0.04,96,2,0.052882514894008636,0.033438991755247116
1,-0.024349596351385117,0.059736549854278564,0.1459815502166748,36.7156074,3.1846331,21.63,0.2,0.7,-0.03,95,3,0.7305100560188293,0.7297614216804504
2,-0.1392117291688919,1.8424766063690186,-0.059509165585041046,36.7156168,3.1846679,21.67,0.89,2.76,-0.03,95,105,2.910165309906006,2.9099040031433105
3,-0.07847917079925537,1.066729187965393,-0.009080358780920506,36.7156301,3.1847183,21.68,0.98,3.01,-0.01,95,61,3.1752402782440186,3.1752066612243652
4,0.3036879301071167,1.6306793689727783,0.18635670840740204,36.7156376,3.1847533,21.68,-0.24,0.44,-0.04,94,93,0.5111070871353149,0.5093593597412109
5,-0.1786777824163437,-2.6781458854675293,0.12796486914157867,36.7156159,3.1847188,21.69,-2.16,-3.19,0.05,94,206,3.861539125442505,3.861145496368408
6,-0.1325041502714157,-2.1102652549743652,-0.015101812779903412,36.7155851,3.1846621,21.71,-2.32,-3.37,-0.04,93,239,4.097957134246826,4.097670555114746
7,-0.008173628710210323,-1.7474112510681152,0.22410431504249573,36.7155628,3.1846064,21.68,-0.58,-3.08,0.03,93,259,3.1350924968719482,3.1349072456359863
8,-0.4364739656448364,-0.6584269404411316,0.10167433321475983,36.715588,3.184549,21.67,3.85,-3.1,0.0,93,322,4.951163291931152,4.951162338256836
9,-0.4747926890850067,-0.6185652613639832,0.021306253969669342,36.7156603,3.1844847,21.67,6.62,-4.58,0.0,92,324,8.057445526123047,8.057443618774414
10,-0.5223801732063293,-0.6173562407493591,0.004336245357990265,36.7157776,3.1843837,21.69,7.89,-5.48,0.0,92,324,9.612607955932617,9.6126070022583
11,-0.39161115884780884,-0.618080735206604,0.023643160238862038,36.7158845,3.1842903,21.71,7.67,-5.42,-0.02,91,324,9.400274276733398,9.400250434875488
12,-0.11096619814634323,-0.6221092343330383,-0.030757823958992958,36.7159785,3.1842073,21.74,5.91,-4.21,0.02,91,324,7.263205051422119,7.263146877288818
13,0.07926894724369049,-1.0758336782455444,-0.24676991999149323,36.7160416,3.1841409,21.82,1.57,-2.89,-0.21,91,298,3.308901071548462,3.302049398422241
14,-0.3998877704143524,-2.123178720474243,-0.09646560251712799,36.7160342,3.1840857,22.6,-2.51,-4.08,-0.81,90,238,4.869691848754883,4.800350189208984
15,-0.4453667104244232,-2.1599528789520264,-0.006521650590002537,36.7159729,3.1839773,24.67,-4.85,-6.9,-1.44,90,236,8.566056251525879,8.442974090576172
16,-0.4848285913467407,-2.165140151977539,-0.023664124310016632,36.7159009,3.183849,27.04,-5.53,-7.99,-1.61,89,235,9.863680839538574,9.730856895446777
17,-0.44633519649505615,-2.1655991077423096,0.04450837895274162,36.7158128,3.1836885,29.91,-5.55,-8.2,-1.59,89,235,10.03353500366211,9.906564712524414
18,-0.4388967454433441,-2.164926290512085,-0.03057689405977726,36.7157376,3.1835491,32.38,-5.53,-8.23,-1.59,88,235,10.051595687866211,9.924833297729492
19,-0.4896922707557678,-2.165764093399048,-0.018348371610045433,36.7156627,3.1834101,34.86,-5.54,-8.26,-1.59,88,235,10.073698043823242,9.94723129272461
20,-0.42171964049339294,-2.162715435028076,0.013872469775378704,36.7155753,3.183247,37.75,-5.52,-8.27,-1.62,87,236,10.082979202270508,9.951502799987793
21,-0.44805455207824707,-2.1649787425994873,-0.03443209454417229,36.7155005,3.1831079,40.24,-5.54,-8.23,-1.62,87,235,10.054971694946289,9.923249244689941
22,-0.4700786769390106,-2.1667821407318115,0.03856555372476578,36.715413,3.1829454,43.16,-5.52,-8.29,-1.62,87,235,10.096707344055176,9.964715957641602
23,-0.4233931005001068,-2.1647984981536865,-0.000591107876971364,36.7153383,3.1828052,45.65,-5.52,-8.29,-1.63,86,236,10.092735290527344,9.959774017333984
24,-0.4658547341823578,-2.1676154136657715,-0.027481969445943832,36.7152632,3.1826655,48.15,-5.53,-8.26,-1.63,86,235,10.085872650146484,9.95194149017334
25,-0.4537334740161896,-2.1646931171417236,0.03733018413186073,36.7151762,3.1825032,51.07,-5.51,-8.28,-1.64,85,235,10.09101390838623,9.956448554992676
26,-0.4284462332725525,-2.164567708969116,-0.015206633135676384,36.7151012,3.182363,53.57,-5.54,-8.3,-1.64,85,235,10.118570327758789,9.984350204467773
27,-0.47914281487464905,-2.1664440631866455,0.02599170058965683,36.7150136,3.1821998,56.49,-5.51,-8.27,-1.64,84,235,10.076812744140625,9.942411422729492
28,-0.2580519914627075,-2.169599771499634,0.02332833595573902,36.7149417,3.1820667,58.91,-4.9,-7.26,-1.46,84,235,8.88940715789795,8.76800537109375
29,-0.09176817536354065,-2.163393974304199,0.019422568380832672,36.7148789,3.1819495,60.92,-3.02,-4.59,-0.71,83,236,5.550507545471191,5.503695487976074
30,-0.11652874201536179,-2.1105687618255615,0.026658950373530388,36.7148452,3.1818823,61.58,-2.17,-3.7,-0.19,83,239,4.2986931800842285,4.294433116912842
31,-0.17814195156097412,-2.086463689804077,-0.002579787280410528,36.7148175,3.1818207,61.66,-1.98,-3.66,0.0,83,240,4.168713569641113,4.1687116622924805
32,-0.0041097900830209255,-2.0872409343719482,-0.023394620046019554,36.7147868,3.1817513,61.65,-1.71,-3.15,0.02,82,240,3.5892245769500732,3.589099884033203
33,0.006321754772216082,-2.2649855613708496,-0.031521011143922806,36.7147675,3.1817121,61.0,-1.21,-1.55,0.98,82,230,2.205483913421631,1.9710708856582642
34,-0.0033491728827357292,-2.4863314628601074,-0.018115585669875145,36.7147523,3.181694,58.87,-1.03,-0.81,1.47,82,217,1.9800440073013306,1.3173167705535889
35,-0.02196863852441311,-2.471761703491211,0.02311614528298378,36.7147359,3.1816788,56.24,-1.04,-0.82,1.42,81,218,1.951698660850525,1.3307102918624878
36,-0.05104649066925049,-2.469909191131592,-0.019531304016709328,36.7147216,3.1816647,54.01,-1.06,-0.87,1.44,81,218,1.994935154914856,1.3780497312545776
37,-0.011519516818225384,-2.469921350479126,-0.010248369537293911,36.7147047,3.1816478,51.39,-1.07,-0.88,1.45,81,218,2.012566566467285,1.3914353847503662
38,-0.06095027178525925,-2.4696567058563232,0.014333230443298817,36.7146902,3.1816333,49.14,-1.06,-0.89,1.45,80,218,2.0116190910339355,1.3880209922790527
39,-0.03805265203118324,-2.4691925048828125,-0.025339731946587563,36.7146732,3.1816161,46.53,-1.08,-0.89,1.46,80,218,2.0281200408935547,1.402174711227417
40,-0.03054395504295826,-2.469560146331787,0.02633211389183998,36.7146586,3.1816013,44.29,-1.07,-0.88,1.47,79,218,2.024040460586548,1.387334942817688
41,-0.03603863716125488,-2.4696907997131348,-0.024408241733908653,36.714644,3.1815867,42.04,-1.07,-0.89,1.47,79,218,2.0292928218841553,1.393760323524475
42,-0.0111867506057024,-2.4699532985687256,0.0048402114771306515,36.7146269,3.1815695,39.42,-1.06,-0.88,1.47,79,218,2.026329278945923,1.3861135244369507
43,-0.05913826823234558,-2.4690747261047363,-0.008008002303540707,36.7146124,3.1815547,37.17,-1.06,-0.89,1.48,78,218,2.0332014560699463,1.3938363790512085
44,-0.027694420889019966,-2.46946382522583,-0.02417835406959057,36.7145954,3.1815376,34.54,-1.07,-0.88,1.47,78,218,2.0302977561950684,1.39258873462677
45,-0.048361703753471375,-2.4697914123535156,0.027633287012577057,36.7145808,3.1815229,32.29,-1.06,-0.88,1.47,78,218,2.0212950706481934,1.3844923973083496
46,-0.02040981315076351,-2.4699296951293945,-0.018270909786224365,36.7145662,3.1815081,30.05,-1.07,-0.88,1.48,77,218,2.033123016357422,1.3925321102142334
47,-0.01788121834397316,-2.469230890274048,0.016460217535495758,36.7145493,3.181491,27.42,-1.06,-0.87,1.47,77,218,2.0200631618499756,1.377806544303894
48,-0.055239059031009674,-2.4692604541778564,-0.01754135638475418,36.7145347,3.1814763,25.16,-1.06,-0.88,1.47,77,218,2.025517225265503,1.3883665800094604
49,-0.08946776390075684,-2.974046468734741,-0.12343519926071167,36.7145148,3.1814614,22.61,-1.71,-0.34,1.24,76,189,2.1498382091522217,1.7531282901763916
50,-0.2528766393661499,2.6751821041107178,-0.005792916752398014,36.7144814,3.1814709,21.67,-3.27,1.48,0.03,76,153,3.600975275039673,3.60078501701355
51,-0.14874663949012756,2.6793768405914307,-0.016033396124839783,36.7144302,3.1815017,21.75,-4.07,2.03,-0.03,75,153,4.5503034591674805,4.550169944763184
52,-0.02976490557193756,2.8890843391418457,0.17850983142852783,36.7143671,3.1815368,21.71,-3.69,0.95,0.05,75,165,3.818051815032959,3.81764554977417
53,-0.34038245677948,-2.3169424533843994,0.14430585503578186,36.7143231,3.1815248,21.69,-2.93,-2.75,0.02,75,227,4.022550582885742,4.022485733032227
54,-0.4574804902076721,-2.139078378677368,0.016146620735526085,36.7142702,3.1814314,21.69,-4.05,-6.43,0.01,74,237,7.611543655395508,7.611533164978027
55,-0.47690001130104065,-2.1482300758361816,-0.03033135086297989,36.7142089,3.1813107,21.7,-4.87,-7.68,0.0,74,236,9.1033296585083,9.103330612182617
56,-0.3983091711997986,-2.1508612632751465,0.015872320160269737,36.7141422,3.1811808,21.71,-4.84,-7.49,0.0,73,236,8.925309181213379,8.925305366516113
57,-0.2366207242012024,-2.1469430923461914,-0.016370443627238274,36.7140723,3.1810461,21.71,-3.92,-6.14,0.02,73,236,7.290450572967529,7.290409088134766
58,-0.29152384400367737,-2.1207547187805176,0.04397145286202431,36.7140236,3.1809478,21.69,-3.39,-5.69,0.01,73,238,6.6290717124938965,6.629048824310303
59,-0.2876012325286865,-2.100943088531494,-0.0206711795181036,36.7139717,3.1808366,21.69,-3.21,-5.64,0.0,72,239,6.496923446655273,6.496917724609375
60,-0.22210946679115295,-2.100135087966919,0.030595257878303528,36.7139283,3.1807418,21.69,-3.12,-5.48,0.0,72,239,6.316131591796875,6.316132068634033
61,0.07368956506252289,-2.1007657051086426,-0.02621682547032833,36.7138914,3.1806615,21.69,-2.13,-3.71,0.03,71,239,4.28409481048584,4.283923149108887
62,0.15307408571243286,-2.100510597229004,0.011442436836659908,36.7138731,3.1806213,21.67,-0.31,-0.58,-0.02,71,239,0.6607236266136169,0.6603123545646667
63,-0.020782209932804108,-2.100684404373169,-0.006906591355800629,36.7138728,3.1806204,21.67,0.1,0.14,0.03,71,239,0.18120692670345306,0.17868946492671967
