timestamp,pitch,yaw,roll,lat,lon,alt,velocity_x,velocity_y,velocity_z,battery,heading,airspeed,groundspeed
0,-0.02238771878182888,0.04121182858943939,0.008428561501204967,36.7156066,3.18463,16.91,-0.02,0.02,-0.04,96,2,0.05704817920923233,0.033830199390649796
1,-0.04376337304711342,0.04531367868185043,0.0975475087761879,36.7156078,3.1846325,16.98,0.31,0.59,-0.01,95,2,0.6713264584541321,0.6712275743484497
2,-0.08996874839067459,1.5514805316925049,-0.06586559116840363,36.7156216,3.184663,16.94,1.35,2.38,-0.02,95,88,2.7383382320404053,2.7382266521453857
3,-0.04957391321659088,0.9652968049049377,0.02066151238977909,36.7156413,3.1847055,16.97,1.43,2.5,-0.01,95,55,2.884009838104248,2.8839776515960693
4,0.3538159132003784,1.2674534320831299,0.07228527963161469,36.7156524,3.1847303,16.96,-0.2,-0.15,0.01,94,72,0.25902172923088074,0.25840869545936584
5,-0.06787000596523285,3.0802981853485107,0.18229940533638,36.7156303,3.1846904,16.98,-2.2,-3.14,-0.03,94,176,3.839043378829956,3.838906764984131
6,-0.1529938131570816,-1.9202542304992676,-0.015397806651890278,36.7155997,3.1846343,16.98,-2.26,-3.32,0.0,93,249,4.022619724273682,4.022612571716309
7,-0.057720135897397995,-1.5099174976348877,0.21411480009555817,36.7155784,3.1845711,16.96,0.12,-2.96,0.0,93,273,2.963641881942749,2.9636268615722656
8,-0.41822677850723267,-0.6556849479675293,0.11585011333227158,36.7156063,3.1845219,16.96,3.96,-3.15,0.0,93,322,5.0618205070495605,5.061818599700928
9,-0.4821101725101471,-0.6244757771492004,-0.005943651311099529,36.7156798,3.1844564,16.96,6.67,-4.63,0.0,92,324,8.125895500183105,8.125890731811523
10,-0.5075544714927673,-0.6197131872177124,0.027063976973295212,36.7157971,3.1843547,16.98,7.9,-5.5,0.0,92,324,9.633809089660645,9.633804321289062
11,-0.3680891692638397,-0.6207783818244934,-0.001127071911469102,36.7159035,3.1842612,17.0,7.62,-5.41,-0.02,91,324,9.352093696594238,9.352052688598633
12,-0.06472925841808319,-0.6286510825157166,-0.005597369279712439,36.7160087,3.1841675,17.02,5.23,-3.8,0.04,91,323,6.4704108238220215,6.470285892486572
13,0.04662628844380379,-1.146799921989441,-0.2920277416706085,36.7160555,3.1841135,17.13,1.3,-2.89,-0.24,91,294,3.1841225624084473,3.1747312545776367
14,-0.393706738948822,-2.1257853507995605,-0.05590766668319702,36.716045,3.184057,17.97,-2.66,-4.22,-0.85,90,238,5.071045398712158,4.997675895690918
15,-0.4787527322769165,-2.158979654312134,-0.03886202722787857,36.715982,3.1839456,20.09,-4.93,-7.02,-1.46,90,236,8.708337783813477,8.58480453491211
16,-0.49553382396698,-2.1664559841156006,0.016293929889798164,36.7159096,3.1838165,22.48,-5.54,-8.02,-1.61,89,235,9.890230178833008,9.757824897766113
17,-0.4192870259284973,-2.1625170707702637,0.0058064707554876804,36.7158218,3.1836555,25.35,-5.52,-8.22,-1.59,89,236,10.036774635314941,9.909207344055176
18,-0.4775886833667755,-2.164130687713623,-0.02446615695953369,36.7157466,3.1835157,27.82,-5.54,-8.23,-1.59,88,236,10.056925773620605,9.929588317871094
19,-0.4828856289386749,-2.1645073890686035,0.027633104473352432,36.7156715,3.1833763,30.3,-5.5,-8.23,-1.6,88,235,10.030327796936035,9.901732444763184
20,-0.4390542507171631,-2.166304588317871,-0.021691976115107536,36.7155849,3.1832144,33.19,-5.52,-8.28,-1.62,87,235,10.092486381530762,9.961281776428223
21,-0.48182857036590576,-2.163318395614624,-0.021558502689003944,36.71551,3.1830744,35.69,-5.51,-8.29,-1.62,87,236,10.089591979980469,9.958089828491211
22,-0.42943355441093445,-2.162465810775757,0.01480895560234785,36.7154227,3.1829111,38.6,-5.51,-8.26,-1.63,87,236,10.067543029785156,9.933944702148438
23,-0.426383376121521,-2.163011074066162,0.003414741950109601,36.7153604,3.1827948,40.69,-5.51,-8.26,-1.63,86,236,10.067468643188477,9.933525085449219
24,-0.4955199360847473,-2.1673803329467773,0.007409233599901199,36.7152733,3.1826322,43.6,-5.52,-8.3,-1.63,86,235,10.1099214553833,9.97640609741211
25,-0.4238741099834442,-2.1627914905548096,-0.0019474044675007463,36.7151863,3.1824687,46.53,-5.5,-8.3,-1.64,85,236,10.09967041015625,9.965567588806152
26,-0.471871554851532,-2.163414478302002,-0.03190091624855995,36.7151115,3.1823288,49.03,-5.53,-8.28,-1.64,85,236,10.0986328125,9.964534759521484
27,-0.4274390637874603,-2.1644539833068848,0.033944468945264816,36.715024,3.1821657,51.95,-5.51,-8.27,-1.65,84,235,10.079955101013184,9.943811416625977
28,-0.24152924120426178,-2.168609142303467,-0.01698843203485012,36.7149527,3.1820334,54.35,-4.79,-7.14,-1.44,84,235,8.726173400878906,8.606329917907715
29,-0.09935031086206436,-2.1644039154052734,0.020463984459638596,36.7148989,3.1819327,56.1,-3.15,-4.78,-0.78,84,235,5.782264709472656,5.728946685791016
30,-0.13089124858379364,-2.1068172454833984,-0.008606349118053913,36.7148593,3.1818533,56.88,-2.16,-3.71,-0.16,83,239,4.301750659942627,4.298498630523682
31,-0.1550484597682953,-2.0861198902130127,0.03305593878030777,36.7148316,3.1817917,56.95,-2.0,-3.66,0.0,83,240,4.180238246917725,4.180234432220459
32,-0.030852045863866806,-2.087724447250366,-0.019073497503995895,36.7148011,3.1817228,56.93,-1.65,-3.02,0.06,82,240,3.4501326084136963,3.449587106704712
33,0.03856481611728668,-2.2947826385498047,-0.03822167590260506,36.7147824,3.1816859,56.17,-1.21,-1.47,1.08,82,228,2.1950955390930176,1.9106955528259277
34,-0.04369763284921646,-2.4738051891326904,0.021530335769057274,36.7147649,3.1816663,53.61,-1.03,-0.8,1.44,82,218,1.9513866901397705,1.3085838556289673
35,-0.025756554678082466,-2.4714243412017822,-0.02116517536342144,36.7147509,3.181653,51.37,-1.04,-0.83,1.42,81,218,1.9540382623672485,1.332760214805603
36,-0.05527966096997261,-2.4702346324920654,0.02607407048344612,36.7147366,3.181639,49.14,-1.05,-0.87,1.44,81,218,1.9913184642791748,1.372374415397644
37,-0.055979449301958084,-2.4695816040039062,-0.017390185967087746,36.7147196,3.1816221,46.52,-1.07,-0.88,1.45,81,218,2.01365065574646,1.3914309740066528
38,-0.017065836116671562,-2.469538927078247,0.02156481333076954,36.7147051,3.1816075,44.27,-1.06,-0.87,1.45,80,218,2.0075604915618896,1.3804271221160889
39,-0.061330586671829224,-2.4693479537963867,0.016105040907859802,36.7146881,3.1815904,41.66,-1.06,-0.89,1.46,80,218,2.0220983028411865,1.391507625579834
40,-0.016052791848778725,-2.4695634841918945,-0.015449871309101582,36.7146735,3.1815757,39.42,-1.07,-0.89,1.47,80,218,2.0298502445220947,1.3953173160552979
41,-0.05929449945688248,-2.469993829727173,0.0161032285541296,36.7146589,3.181561,37.17,-1.06,-0.88,1.47,79,218,2.024718999862671,1.385595679283142
42,-0.04689166694879532,-2.4696121215820312,-0.02286730334162712,36.7146419,3.1815438,34.55,-1.06,-0.89,1.47,79,218,2.0308878421783447,1.3917391300201416
43,-0.030752811580896378,-2.469111204147339,0.025188783183693886,36.7146273,3.1815291,32.3,-1.06,-0.87,1.48,78,218,2.0224266052246094,1.3769856691360474
44,-0.061097875237464905,-2.469672679901123,0.01338106393814087,36.7146103,3.181512,29.67,-1.05,-0.88,1.47,78,218,2.0204763412475586,1.3780306577682495
45,-0.011770750395953655,-2.46945858001709,-0.007056188303977251,36.7145957,3.1814972,27.42,-1.06,-0.88,1.47,78,218,2.022559404373169,1.3844411373138428
46,-0.0628727525472641,-2.4701406955718994,0.007459182757884264,36.7145812,3.1814825,25.18,-1.06,-0.88,1.48,77,218,2.026801347732544,1.382145643234253
47,-0.03505978733301163,-2.4692461490631104,-0.028068874031305313,36.7145641,3.1814653,22.55,-1.06,-0.88,1.47,77,218,2.023360013961792,1.3821642398834229
48,-0.031294822692871094,-2.469465494155884,0.02862161211669445,36.7145495,3.1814506,20.29,-1.05,-0.87,1.47,77,218,2.01314640045166,1.3699519634246826
49,-0.14981113374233246,-3.042433023452759,-0.09869188070297241,36.7145291,3.1814364,17.77,-1.78,-0.25,1.17,76,185,2.1583187580108643,1.8082338571548462
50,-0.19971415400505066,2.6725430488586426,-0.02662290632724762,36.7144942,3.1814481,16.96,-3.37,1.58,0.0,76,153,3.73024845123291,3.730248212814331
51,-0.19581091403961182,2.6794581413269043,-0.009313727729022503,36.7144421,3.1814797,17.05,-4.06,2.02,-0.01,75,153,4.539426803588867,4.539400100708008
52,-0.02006378397345543,2.9377787113189697,0.14312191307544708,36.7143796,3.1815133,17.0,-3.63,0.75,0.05,75,168,3.717674970626831,3.7172844409942627
53,-0.35813984274864197,-2.26558518409729,0.17444519698619843,36.7143363,3.1814967,16.98,-2.95,-3.03,0.02,75,230,4.238407135009766,4.238341331481934
54,-0.4962005615234375,-2.1447505950927734,-0.015304630622267723,36.7142819,3.1813987,16.98,-4.14,-6.59,0.01,74,237,7.793083667755127,7.7930684089660645
55,-0.48158130049705505,-2.148400068283081,0.027109213173389435,36.7142202,3.1812767,16.99,-4.86,-7.68,0.0,74,236,9.091638565063477,9.091638565063477
56,-0.33732521533966064,-2.1513583660125732,-0.005205004010349512,36.7141535,3.1811473,17.0,-4.82,-7.44,-0.01,73,236,8.871816635131836,8.871808052062988
57,-0.24453414976596832,-2.146463394165039,0.04092219099402428,36.7140844,3.1810137,17.01,-3.84,-6.05,0.02,73,237,7.169256210327148,7.169198036193848
58,-0.24810895323753357,-2.1181275844573975,0.004316539037972689,36.7140363,3.1809161,16.98,-3.37,-5.66,0.01,73,238,6.593752861022949,6.593735218048096
59,-0.2847069799900055,-2.1004180908203125,0.034863900393247604,36.7139848,3.1808054,16.98,-3.21,-5.65,0.0,72,239,6.505429744720459,6.505425930023193
60,-0.17663083970546722,-2.1002750396728516,-0.024825243279337883,36.7139413,3.1807105,16.98,-3.09,-5.42,0.0,72,239,6.251165390014648,6.251163482666016
61,0.07134143263101578,-2.101168155670166,0.02202923223376274,36.7139054,3.1806322,16.97,-1.99,-3.48,0.03,72,239,4.016695022583008,4.0165276527404785
62,0.09279965609312057,-2.100381851196289,-0.01778583601117134,36.7138888,3.1805961,16.97,-0.25,-0.47,-0.02,71,239,0.539119303226471,0.5386043190956116
63,0.02386837638914585,-2.1002731323242188,0.042750973254442215,36.7138889,3.1805958,16.96,0.12,0.14,0.03,71,239,0.19801142811775208,0.19428540766239166
