timestamp,pitch,yaw,roll,lat,lon,alt,velocity_x,velocity_y,velocity_z,battery,heading,airspeed,groundspeed
0,0.010194279253482819,0.037655312567949295,-0.021272210404276848,36.7156067,3.18463,14.66,-0.02,0.02,-0.04,96,2,0.05994870513677597,0.04024127870798111
1,-0.044732578098773956,0.036994077265262604,0.13412392139434814,36.7156075,3.1846326,14.68,0.21,0.59,-0.02,95,2,0.6358467936515808,0.6354627013206482
2,-0.23206356167793274,1.6241127252578735,-0.12700490653514862,36.7156158,3.1846569,14.68,1.09,2.54,-0.02,95,93,2.7663826942443848,2.7662997245788574
3,-0.1786928027868271,0.9911762475967407,-0.008250925689935684,36.7156393,3.1847236,14.69,1.7,3.92,-0.01,95,56,4.273587226867676,4.273568153381348
4,-0.048931799829006195,1.1222165822982788,0.032748471945524216,36.7156627,3.1847898,14.69,1.62,3.66,0.0,94,64,4.012120246887207,4.012118816375732
5,0.2721801698207855,1.689219355583191,0.23269371688365936,36.7156757,3.1848309,14.71,-0.48,-0.29,-0.03,94,96,0.5660759210586548,0.5649588704109192
6,-0.11242441087961197,-2.919863224029541,0.13293896615505219,36.7156561,3.1847977,14.7,-2.12,-3.06,0.06,93,192,3.725234270095825,3.7246410846710205
7,-0.10018344223499298,-2.1358654499053955,0.04977405443787575,36.7156212,3.1847332,14.73,-2.2,-3.28,-0.02,93,237,3.957624912261963,3.957542896270752
8,-0.050109878182411194,-1.7176586389541626,0.1767461895942688,36.715601,3.1846791,14.69,-0.42,-2.99,0.02,93,261,3.0266573429107666,3.0265135765075684
9,-0.34568923711776733,-0.6562480926513672,0.1058519259095192,36.7156202,3.1846309,14.68,3.34,-2.97,0.0,92,322,4.472316265106201,4.472312927246094
10,-0.5102590322494507,-0.6119242906570435,-0.021919889375567436,36.7156867,3.1845701,14.68,6.28,-4.39,0.0,92,324,7.671844482421875,7.671843528747559
11,-0.4789797067642212,-0.6185594797134399,0.01910051889717579,36.7158002,3.1844716,14.7,7.82,-5.45,0.0,91,324,9.539801597595215,9.539796829223633
12,-0.4264243245124817,-0.621310830116272,-0.01213055569678545,36.7159242,3.1843627,14.72,7.62,-5.42,-0.02,91,324,9.355500221252441,9.355472564697266
13,-0.08864406496286392,-0.6249042749404907,0.02528795227408409,36.7160174,3.1842798,14.74,5.76,-4.14,0.02,91,324,7.099832057952881,7.099771022796631
14,0.05731666833162308,-0.9377926588058472,-0.24152772128582,36.7160735,3.1842224,14.79,2.13,-2.92,-0.15,90,306,3.6190991401672363,3.615786075592041
15,-0.3462323844432831,-2.129758596420288,-0.10296250879764557,36.716068,3.1841585,15.66,-2.62,-4.18,-0.85,90,237,5.015299320220947,4.942468166351318
16,-0.5110657811164856,-2.167182207107544,0.0007679198170080781,36.7160163,3.1840673,17.4,-4.68,-6.66,-1.39,89,235,8.261611938476562,8.14258098602295
17,-0.42110562324523926,-2.162672281265259,0.007936927489936352,36.7159332,3.1839186,20.16,-5.5,-8.0,-1.61,89,236,9.844767570495605,9.711008071899414
18,-0.47037386894226074,-2.1644914150238037,-0.02530379593372345,36.7158582,3.1837814,22.63,-5.54,-8.2,-1.57,88,235,10.030030250549316,9.905041694641113
19,-0.49101290106773376,-2.163217782974243,0.01603303849697113,36.7157831,3.1836417,25.09,-5.54,-8.26,-1.59,88,236,10.077239990234375,9.950788497924805
20,-0.4254366457462311,-2.1650171279907227,-0.009613623842597008,36.7156955,3.1834789,27.98,-5.53,-8.25,-1.6,88,235,10.068159103393555,9.940068244934082
21,-0.4721907079219818,-2.1630473136901855,-0.039148278534412384,36.7156209,3.1833399,30.45,-5.51,-8.24,-1.61,87,236,10.050276756286621,9.920242309570312
22,-0.4400356411933899,-2.163144826889038,0.027555203065276146,36.7155337,3.183177,33.36,-5.51,-8.29,-1.63,87,236,10.093362808227539,9.96078109741211
23,-0.4265018701553345,-2.162081718444824,0.016609197482466698,36.7154714,3.1830602,35.45,-5.51,-8.27,-1.62,86,236,10.082379341125488,9.94984245300293
24,-0.4941071569919586,-2.165783166885376,-0.002226067939773202,36.7153843,3.1828976,38.36,-5.52,-8.29,-1.62,86,235,10.098825454711914,9.966597557067871
25,-0.4272545278072357,-2.1639797687530518,0.01703720912337303,36.7152971,3.1827345,41.28,-5.53,-8.28,-1.64,85,236,10.09780502319336,9.963562965393066
26,-0.4587038457393646,-2.1638612747192383,-0.02821797877550125,36.7152221,3.1825943,43.79,-5.51,-8.29,-1.63,85,236,10.088735580444336,9.95539379119873
27,-0.4509234130382538,-2.163417100906372,0.033007241785526276,36.7151351,3.1824312,46.71,-5.5,-8.27,-1.63,84,236,10.076845169067383,9.942944526672363
28,-0.42934292554855347,-2.1634252071380615,-0.008689867332577705,36.7150605,3.1822919,49.21,-5.54,-8.31,-1.64,84,236,10.128828048706055,9.994409561157227
29,-0.32614976167678833,-2.167849540710449,-0.014252811670303345,36.7149874,3.1821562,51.66,-5.05,-7.46,-1.49,84,235,9.137773513793945,9.014372825622559
30,-0.04004751145839691,-2.1633503437042236,0.01685897633433342,36.7149219,3.1820338,53.8,-3.17,-4.8,-0.79,83,236,5.808943748474121,5.7543625831604
31,-0.1695263832807541,-2.1182899475097656,0.015760615468025208,36.714887,3.1819649,54.55,-2.2,-3.7,-0.23,83,238,4.320920944213867,4.314545631408691
32,-0.13936471939086914,-2.0863497257232666,-0.021348726004362106,36.7148544,3.181893,54.67,-1.99,-3.68,0.0,82,240,4.186631202697754,4.186624526977539
33,-0.04667908325791359,-2.087468147277832,0.0231587253510952,36.7148279,3.1818328,54.66,-1.78,-3.28,0.0,82,240,3.736959457397461,3.736949920654297
34,0.0473586730659008,-2.223926305770874,-0.06643357127904892,36.7148079,3.1817906,54.17,-1.23,-1.7,0.82,82,232,2.260906219482422,2.103952646255493
35,-0.011194132268428802,-2.48500394821167,0.018060674890875816,36.7147899,3.1817687,51.75,-1.04,-0.8,1.47,81,217,1.9731824398040771,1.3140424489974976
36,-0.05408114939928055,-2.4724159240722656,-0.019005615264177322,36.7147758,3.1817556,49.5,-1.03,-0.81,1.42,81,218,1.9436110258102417,1.32257878780365
37,-0.015451551415026188,-2.4703738689422607,-0.012393326498568058,36.7147593,3.1817395,46.89,-1.06,-0.87,1.44,81,218,1.9939826726913452,1.3791362047195435
38,-0.05599023029208183,-2.469738721847534,0.014211088418960571,36.7147448,3.1817249,44.65,-1.06,-0.88,1.44,80,218,2.003732681274414,1.3857501745224
39,-0.013677955605089664,-2.4695377349853516,-0.014413907192647457,36.7147302,3.1817102,42.4,-1.07,-0.88,1.44,80,218,2.012260675430298,1.3953996896743774
40,-0.06133073940873146,-2.4697277545928955,0.015989918261766434,36.7147156,3.1816955,40.16,-1.06,-0.88,1.45,80,218,2.011941432952881,1.3898687362670898
41,-0.044456034898757935,-2.4695329666137695,-0.024271473288536072,36.7146986,3.1816785,37.55,-1.07,-0.89,1.47,79,218,2.0296895503997803,1.3983042240142822
42,-0.007513225544244051,-2.470149040222168,-0.006056534592062235,36.7146816,3.1816613,34.92,-1.07,-0.88,1.47,79,218,2.0255391597747803,1.393100380897522
43,-0.06410397589206696,-2.469219446182251,0.00247568404302001,36.714667,3.1816466,32.68,-1.06,-0.89,1.47,78,218,2.02571702003479,1.3916877508163452
44,-0.040538541972637177,-2.4694278240203857,-0.024277852848172188,36.71465,3.1816294,30.06,-1.07,-0.89,1.47,78,218,2.0382418632507324,1.4019097089767456
45,-0.03714410215616226,-2.4695022106170654,0.028383556753396988,36.7146354,3.1816146,27.81,-1.06,-0.89,1.48,78,218,2.0311217308044434,1.3899263143539429
46,-0.03373444825410843,-2.469726085662842,-0.02547295205295086,36.7146208,3.1815999,25.56,-1.07,-0.88,1.47,77,218,2.028146266937256,1.3902883529663086
47,-0.01273692212998867,-2.4694368839263916,0.007277479395270348,36.7146039,3.1815829,22.94,-1.07,-0.88,1.47,77,218,2.027783155441284,1.3872233629226685
48,-0.06379872560501099,-2.4694125652313232,-0.0010662501445040107,36.7145893,3.1815681,20.69,-1.06,-0.88,1.47,77,218,2.027104616165161,1.3853312730789185
49,-0.013247907161712646,-2.4692764282226562,0.007837768644094467,36.7145747,3.1815533,18.43,-1.07,-0.88,1.47,76,218,2.0270755290985107,1.388501524925232
50,-0.09854894876480103,-2.8543031215667725,-0.06921178847551346,36.7145558,3.1815375,15.84,-1.57,-0.5,1.33,76,196,2.125455379486084,1.652157187461853
51,-0.2362886220216751,2.6866793632507324,-0.0700199231505394,36.7145248,3.1815435,14.69,-3.12,1.34,0.11,75,153,3.410287380218506,3.4083025455474854
52,-0.14398209750652313,2.6797614097595215,0.010089247487485409,36.7144654,3.1815792,14.77,-4.05,2.03,-0.02,75,153,4.535628318786621,4.5355682373046875
53,-0.0736081674695015,2.822476863861084,0.1181776225566864,36.7144111,3.1816102,14.73,-3.77,1.18,0.06,75,161,3.95845890045166,3.9579968452453613
54,-0.275186687707901,-2.4162628650665283,0.22299613058567047,36.714366,3.1816047,14.7,-2.95,-2.29,0.02,74,221,3.740032196044922,3.7399206161499023
55,-0.5055268406867981,-2.141690254211426,0.020127056166529655,36.7143144,3.1815182,14.7,-3.92,-6.21,0.02,74,237,7.350640296936035,7.350610733032227
56,-0.4490487277507782,-2.147418975830078,0.021011805161833763,36.7142543,3.1813996,14.71,-4.8,-7.59,0.0,73,236,8.991726875305176,8.991726875305176
57,-0.3991849720478058,-2.1505842208862305,0.00013890823174733669,36.7141769,3.1812491,14.73,-4.81,-7.47,0.0,73,236,8.889127731323242,8.889126777648926
58,-0.22978994250297546,-2.1478726863861084,0.03128349408507347,36.7141166,3.1811326,14.73,-4.03,-6.27,0.02,73,236,7.4614739418029785,7.461421966552734
59,-0.2991649806499481,-2.119475841522217,0.022456489503383636,36.7140592,3.1810174,14.7,-3.37,-5.67,0.01,72,238,6.6008992195129395,6.600872039794922
60,-0.2555813789367676,-2.1006052494049072,0.02387421205639839,36.7140149,3.1809225,14.7,-3.22,-5.64,0.0,72,239,6.495573043823242,6.495567798614502
61,-0.2514195442199707,-2.0996594429016113,-0.016241205856204033,36.7139714,3.1808272,14.7,-3.17,-5.58,0.0,72,239,6.424851894378662,6.424851894378662
62,0.10809680819511414,-2.101336717605591,-0.01981046050786972,36.7139281,3.180733,14.69,-2.03,-3.52,0.03,71,239,4.071587562561035,4.071402549743652
63,0.10980387777090073,-2.100898027420044,0.014732133597135544,36.713912,3.180698,14.68,-0.43,-0.78,-0.02,71,239,0.9006983637809753,0.9004096984863281
64,-0.011134134605526924,-2.101029634475708,-0.005473637953400612,36.7139113,3.1806961,14.68,0.11,0.13,0.03,70,239,0.18550440669059753,0.1823541671037674
