timestamp,pitch,yaw,roll,lat,lon,alt,velocity_x,velocity_y,velocity_z,battery,heading,airspeed,groundspeed
0,0.01331985741853714,0.03148442879319191,-0.023531474173069,36.7156067,3.18463,25.97,-0.02,0.01,0.02,96,1,0.04201715439558029,0.030399559065699577
1,-0.03890864923596382,0.03240983188152313,0.1468062698841095,36.7156073,3.1846326,25.98,0.16,0.63,0.0,95,1,0.661584198474884,0.6615372896194458
2,-0.22143501043319702,1.8391185998916626,-0.10625126957893372,36.7156164,3.1846677,25.94,0.98,3.11,-0.05,95,105,3.2706456184387207,3.270254373550415
3,-0.15574613213539124,1.0674357414245605,-0.006853907834738493,36.7156326,3.1847303,25.99,1.29,4.07,-0.05,95,61,4.271355152130127,4.270960330963135
4,-0.008394072763621807,1.2294102907180786,0.03782075271010399,36.7156503,3.1847977,26.03,1.16,3.59,-0.03,94,70,3.7762558460235596,3.7760562896728516
5,0.10875067114830017,2.237647533416748,0.3339880406856537,36.7156555,3.1848313,26.04,-0.93,-0.87,0.0,94,128,1.2838271856307983,1.283810019493103
6,-0.14429204165935516,-2.4690542221069336,0.06833133101463318,36.715632,3.1847917,26.08,-2.21,-3.26,-0.03,93,218,3.946406602859497,3.946260690689087
7,-0.07201722264289856,-2.2482898235321045,0.08740128576755524,36.7155968,3.1847257,26.08,-2.07,-3.31,0.0,93,231,3.914050817489624,3.914043426513672
8,-0.06502441316843033,-1.530457854270935,0.2144320011138916,36.7155815,3.1846721,26.06,0.21,-2.9,0.0,93,272,2.9149389266967773,2.9149258136749268
9,-0.38485482335090637,-0.655994713306427,0.10477471351623535,36.7156107,3.1846233,26.06,4.03,-3.14,0.0,92,322,5.113847255706787,5.113846302032471
10,-0.5436781048774719,-0.6280987858772278,0.0068801692686975,36.7156998,3.1845449,26.06,7.02,-4.82,0.0,92,324,8.51722526550293,8.517226219177246
11,-0.49192705750465393,-0.6162707805633545,0.02453078329563141,36.715802,3.1844569,26.08,7.9,-5.49,0.0,91,324,9.625404357910156,9.625401496887207
12,-0.3707711398601532,-0.6190634369850159,-0.028826311230659485,36.7159256,3.1843485,26.11,7.43,-5.26,-0.02,91,324,9.111856460571289,9.111825942993164
13,-0.056288041174411774,-0.6247339844703674,0.0020051435567438602,36.7160142,3.1842701,26.12,5.27,-3.8,0.04,91,324,6.504147529602051,6.5040178298950195
14,0.041935741901397705,-1.123976469039917,-0.2987910211086273,36.7160618,3.1842161,26.22,1.35,-2.87,-0.23,90,295,3.1874961853027344,3.178940534591675
15,-0.3748558461666107,-2.1340954303741455,-0.04510674998164177,36.7160453,3.1841479,27.27,-3.11,-4.55,-0.95,90,237,5.5991129875183105,5.516494274139404
16,-0.4815976023674011,-2.1605780124664307,-0.032098643481731415,36.7159891,3.1840497,29.15,-4.88,-7.0,-1.46,89,236,8.663256645202637,8.538874626159668
17,-0.46235838532447815,-2.1658573150634766,0.0431353785097599,36.7159042,3.1838978,31.96,-5.55,-8.03,-1.6,89,235,9.902884483337402,9.771180152893066
18,-0.4259374141693115,-2.1661932468414307,-0.007699937559664249,36.7158288,3.1837599,34.42,-5.54,-8.2,-1.57,88,235,10.026716232299805,9.901581764221191
19,-0.47288647294044495,-2.164407253265381,-0.027786126360297203,36.7157539,3.1836208,36.88,-5.55,-8.25,-1.58,88,235,10.079874038696289,9.954548835754395
20,-0.43944498896598816,-2.1673364639282227,0.034890640527009964,36.715666,3.1834579,39.77,-5.57,-8.27,-1.6,87,235,10.107155799865723,9.978543281555176
21,-0.4178725779056549,-2.1651182174682617,-0.014150495640933514,36.7155909,3.1833184,42.25,-5.49,-8.24,-1.61,87,235,10.041340827941895,9.91086196899414
22,-0.48200884461402893,-2.1641407012939453,0.018128305673599243,36.7155038,3.1831557,45.16,-5.51,-8.26,-1.62,87,236,10.066094398498535,9.933882713317871
23,-0.42844220995903015,-2.1649997234344482,0.02658410556614399,36.7154289,3.1830161,47.65,-5.53,-8.26,-1.63,86,235,10.08356761932373,9.950150489807129
24,-0.44513311982154846,-2.1652579307556152,-0.02892526239156723,36.7153542,3.1828767,50.15,-5.51,-8.28,-1.63,86,235,10.08889102935791,9.955723762512207
25,-0.4733476936817169,-2.1688625812530518,0.040132422000169754,36.7152667,3.1827137,53.07,-5.55,-8.28,-1.63,85,235,10.111983299255371,9.97818660736084
26,-0.4263564944267273,-2.166041374206543,0.019375214353203773,36.7151916,3.1825739,55.57,-5.51,-8.27,-1.63,85,235,10.081226348876953,9.94737434387207
27,-0.49807167053222656,-2.164025068283081,-0.007368043996393681,36.7151048,3.1824112,58.5,-5.53,-8.3,-1.62,84,236,10.115873336791992,9.984091758728027
28,-0.45207956433296204,-2.1654586791992188,0.03385922312736511,36.7150297,3.1822714,61.0,-5.55,-8.29,-1.63,84,235,10.119124412536621,9.985800743103027
29,-0.22782576084136963,-2.169569969177246,-0.021538056433200836,36.7149471,3.1821185,63.76,-4.61,-6.84,-1.37,83,235,8.374094009399414,8.26069450378418
30,-0.07851310819387436,-2.1614508628845215,0.0367298424243927,36.7148961,3.1820232,65.36,-2.94,-4.49,-0.68,83,236,5.417701721191406,5.3736114501953125
31,-0.12430300563573837,-2.109206199645996,-0.003874267917126417,36.7148631,3.181957,65.97,-2.16,-3.69,-0.17,83,239,4.283548831939697,4.279815673828125
32,-0.1393980085849762,-2.0860235691070557,0.02926798164844513,36.7148311,3.1818853,66.04,-2.0,-3.69,-0.01,82,240,4.201746940612793,4.201725959777832
33,-0.020184962078928947,-2.0878472328186035,-0.0290803462266922,36.7148051,3.1818264,66.03,-1.68,-3.08,0.04,82,240,3.515810251235962,3.5155293941497803
34,0.02200857549905777,-2.283008337020874,-0.025618957355618477,36.7147861,3.1817884,65.32,-1.22,-1.5,1.04,82,229,2.2017691135406494,1.9380618333816528
35,-0.05578560754656792,-2.475869655609131,0.005626373924314976,36.7147684,3.1817686,62.77,-1.03,-0.8,1.45,81,218,1.9593771696090698,1.3149068355560303
36,-0.01074809767305851,-2.4719507694244385,0.0022005753125995398,36.7147545,3.1817555,60.53,-1.04,-0.81,1.42,81,218,1.9492472410202026,1.324741244316101
37,-0.04006984457373619,-2.4705231189727783,0.029068538919091225,36.7147378,3.1817391,57.91,-1.06,-0.87,1.43,80,218,1.9948768615722656,1.381221890449524
38,-0.026853205636143684,-2.4700117111206055,-0.02801351808011532,36.7147233,3.1817245,55.67,-1.07,-0.87,1.44,80,218,2.006901979446411,1.391211748123169
39,-0.011085476726293564,-2.4693455696105957,0.01755601167678833,36.7147063,3.1817074,53.06,-1.06,-0.87,1.45,80,218,2.007183074951172,1.3816059827804565
40,-0.059364255517721176,-2.4700491428375244,-0.006882415618747473,36.7146917,3.1816929,50.82,-1.06,-0.88,1.46,79,218,2.0178027153015137,1.3850291967391968
41,-0.013406804762780666,-2.469851493835449,0.017811879515647888,36.7146771,3.1816782,48.58,-1.07,-0.88,1.47,79,218,2.0252156257629395,1.3875346183776855
42,-0.051403921097517014,-2.4705636501312256,0.022858209908008575,36.7146601,3.181661,45.95,-1.07,-0.89,1.47,79,218,2.0292060375213623,1.3932567834854126
43,-0.010326615534722805,-2.4696462154388428,-0.012404799461364746,36.7146456,3.1816463,43.7,-1.07,-0.87,1.47,78,218,2.0251431465148926,1.3873738050460815
44,-0.01823270507156849,-2.4696671962738037,0.024342676624655724,36.7146285,3.1816291,41.08,-1.06,-0.87,1.47,78,218,2.0220608711242676,1.3817942142486572
45,-0.04351423308253288,-2.469726800918579,-0.029761042445898056,36.7146139,3.1816144,38.83,-1.07,-0.87,1.47,78,218,2.0244438648223877,1.3857917785644531
46,-0.026840059086680412,-2.4698643684387207,0.024189773947000504,36.7145994,3.1815998,36.58,-1.06,-0.88,1.47,77,218,2.02095627784729,1.3828719854354858
47,-0.059369850903749466,-2.470013380050659,0.008879279717803001,36.7145823,3.1815826,33.96,-1.05,-0.88,1.47,77,218,2.0216081142425537,1.382448434829712
48,-0.0076370807364583015,-2.4699668884277344,-0.0028257318772375584,36.7145677,3.1815678,31.71,-1.06,-0.87,1.48,76,218,2.0270533561706543,1.3830920457839966
49,-0.06843782961368561,-2.4696671962738037,-0.0022909652907401323,36.7145531,3.1815531,29.46,-1.06,-0.88,1.48,76,218,2.0278377532958984,1.3833982944488525
50,-0.1141975075006485,-3.016493320465088,-0.13068458437919617,36.7145329,3.1815387,26.91,-1.76,-0.28,1.2,76,187,2.1581289768218994,1.7902883291244507
51,-0.23425570130348206,2.6761348247528076,0.0024822112172842026,36.7144987,3.1815495,26.05,-3.32,1.54,0.0,75,153,3.666480541229248,3.6664767265319824
52,-0.1975066363811493,2.6807312965393066,-0.020364578813314438,36.7144376,3.1815865,26.15,-4.07,2.03,0.01,75,153,4.554596900939941,4.55458402633667
53,-0.012502836994826794,2.92033314704895,0.1759844720363617,36.7143842,3.1816148,26.1,-3.66,0.82,0.05,75,167,3.756603717803955,3.7562055587768555
54,-0.40949174761772156,-2.2153491973876953,0.1431160867214203,36.7143339,3.1815913,26.08,-2.98,-3.56,0.01,74,233,4.652888298034668,4.652846813201904
55,-0.4532366096973419,-2.1429357528686523,0.0007949751452542841,36.7142869,3.1815043,26.08,-4.12,-6.53,0.01,74,237,7.729841232299805,7.729830741882324
56,-0.48705554008483887,-2.1469573974609375,-0.028207099065184593,36.7142252,3.1813822,26.09,-4.86,-7.67,0.0,73,236,9.089666366577148,9.089665412902832
57,-0.30983078479766846,-2.1521317958831787,0.010893743485212326,36.7141478,3.181232,26.11,-4.72,-7.26,-0.01,73,236,8.66513729095459,8.665130615234375
58,-0.24144726991653442,-2.1464312076568604,-0.014543565921485424,36.7140891,3.1811189,26.11,-3.88,-6.09,0.03,73,237,7.2230119705200195,7.2229485511779785
59,-0.242484912276268,-2.114467144012451,0.02196255326271057,36.7140333,3.1810052,26.08,-3.34,-5.66,0.01,72,238,6.578539848327637,6.578526020050049
60,-0.29552993178367615,-2.0997374057769775,-0.01956774666905403,36.7139892,3.1809101,26.08,-3.21,-5.65,0.0,72,239,6.510006904602051,6.510000228881836
61,-0.19088101387023926,-2.100447177886963,0.02990482933819294,36.7139457,3.1808151,26.08,-3.11,-5.45,0.0,71,239,6.278972625732422,6.278972625732422
62,0.09836065769195557,-2.100715398788452,0.003795260563492775,36.713905,3.1807267,26.06,-1.76,-3.08,0.03,71,239,3.5524179935455322,3.5522208213806152
63,0.1494215577840805,-2.1005587577819824,0.003701404668390751,36.7138921,3.1806983,26.07,-0.28,-0.51,-0.02,71,239,0.5859857797622681,0.5856145620346069
64,-0.012700196355581284,-2.10128116607666,0.07799729704856873,36.7138924,3.1806982,26.05,0.17,0.1,0.04,70,239,0.2120644450187683,0.20770981907844543
