timestamp,pitch,yaw,roll,lat,lon,alt,velocity_x,velocity_y,velocity_z,battery,heading,airspeed,groundspeed
0,-0.001473792945034802,-0.03852454200387001,-0.01994388923048973,36.7156066,3.18463,28.11,-0.02,0.02,0.1,96,357,0.1069205105304718,0.0313781313598156
1,-0.03649408370256424,-0.040001280605793,0.12745092809200287,36.7156077,3.1846323,27.98,0.27,0.55,-0.01,95,357,0.6153299808502197,0.6152177453041077
2,-0.2718649208545685,1.5150021314620972,-0.13852529227733612,36.7156179,3.1846553,27.96,1.39,2.45,-0.03,95,86,2.8257639408111572,2.825488567352295
3,-0.25693920254707336,0.8877002000808716,8.204202458728105e-05,36.7156504,3.1847243,28.01,2.49,4.26,-0.06,94,50,4.943387508392334,4.942934513092041
4,-0.16749030351638794,1.005911946296692,0.030988695099949837,36.7156859,3.1847991,28.06,2.61,4.43,-0.04,94,57,5.150041580200195,5.1498260498046875
5,0.22157642245292664,1.0447455644607544,0.0206768698990345,36.7157203,3.1848711,28.09,1.2,2.12,0.0,94,59,2.441507339477539,2.4415030479431152
6,0.1803709715604782,2.0154542922973633,0.24721965193748474,36.7157188,3.1848707,28.09,-1.46,-2.05,-0.03,93,115,2.520122766494751,2.5198898315429688
7,-0.12234746664762497,-2.4311087131500244,0.06202133744955063,36.7156867,3.1848133,28.13,-2.21,-3.26,0.0,93,204,3.9396865367889404,3.939685583114624
8,-0.06814900785684586,-2.1692991256713867,0.05454952269792557,36.7156583,3.1847583,28.11,-1.77,-3.17,0.0,93,235,3.6403932571411133,3.6403896808624268
9,-0.13299378752708435,-1.2163382768630981,0.2710058093070984,36.7156505,3.1847074,28.1,1.02,-2.73,0.0,92,290,2.922377586364746,2.92236590385437
10,-0.4850819408893585,-0.6325351595878601,0.050874970853328705,36.7157008,3.1846481,28.1,5.16,-3.62,0.0,92,323,6.309549331665039,6.309544086456299
11,-0.48402127623558044,-0.6225820779800415,0.023547343909740448,36.7157862,3.1845742,28.11,7.27,-5.02,0.0,91,324,8.839792251586914,8.839788436889648
12,-0.4886356592178345,-0.6183244585990906,-0.027486734092235565,36.71589,3.1844842,28.13,7.92,-5.54,0.0,91,324,9.674052238464355,9.674052238464355
13,-0.29570409655570984,-0.6192370057106018,0.02582797035574913,36.7160124,3.1843769,28.16,7.15,-5.07,-0.01,91,324,8.768609046936035,8.768590927124023
14,-0.006804211065173149,-0.6411563754081726,-0.089322030544281,36.7160947,3.1843037,28.16,4.63,-3.49,0.03,90,323,5.809558391571045,5.809422016143799
15,-0.15537385642528534,-1.668588399887085,-0.2689306139945984,36.7161318,3.184244,28.46,-0.25,-3.06,-0.43,90,264,3.1024370193481445,3.0718836784362793
16,-0.4640190303325653,-2.1526951789855957,-0.0227873045951128,36.7161036,3.1841781,29.62,-3.59,-5.06,-1.06,89,236,6.301182270050049,6.20973539352417
17,-0.44500836730003357,-2.164254903793335,-0.005565459839999676,36.7160314,3.1840509,32.03,-5.23,-7.54,-1.55,89,236,9.316328048706055,9.185957908630371
18,-0.47989779710769653,-2.166809320449829,-0.013347177766263485,36.7159569,3.1839166,34.49,-5.53,-8.09,-1.59,88,235,9.930152893066406,9.801750183105469
19,-0.4813368320465088,-2.1655218601226807,0.03325694426894188,36.7158818,3.1837781,36.95,-5.53,-8.23,-1.57,88,235,10.041669845581055,9.916617393493652
20,-0.4347674548625946,-2.162108898162842,-0.029894713312387466,36.7157943,3.1836149,39.83,-5.52,-8.24,-1.58,87,236,10.054306983947754,9.928269386291504
21,-0.49914833903312683,-2.1632137298583984,-0.0179307758808136,36.7157196,3.1834763,42.3,-5.55,-8.25,-1.6,87,236,10.076146125793457,9.947885513305664
22,-0.42350006103515625,-2.1634533405303955,0.015687990933656693,36.7156321,3.1833132,45.21,-5.5,-8.28,-1.61,87,236,10.07534122467041,9.94426155090332
23,-0.462114155292511,-2.1634645462036133,-0.03074192814528942,36.7155574,3.1831734,47.71,-5.49,-8.27,-1.61,86,236,10.06722354888916,9.936823844909668
24,-0.4880926311016083,-2.1632256507873535,0.015358343720436096,36.7154829,3.1830339,50.21,-5.5,-8.28,-1.62,86,236,10.075614929199219,9.944473266601562
25,-0.4272717237472534,-2.166043758392334,-0.0037077232263982296,36.7153958,3.1828711,53.11,-5.56,-8.31,-1.63,85,235,10.13796615600586,10.00493335723877
26,-0.4755766987800598,-2.16561222076416,-0.015771061182022095,36.7153207,3.1827309,55.62,-5.51,-8.28,-1.62,85,235,10.084882736206055,9.952430725097656
27,-0.43754318356513977,-2.1636006832122803,0.03100704401731491,36.7152337,3.1825681,58.54,-5.5,-8.3,-1.63,84,236,10.095132827758789,9.961457252502441
28,-0.44039177894592285,-2.1623144149780273,-0.026992162689566612,36.7151592,3.1824281,61.04,-5.52,-8.31,-1.64,84,236,10.117212295532227,9.983247756958008
29,-0.4557778537273407,-2.1651062965393066,-0.009334210306406021,36.7150842,3.1822884,63.55,-5.5,-8.21,-1.62,83,235,10.023913383483887,9.891072273254395
30,-0.12350466847419739,-2.1666643619537354,0.007950198836624622,36.7150049,3.1821413,66.22,-4.26,-6.35,-1.25,83,235,7.750535488128662,7.647967338562012
31,-0.09302041679620743,-2.1557083129882812,0.007632306776940823,36.7149586,3.182054,67.6,-2.7,-4.18,-0.56,83,236,5.018459320068359,4.986995220184326
32,-0.12562130391597748,-2.1100568771362305,-0.009901847690343857,36.7149221,3.1819795,68.08,-2.12,-3.68,-0.07,82,239,4.253922462463379,4.253300666809082
33,-0.17060188949108124,-2.103426218032837,0.023757563903927803,36.714894,3.1819182,68.08,-2.08,-3.68,-0.02,82,239,4.231703758239746,4.23165225982666
34,0.045118410140275955,-2.1101272106170654,-0.024343181401491165,36.7148682,3.1818622,68.04,-1.6,-2.77,0.14,82,239,3.2097549438476562,3.2062833309173584
35,0.02897724322974682,-2.4126129150390625,-0.01465170830488205,36.7148473,3.1818262,66.65,-1.16,-1.11,1.4,81,221,2.135542869567871,1.6107054948806763
36,-0.04440413415431976,-2.464595317840576,-0.023377221077680588,36.7148328,3.1818119,64.36,-1.02,-0.79,1.42,81,218,1.9310327768325806,1.3013033866882324
37,-0.013742703944444656,-2.4688069820404053,-0.007062995340675116,36.7148165,3.1817964,61.75,-1.05,-0.85,1.43,80,218,1.9725319147109985,1.3567038774490356
38,-0.061086807399988174,-2.469463348388672,0.013527315109968185,36.7148022,3.1817821,59.52,-1.06,-0.89,1.44,80,218,2.0031685829162598,1.3859074115753174
39,-0.009980065748095512,-2.469447612762451,-0.006514539010822773,36.7147876,3.1817674,57.27,-1.07,-0.88,1.44,80,218,2.0105843544006348,1.396381139755249
40,-0.02636776864528656,-2.469503164291382,0.026780789718031883,36.7147706,3.1817503,54.65,-1.07,-0.87,1.45,79,218,2.0118327140808105,1.3890409469604492
41,-0.03726090118288994,-2.469587802886963,-0.025384297594428062,36.714756,3.1817357,52.41,-1.07,-0.89,1.46,79,218,2.02555775642395,1.3962472677230835
42,-0.007996197789907455,-2.469897747039795,0.0027923830784857273,36.714739,3.1817185,49.79,-1.07,-0.88,1.47,79,218,2.025367498397827,1.3929497003555298
43,-0.06007397547364235,-2.4688618183135986,-0.007072150241583586,36.7147244,3.1817038,47.54,-1.06,-0.89,1.46,78,218,2.019996166229248,1.3860429525375366
44,-0.008827327750623226,-2.469498634338379,0.0003965086943935603,36.7147098,3.1816891,45.3,-1.07,-0.88,1.47,78,218,2.0312366485595703,1.3941302299499512
45,-0.03937244415283203,-2.469506025314331,0.024069417268037796,36.7146928,3.1816719,42.67,-1.06,-0.88,1.47,78,218,2.024369239807129,1.3845564126968384
46,-0.029876306653022766,-2.4699528217315674,-0.024224843829870224,36.7146782,3.1816572,40.42,-1.06,-0.88,1.47,77,218,2.0212159156799316,1.3853917121887207
47,-0.009458553977310658,-2.4693942070007324,0.009482153691351414,36.7146613,3.1816401,37.81,-1.07,-0.88,1.48,77,218,2.0302793979644775,1.3891000747680664
48,-0.06035386398434639,-2.469297409057617,-0.007553070783615112,36.7146467,3.1816253,35.55,-1.06,-0.89,1.47,76,218,2.029238224029541,1.388777256011963
49,-0.0128506263718009,-2.4692461490631104,0.017146632075309753,36.714632,3.1816105,33.29,-1.06,-0.87,1.47,76,218,2.0176661014556885,1.3810847997665405
50,-0.05776332691311836,-2.474039077758789,0.008257260546088219,36.714615,3.1815934,30.67,-1.07,-0.87,1.47,76,218,2.0220515727996826,1.3856070041656494
51,-0.13520094752311707,3.061403512954712,-0.13737167418003082,36.7145951,3.181584,28.62,-2.04,0.06,0.97,75,175,2.2687230110168457,2.048682451248169
52,-0.1972212791442871,2.6707799434661865,0.019772162660956383,36.7145484,3.1816061,28.12,-3.72,1.86,-0.05,75,153,4.166654109954834,4.166269779205322
53,-0.16477522253990173,2.6723287105560303,-0.0036583272740244865,36.7144947,3.1816398,28.19,-4.0,2.02,0.05,75,153,4.488576889038086,4.488286018371582
54,-0.04471438378095627,-2.999116897583008,0.2480783313512802,36.7144357,3.1816623,28.13,-3.24,-0.43,0.04,74,188,3.272141456604004,3.2718780040740967
55,-0.44360458850860596,-2.1934385299682617,0.10718706250190735,36.7143947,3.1816217,28.12,-3.12,-4.41,0.02,74,234,5.409955024719238,5.409916400909424
56,-0.4653319716453552,-2.153818368911743,0.019989650696516037,36.7143441,3.1815237,28.12,-4.36,-6.93,0.0,73,236,8.192816734313965,8.192813873291016
57,-0.4828126132488251,-2.15083384513855,0.004780043847858906,36.7142692,3.1813763,28.13,-4.94,-7.72,0.0,73,236,9.173663139343262,9.173662185668945
58,-0.2948719263076782,-2.152977228164673,0.025256050750613213,36.7142036,3.1812498,28.15,-4.54,-7.0,0.0,73,236,8.347548484802246,8.347548484802246
59,-0.2513982355594635,-2.144407033920288,-0.014040310867130756,36.7141475,3.1811411,28.14,-3.7,-5.87,0.03,72,237,6.946656227111816,6.946582794189453
60,-0.252422571182251,-2.1154677867889404,0.0264385174959898,36.7140927,3.181029,28.12,-3.34,-5.64,0.0,72,238,6.565218448638916,6.565215110778809
61,-0.3023048937320709,-2.1075093746185303,-0.01587960496544838,36.714048,3.1809338,28.12,-3.27,-5.66,0.0,71,239,6.548399925231934,6.548393249511719
62,-0.1438157856464386,-2.1083922386169434,0.026672424748539925,36.7140042,3.1808401,28.13,-3.01,-5.17,0.0,71,239,5.99196720123291,5.99196720123291
63,0.13211621344089508,-2.1093320846557617,0.004584172740578651,36.7139675,3.180762,28.1,-1.36,-2.34,0.02,71,239,2.7140955924987793,2.7139968872070312
64,0.12171550840139389,-2.108518362045288,-0.002987850224599242,36.7139588,3.1807429,28.11,-0.09,-0.18,-0.01,70,239,0.2073035091161728,0.20671173930168152
65,-0.014733175747096539,-2.1098997592926025,0.11684972047805786,36.7139604,3.1807444,28.07,0.34,-0.05,0.02,70,239,0.3490751385688782,0.3481791317462921
