timestamp,pitch,yaw,roll,lat,lon,alt,velocity_x,velocity_y,velocity_z,battery,heading,airspeed,groundspeed
0,-0.006392965093255043,-0.0013862991472706199,0.03268176317214966,36.7156064,3.1846302,11.19,0.0,0.0,-0.53,98,359,0.5383374094963074,0.008013066835701466
1,-0.06813627481460571,-0.0032024087850004435,0.051819365471601486,36.7156079,3.1846322,11.56,0.42,0.42,-0.1,97,359,0.6142141222953796,0.6044041514396667
2,-0.20000439882278442,1.1161894798278809,-0.09283207356929779,36.7156271,3.1846571,11.64,2.19,2.26,0.0,97,63,3.1533336639404297,3.15332293510437
3,-0.20790500938892365,0.8298028707504272,0.012697940692305565,36.7156636,3.184704,11.56,3.05,3.15,0.05,97,47,4.396016597747803,4.3956990242004395
4,-0.0459846556186676,0.7939304113388062,-0.016031084582209587,36.7157054,3.184757,11.45,2.93,3.01,0.04,96,45,4.214138031005859,4.213855266571045
5,0.33970436453819275,0.3655664622783661,-0.15989218652248383,36.7157356,3.1847917,11.39,0.18,-0.24,-0.02,96,20,0.30513209104537964,0.3038727045059204
6,-0.1522950530052185,-1.2995373010635376,-0.18214784562587738,36.7157201,3.1847596,11.38,-2.1,-3.04,0.03,95,285,3.699540138244629,3.699326753616333
7,-0.11631816625595093,-2.271913528442383,-0.008747795596718788,36.7156845,3.1846952,11.4,-2.26,-3.29,-0.03,95,229,4.0006537437438965,4.000463008880615
8,-0.00951345358043909,-1.8075883388519287,0.22247906029224396,36.7156623,3.1846409,11.37,-0.6,-3.01,0.03,95,256,3.0769693851470947,3.0767993927001953
9,-0.35303205251693726,-0.6739610433578491,0.07586924731731415,36.715679,3.1845929,11.35,3.18,-2.91,0.0,94,321,4.318053245544434,4.318047523498535
10,-0.48105132579803467,-0.6203088760375977,0.037478696554899216,36.715758,3.184521,11.36,6.54,-4.53,0.0,94,324,7.9662652015686035,7.966262340545654
11,-0.4935719668865204,-0.6162011623382568,-0.021062100306153297,36.7158565,3.184436,11.38,7.83,-5.41,0.0,93,324,9.520035743713379,9.520034790039062
12,-0.41287580132484436,-0.6198548078536987,0.03132568672299385,36.7159808,3.1843274,11.4,7.72,-5.45,-0.01,93,324,9.457622528076172,9.457605361938477
13,-0.10310587286949158,-0.6221891045570374,-0.01670987159013748,36.7160758,3.1842437,11.44,5.96,-4.25,0.03,93,324,7.3292365074157715,7.329159259796143
14,0.05693988502025604,-0.8766255974769592,-0.17979957163333893,36.7161354,3.1841851,11.46,2.44,-2.93,-0.11,92,309,3.820420026779175,3.8186347484588623
15,-0.3912191092967987,-2.1221072673797607,-0.11946987360715866,36.7161344,3.1841228,12.26,-2.39,-4.05,-0.8,92,238,4.776017665863037,4.708531379699707
16,-0.4800918996334076,-2.173358201980591,0.04604589566588402,36.7160846,3.1840346,13.94,-4.6,-6.52,-1.36,91,235,8.102926254272461,7.98679256439209
17,-0.4606482684612274,-2.1675446033477783,-0.027412723749876022,36.7160022,3.1838877,16.67,-5.53,-7.99,-1.6,91,235,9.85275650024414,9.720667839050293
18,-0.49568304419517517,-2.1664700508117676,0.007916230708360672,36.7159269,3.1837505,19.13,-5.53,-8.17,-1.57,90,235,9.997811317443848,9.873022079467773
19,-0.4248294234275818,-2.165271282196045,-0.0033278055489063263,36.7158391,3.1835879,22.0,-5.55,-8.23,-1.59,90,235,10.065234184265137,9.938779830932617
20,-0.4617566168308258,-2.165698528289795,-0.030333731323480606,36.715764,3.1834488,24.48,-5.54,-8.25,-1.59,89,235,10.070183753967285,9.943452835083008
21,-0.4914515018463135,-2.1648526191711426,0.019699793308973312,36.7156893,3.1833097,26.97,-5.52,-8.29,-1.6,89,235,10.097260475158691,9.969449996948242
22,-0.4258006513118744,-2.1645355224609375,-0.0045469398610293865,36.7156017,3.1831466,29.87,-5.55,-8.24,-1.61,89,235,10.073734283447266,9.943215370178223
23,-0.4786057770252228,-2.1656627655029297,-0.015918126329779625,36.7155267,3.183007,32.36,-5.51,-8.28,-1.61,88,235,10.084831237792969,9.954024314880371
24,-0.43754255771636963,-2.164879083633423,0.03314172476530075,36.7154396,3.1828442,35.27,-5.51,-8.27,-1.63,88,235,10.08034896850586,9.947188377380371
25,-0.4350067377090454,-2.167788028717041,-0.02081216871738434,36.7153646,3.1827045,37.77,-5.54,-8.29,-1.63,87,235,10.111756324768066,9.977932929992676
26,-0.4811186194419861,-2.16500186920166,-0.017695611342787743,36.7152898,3.1825648,40.27,-5.5,-8.29,-1.63,87,235,10.0855131149292,9.952531814575195
27,-0.42791590094566345,-2.164754867553711,0.019593337550759315,36.7152024,3.1824018,43.19,-5.53,-8.27,-1.63,86,235,10.090119361877441,9.956254959106445
28,-0.4498457610607147,-2.1656205654144287,-0.023863181471824646,36.7151274,3.1822621,45.7,-5.53,-8.3,-1.63,86,235,10.113892555236816,9.981552124023438
29,-0.29312416911125183,-2.1691887378692627,0.033971596509218216,36.7150429,3.182105,48.54,-4.93,-7.31,-1.46,85,235,8.950569152832031,8.83024787902832
30,-0.05094071105122566,-2.166945695877075,-0.009561760351061821,36.7149865,3.1820003,50.39,-3.32,-5.0,-0.85,85,235,6.06635856628418,6.006152629852295
31,-0.15914757549762726,-2.123642921447754,0.02927199937403202,36.7149502,3.1819292,51.21,-2.23,-3.72,-0.26,85,238,4.348483085632324,4.340585708618164
32,-0.1539250761270523,-2.086946964263916,-0.01800897903740406,36.7149174,3.1818573,51.34,-2.0,-3.68,-0.01,84,240,4.18869161605835,4.188679218292236
33,-0.050307467579841614,-2.087674617767334,0.02837197110056877,36.7148908,3.1817967,51.34,-1.83,-3.37,-0.02,84,240,3.845956563949585,3.845846652984619
34,-0.0037750243209302425,-2.2533626556396484,-0.05528583377599716,36.7148672,3.1817478,50.73,-1.2,-1.6,0.94,84,230,2.2184481620788574,2.0059986114501953
35,-0.0026644289027899504,-2.48606014251709,0.018411913886666298,36.7148519,3.1817292,48.62,-1.04,-0.8,1.47,83,217,1.9815101623535156,1.318802833557129
36,-0.05788194760680199,-2.4717013835906982,-0.004941417369991541,36.7148377,3.181716,46.36,-1.04,-0.82,1.42,83,218,1.9470747709274292,1.3299041986465454
37,-0.022113004699349403,-2.470189332962036,-0.021171951666474342,36.7148212,3.1817,43.75,-1.05,-0.86,1.43,82,218,1.9849742650985718,1.3711169958114624
38,-0.05547301471233368,-2.470193862915039,0.024236667901277542,36.7148068,3.1816855,41.51,-1.06,-0.88,1.44,82,218,1.9979416131973267,1.3838846683502197
39,-0.05002634599804878,-2.4696524143218994,-0.02063504047691822,36.7147898,3.1816683,38.9,-1.07,-0.88,1.45,82,218,2.011504888534546,1.3921838998794556
40,-0.017916934564709663,-2.4692347049713135,0.02182420901954174,36.7147752,3.1816536,36.65,-1.06,-0.88,1.45,81,218,2.012794017791748,1.3867186307907104
41,-0.04874415323138237,-2.469459295272827,-0.02032264694571495,36.7147606,3.181639,34.41,-1.07,-0.88,1.46,81,218,2.0232343673706055,1.3932170867919922
42,-0.00910189002752304,-2.4696545600891113,-0.005075136199593544,36.7147436,3.1816219,31.79,-1.07,-0.88,1.47,81,218,2.0275940895080566,1.3891334533691406
43,-0.0653146505355835,-2.469552993774414,0.006454898975789547,36.7147291,3.1816072,29.54,-1.06,-0.89,1.47,80,218,2.030191421508789,1.3936771154403687
44,-0.029171394184231758,-2.4693400859832764,-0.024434516206383705,36.7147121,3.18159,26.92,-1.07,-0.89,1.47,80,218,2.031771659851074,1.3972933292388916
45,-0.034721776843070984,-2.4696035385131836,0.028062209486961365,36.7146974,3.1815752,24.67,-1.06,-0.88,1.47,80,218,2.0252997875213623,1.386123776435852
46,-0.02960638515651226,-2.4696855545043945,-0.024633483961224556,36.7146828,3.1815605,22.42,-1.07,-0.88,1.47,79,218,2.025925397872925,1.38979971408844
47,-0.010110176168382168,-2.469651222229004,0.008555261418223381,36.7146658,3.1815435,19.79,-1.06,-0.88,1.47,79,218,2.022697687149048,1.3893017768859863
48,-0.05576090142130852,-2.4689478874206543,-0.016231829300522804,36.7146512,3.1815287,17.54,-1.06,-0.88,1.47,78,218,2.0206472873687744,1.3851072788238525
49,-0.021752359345555305,-2.4697299003601074,-0.022586777806282043,36.7146342,3.1815114,14.92,-1.06,-0.88,1.47,78,218,2.0219345092773438,1.3850423097610474
50,-0.10944361239671707,-2.773036479949951,-0.06174910068511963,36.7146183,3.1814977,12.69,-1.49,-0.59,1.38,78,201,2.1223316192626953,1.609125018119812
51,-0.25860798358917236,2.6767303943634033,-0.04623422026634216,36.7145819,3.181505,11.36,-3.24,1.46,0.05,77,153,3.560626745223999,3.5601937770843506
52,-0.1555493026971817,2.6796953678131104,0.01665879599750042,36.7145308,3.1815357,11.44,-4.05,2.02,-0.03,77,153,4.527316570281982,4.527179718017578
53,-0.07175084203481674,2.785320997238159,0.08631625771522522,36.7144762,3.1815677,11.42,-3.82,1.38,0.06,77,159,4.068875789642334,4.068389415740967
54,-0.2556764781475067,-2.523333787918091,0.26535770297050476,36.71443,3.181567,11.38,-2.94,-1.93,0.02,76,215,3.527684450149536,3.527562379837036
55,-0.507102906703949,-2.143512487411499,0.0001332273823209107,36.7143796,3.1814863,11.38,-3.78,-6.02,0.02,76,237,7.117811679840088,7.117776393890381
56,-0.44367191195487976,-2.1486220359802246,-0.009336594492197037,36.71431,3.181349,11.39,-4.88,-7.67,0.0,75,236,9.091819763183594,9.091819763183594
57,-0.4005719721317291,-2.150879383087158,-0.021807227283716202,36.7142432,3.1812191,11.4,-4.86,-7.53,0.0,75,236,8.971076965332031,8.971076011657715
58,-0.2495459020137787,-2.1500611305236816,0.03541475906968117,36.7141819,3.181101,11.41,-4.09,-6.38,0.02,75,236,7.58415412902832,7.584109306335449
59,-0.2963351011276245,-2.121584415435791,-0.003177889157086611,36.714124,3.1809851,11.39,-3.4,-5.67,0.02,74,238,6.6180243492126465,6.617981910705566
60,-0.2664807438850403,-2.102180242538452,0.035406630486249924,36.7140795,3.1808901,11.39,-3.22,-5.64,0.01,74,239,6.497828483581543,6.49782133102417
61,-0.23893362283706665,-2.099536180496216,-0.012296902015805244,36.7140287,3.1807792,11.38,-3.13,-5.52,0.0,73,239,6.351817607879639,6.351818561553955
62,0.08592678606510162,-2.100206136703491,0.013306732289493084,36.7139913,3.1806979,11.38,-2.17,-3.78,0.03,73,239,4.3644304275512695,4.364279747009277
63,0.11723415553569794,-2.0998222827911377,-0.02024206519126892,36.7139734,3.1806587,11.36,-0.54,-0.96,-0.01,73,239,1.1083346605300903,1.1081762313842773
64,0.020806431770324707,-2.1006202697753906,-0.015068848617374897,36.713972,3.1806552,11.37,0.1,0.16,0.02,72,239,0.19371744990348816,0.1917092353105545
