timestamp,pitch,yaw,roll,lat,lon,alt,velocity_x,velocity_y,velocity_z,battery,heading,airspeed,groundspeed
0,0.019543422386050224,-0.03439559414982796,0.025781597942113876,36.7156066,3.1846299,13.01,-0.02,0.03,-0.02,96,358,0.04966210573911667,0.04056093469262123
1,-0.05548909679055214,-0.038929689675569534,0.082624651491642,36.7156072,3.1846323,13.02,0.18,0.56,-0.01,95,357,0.5898318886756897,0.5895466208457947
2,-0.17803187668323517,1.7597136497497559,-0.15016140043735504,36.7156164,3.1846634,13.02,1.1,2.81,-0.02,95,100,3.0255825519561768,3.025512456893921
3,-0.1402476280927658,1.008846640586853,0.0514351949095726,36.7156347,3.1847208,13.03,1.48,3.81,-0.01,95,57,4.090644359588623,4.090627670288086
4,-0.009310106746852398,1.174080729484558,-0.011969310231506824,36.7156548,3.1847841,13.03,1.33,3.37,0.0,94,67,3.625659942626953,3.625657796859741
5,0.18278607726097107,2.1283986568450928,0.29142463207244873,36.7156619,3.1848155,13.06,-0.9,-0.91,-0.02,94,121,1.2891454696655273,1.2889901399612427
6,-0.18212890625,-2.5811171531677246,0.09030473977327347,36.7156389,3.184776,13.03,-2.2,-3.24,0.06,93,212,3.923935890197754,3.9234049320220947
7,-0.11008231341838837,-2.2445051670074463,0.05343761667609215,36.7156036,3.18471,13.07,-2.08,-3.28,0.0,93,231,3.892090082168579,3.8920865058898926
8,-0.024620113894343376,-1.5395647287368774,0.25631949305534363,36.7155877,3.1846566,13.03,0.16,-2.88,0.02,93,271,2.890629768371582,2.8905160427093506
9,-0.4382394850254059,-0.6596710681915283,0.08745188266038895,36.7156158,3.1846085,13.02,3.98,-3.13,0.0,92,322,5.074756622314453,5.074756145477295
10,-0.4919396638870239,-0.6196643710136414,0.03703582286834717,36.7156894,3.1845437,13.02,6.68,-4.63,-0.01,92,324,8.13720417022705,8.13719654083252
11,-0.5106309056282043,-0.6192715764045715,-0.015042245388031006,36.7158072,3.1844418,13.04,7.87,-5.5,0.0,91,324,9.613850593566895,9.613850593566895
12,-0.33292531967163086,-0.6204485297203064,0.008398503065109253,36.7159308,3.1843335,13.07,7.46,-5.27,-0.02,91,324,9.135150909423828,9.135127067565918
13,-0.06746748834848404,-0.6243135929107666,-0.04265836626291275,36.7160197,3.1842552,13.09,5.33,-3.83,0.04,91,324,6.568124294281006,6.567936420440674
14,0.062068622559309006,-1.1169196367263794,-0.24517206847667694,36.716068,3.1842009,13.19,1.41,-2.88,-0.22,90,296,3.2209718227386475,3.213224172592163
15,-0.4304630756378174,-2.130622148513794,-0.05077487975358963,36.7160521,3.1841332,14.23,-3.09,-4.56,-0.94,90,237,5.59207010269165,5.511022567749023
16,-0.44646990299224854,-2.1616404056549072,0.02066357620060444,36.7159962,3.1840353,16.1,-4.88,-7.02,-1.45,89,236,8.680501937866211,8.557561874389648
17,-0.4874095022678375,-2.163020133972168,-0.02314922586083412,36.7159115,3.1838826,18.9,-5.53,-8.02,-1.6,89,236,9.882487297058105,9.750815391540527
18,-0.46053627133369446,-2.165642261505127,0.04631687328219414,36.7158361,3.1837446,21.37,-5.52,-8.18,-1.58,88,235,9.99955940246582,9.873567581176758
19,-0.4565243124961853,-2.1632888317108154,-0.03485690429806709,36.7157489,3.183582,24.25,-5.54,-8.27,-1.58,88,236,10.089278221130371,9.964179039001465
20,-0.4918486177921295,-2.167336940765381,0.008023582398891449,36.7156737,3.1834427,26.73,-5.55,-8.25,-1.59,88,235,10.077543258666992,9.950613021850586
21,-0.4516168534755707,-2.163787841796875,0.047119759023189545,36.7155989,3.183303,29.21,-5.49,-8.28,-1.61,87,236,10.069710731506348,9.939007759094238
22,-0.46660277247428894,-2.1624372005462646,-0.031011391431093216,36.7155121,3.1831404,32.12,-5.52,-8.28,-1.61,87,236,10.089356422424316,9.959250450134277
23,-0.4903997778892517,-2.165156841278076,0.026603462174534798,36.7154371,3.1830008,34.62,-5.52,-8.29,-1.62,86,235,10.09964370727539,9.96851921081543
24,-0.425246924161911,-2.1626198291778564,-0.014592479914426804,36.7153498,3.1828371,37.53,-5.5,-8.28,-1.63,86,236,10.082768440246582,9.949079513549805
25,-0.48131006956100464,-2.165759801864624,-0.018478723242878914,36.7152751,3.1826977,40.04,-5.52,-8.26,-1.62,85,235,10.077200889587402,9.944538116455078
26,-0.4856591820716858,-2.1642050743103027,0.028912045061588287,36.7152006,3.1825582,42.54,-5.51,-8.31,-1.63,85,236,10.109772682189941,9.97724723815918
27,-0.43456968665122986,-2.164630651473999,-0.027608297765254974,36.7151133,3.1823945,45.46,-5.53,-8.29,-1.64,84,235,10.10592269897461,9.97183609008789
28,-0.4762304723262787,-2.165292739868164,-0.01194092072546482,36.7150383,3.1822549,47.97,-5.51,-8.28,-1.63,84,235,10.080724716186523,9.94744873046875
29,-0.1925659030675888,-2.1680591106414795,0.008346117101609707,36.7149563,3.1821025,50.73,-4.6,-6.84,-1.36,84,235,8.363997459411621,8.251468658447266
30,-0.07723040133714676,-2.1608705520629883,-0.012898909859359264,36.7149053,3.182007,52.33,-2.95,-4.51,-0.68,83,236,5.436390399932861,5.393222808837891
31,-0.12775413691997528,-2.1186423301696777,0.03622841462492943,36.7148721,3.1819407,52.94,-2.19,-3.7,-0.17,83,238,4.306042671203613,4.302558422088623
32,-0.18539521098136902,-2.1015892028808594,0.01054646261036396,36.714839,3.1818692,53.0,-2.08,-3.7,-0.01,82,239,4.253314971923828,4.253299236297607
33,0.017825569957494736,-2.1032631397247314,-0.00293363188393414,36.714812,3.1818102,52.99,-1.75,-3.07,0.04,82,239,3.541344165802002,3.5411109924316406
34,0.015145755372941494,-2.350081205368042,-0.018935663625597954,36.7147896,3.1817683,51.99,-1.18,-1.29,1.23,82,225,2.145781993865967,1.757104754447937
35,-0.027109362185001373,-2.476285696029663,-0.023150766268372536,36.7147749,3.1817528,49.73,-1.03,-0.79,1.44,81,218,1.9439815282821655,1.3026045560836792
36,-0.048826053738594055,-2.4723658561706543,0.030844464898109436,36.714761,3.1817397,47.49,-1.04,-0.84,1.41,81,218,1.9494596719741821,1.3381167650222778
37,-0.058686044067144394,-2.4702200889587402,-0.012104172259569168,36.7147442,3.1817231,44.89,-1.06,-0.87,1.43,81,218,1.9964025020599365,1.3839075565338135
38,-0.014363867230713367,-2.469876289367676,0.018292779102921486,36.7147297,3.1817086,42.64,-1.07,-0.87,1.44,80,218,1.998443603515625,1.3821154832839966
39,-0.056176960468292236,-2.4698352813720703,0.019482769072055817,36.7147127,3.1816916,40.02,-1.06,-0.88,1.44,80,218,2.0042459964752197,1.386125922203064
40,-0.013807757757604122,-2.4696240425109863,0.02431464195251465,36.7147006,3.1816794,38.16,-1.06,-0.88,1.45,80,218,2.008620262145996,1.3811061382293701
41,-0.05783233791589737,-2.470212697982788,0.016337217763066292,36.7146836,3.1816622,35.54,-1.06,-0.88,1.46,79,218,2.0147030353546143,1.3844759464263916
42,-0.045893095433712006,-2.4699349403381348,-0.02267025038599968,36.7146666,3.1816451,32.91,-1.07,-0.89,1.46,79,218,2.0228989124298096,1.397525668144226
43,-0.029595816507935524,-2.4694926738739014,0.027102945372462273,36.714652,3.1816304,30.67,-1.06,-0.88,1.47,78,218,2.0190281867980957,1.380737543106079
44,-0.06140177324414253,-2.4703118801116943,0.01098708901554346,36.7146349,3.1816133,28.05,-1.06,-0.88,1.47,78,218,2.022594928741455,1.3848459720611572
45,-0.005065306089818478,-2.469996452331543,-0.0043680486269295216,36.7146204,3.1815986,25.79,-1.06,-0.88,1.46,78,218,2.0195162296295166,1.3858598470687866
46,-0.0619879774749279,-2.470329523086548,-0.000727532955352217,36.7146058,3.1815838,23.55,-1.05,-0.89,1.47,77,218,2.020582914352417,1.384333848953247
47,-0.028007186949253082,-2.469775915145874,-0.022348061203956604,36.7145888,3.1815666,20.93,-1.06,-0.88,1.47,77,218,2.0264201164245605,1.3852283954620361
48,-0.03865355998277664,-2.4700586795806885,0.029754383489489555,36.7145742,3.181552,18.67,-1.06,-0.88,1.47,77,218,2.01835298538208,1.3797197341918945
49,-0.026875970885157585,-2.470223903656006,-0.026742011308670044,36.7145596,3.1815373,16.42,-1.07,-0.88,1.47,76,218,2.024961233139038,1.390731692314148
50,-0.08881749212741852,-3.0197229385375977,-0.09237700700759888,36.7145395,3.1815227,13.88,-1.75,-0.28,1.2,76,186,2.1505286693573,1.7779537439346313
51,-0.2344762533903122,2.6682512760162354,0.010549851693212986,36.7144977,3.1815382,13.02,-3.52,1.73,-0.05,75,152,3.9292685985565186,3.928891658782959
52,-0.15005363523960114,2.672086715698242,-0.019753344357013702,36.7144451,3.1815711,13.12,-4.02,2.06,0.01,75,153,4.518764495849609,4.518741607666016
53,-0.04644935205578804,2.9244678020477295,0.19222673773765564,36.7143921,3.1815994,13.06,-3.61,0.76,0.05,75,167,3.692756175994873,3.692302942276001
54,-0.3953772187232971,-2.2101891040802,0.08649919182062149,36.7143422,3.1815742,13.04,-2.99,-3.66,0.02,74,233,4.737083435058594,4.73703670501709
55,-0.48993563652038574,-2.1486241817474365,0.03717189282178879,36.7142949,3.1814862,13.04,-4.17,-6.58,0.01,74,236,7.801694869995117,7.801685810089111
56,-0.45221781730651855,-2.154033899307251,-0.03438913822174072,36.7142211,3.1813422,13.05,-4.96,-7.68,0.0,73,236,9.15208911895752,9.15208911895752
57,-0.3518037796020508,-2.157857656478882,0.025663798674941063,36.7141539,3.1812138,13.07,-4.74,-7.23,0.0,73,236,8.646171569824219,8.646166801452637
58,-0.20348849892616272,-2.1498024463653564,0.016058355569839478,36.7140952,3.1811014,13.07,-3.88,-6.05,0.03,73,236,7.199459552764893,7.1993727684021
59,-0.28509700298309326,-2.11659836769104,0.040330786257982254,36.7140392,3.1809881,13.05,-3.34,-5.66,0.01,72,238,6.580790996551514,6.580765247344971
60,-0.2532542645931244,-2.1003332138061523,-0.00917214434593916,36.713995,3.180893,13.05,-3.22,-5.64,0.01,72,239,6.500006198883057,6.49999475479126
61,-0.16857308149337769,-2.1007282733917236,0.03291643410921097,36.7139447,3.1807835,13.05,-3.0,-5.27,0.0,71,239,6.070042133331299,6.070041179656982
62,0.14234808087348938,-2.10119366645813,-0.029936762526631355,36.7139111,3.1807101,13.03,-1.73,-3.04,0.04,71,239,3.509018659591675,3.5087504386901855
63,0.11062014847993851,-2.100924015045166,0.02675025165081024,36.7138984,3.1806821,13.03,-0.26,-0.46,-0.01,71,239,0.5378509163856506,0.5375167727470398
64,-0.030590320006012917,-2.102041721343994,0.03540455177426338,36.7138989,3.1806827,13.01,0.17,0.08,0.04,70,239,0.19548843801021576,0.19128473103046417
