timestamp,pitch,yaw,roll,lat,lon,alt,velocity_x,velocity_y,velocity_z,battery,heading,airspeed,groundspeed
0,0.024890528991818428,5.4230426030699164e-05,0.011537966318428516,36.7156066,3.1846299,29.27,-0.01,0.02,-0.01,96,0,0.03456142917275429,0.029685312882065773
1,-0.0812426432967186,-0.004734511487185955,0.09351621568202972,36.7156077,3.1846324,29.15,0.3,0.57,-0.05,95,359,0.652986466884613,0.6510063409805298
2,-0.1910281777381897,1.5075486898422241,-0.1305875927209854,36.7156185,3.1846556,29.19,1.4,2.43,-0.06,95,86,2.8149197101593018,2.814075469970703
3,-0.1414240449666977,0.9162589311599731,0.012773366644978523,36.7156485,3.1847188,29.21,2.17,3.68,-0.03,94,52,4.278992652893066,4.278832912445068
4,-0.0466303750872612,1.0020533800125122,-0.005988226737827063,36.7156783,3.1847801,29.21,2.0,3.33,-0.02,94,57,3.8925907611846924,3.892524242401123
5,0.3365207314491272,1.3624910116195679,0.10556497424840927,36.7156945,3.1848141,29.24,-0.52,-0.65,-0.03,94,78,0.8383596539497375,0.8374431133270264
6,-0.07120486348867416,2.9524009227752686,0.2077939659357071,36.7156742,3.1847777,29.23,-2.15,-3.07,0.05,93,169,3.7544522285461426,3.7540321350097656
7,-0.1395641565322876,-1.9318643808364868,0.024512063711881638,36.7156389,3.1847129,29.26,-2.19,-3.24,-0.02,93,249,3.920729637145996,3.9206156730651855
8,-0.009943746030330658,-1.6401811838150024,0.20061248540878296,36.7156199,3.1846595,29.23,-0.24,-2.95,0.02,93,266,2.965607166290283,2.965513229370117
9,-0.40653499960899353,-0.6585457921028137,0.11256415396928787,36.7156418,3.1846116,29.21,3.55,-3.01,0.0,92,322,4.6651997566223145,4.665196418762207
10,-0.5082136988639832,-0.6248117685317993,-0.01930234022438526,36.7157253,3.1845368,29.22,6.73,-4.71,0.0,92,324,8.218361854553223,8.218358993530273
11,-0.5231209397315979,-0.6216984391212463,0.015499806962907314,36.7158255,3.1844495,29.24,7.83,-5.49,0.0,91,324,9.57072925567627,9.570727348327637
12,-0.3621264100074768,-0.622823178768158,-0.020857106894254684,36.7159493,3.1843406,29.27,7.55,-5.36,-0.01,91,324,9.267597198486328,9.267580032348633
13,-0.10282062739133835,-0.6253784894943237,-0.0027880819980055094,36.716041,3.1842592,29.3,5.61,-4.03,0.04,91,324,6.910861492156982,6.910715579986572
14,0.09979524463415146,-1.00471830368042,-0.2517907917499542,36.7160944,3.184203,29.36,1.86,-2.9,-0.16,90,302,3.456116199493408,3.4519693851470947
15,-0.3754325211048126,-2.1298601627349854,-0.04417377710342407,36.7160849,3.1841379,30.28,-2.78,-4.33,-0.88,90,237,5.225201606750488,5.150542259216309
16,-0.4595247209072113,-2.1648337841033936,-0.02053126133978367,36.7160317,3.1840443,32.07,-4.75,-6.81,-1.41,89,235,8.42483139038086,8.304549217224121
17,-0.4848558306694031,-2.1632466316223145,0.023775696754455566,36.7159484,3.1838943,34.86,-5.53,-8.04,-1.6,89,236,9.890083312988281,9.759493827819824
18,-0.425613135099411,-2.1645500659942627,0.01081539411097765,36.715873,3.1837563,37.32,-5.53,-8.19,-1.57,88,235,10.013813018798828,9.889327049255371
19,-0.4924863576889038,-2.163654088973999,4.025471207569353e-05,36.7157854,3.1835934,40.19,-5.53,-8.25,-1.58,88,236,10.069085121154785,9.94384479522705
20,-0.4459216296672821,-2.163947105407715,0.03828633949160576,36.7157104,3.183454,42.66,-5.52,-8.24,-1.6,87,236,10.054788589477539,9.926580429077148
21,-0.42483070492744446,-2.163893222808838,-0.004535231273621321,36.7156356,3.1833149,45.14,-5.52,-8.26,-1.61,87,236,10.075483322143555,9.945043563842773
22,-0.4817526042461395,-2.1643755435943604,0.022712020203471184,36.7155485,3.183152,48.06,-5.5,-8.27,-1.61,87,236,10.065455436706543,9.934282302856445
23,-0.43112990260124207,-2.163544178009033,0.028458580374717712,36.7154737,3.1830125,50.56,-5.5,-8.28,-1.62,86,236,10.078909873962402,9.946270942687988
24,-0.4855108857154846,-2.1627328395843506,-0.01739943027496338,36.7153868,3.1828493,53.47,-5.51,-8.3,-1.62,86,236,10.103055000305176,9.971668243408203
25,-0.468610018491745,-2.165595769882202,0.03815418481826782,36.7153119,3.1827094,55.97,-5.51,-8.29,-1.63,85,235,10.095756530761719,9.962560653686523
26,-0.43039414286613464,-2.1636295318603516,0.001767369918525219,36.7152373,3.1825699,58.48,-5.52,-8.29,-1.62,85,236,10.100590705871582,9.968403816223145
27,-0.48736855387687683,-2.1649186611175537,0.01097098458558321,36.7151499,3.1824064,61.4,-5.52,-8.3,-1.62,84,235,10.104179382324219,9.971969604492188
28,-0.444242388010025,-2.1659698486328125,0.03947038948535919,36.715075,3.1822667,63.9,-5.51,-8.29,-1.63,84,235,10.089668273925781,9.956043243408203
29,-0.26803117990493774,-2.1682426929473877,-0.020100140944123268,36.7149918,3.1821116,66.7,-4.74,-7.06,-1.41,83,235,8.630488395690918,8.513474464416504
30,-0.06484084576368332,-2.162515640258789,0.0398334339261055,36.7149385,3.1820122,68.41,-3.08,-4.68,-0.76,83,236,5.657876014709473,5.606443881988525
31,-0.1438400149345398,-2.1142098903656006,-0.010289454832673073,36.7149044,3.1819445,69.11,-2.17,-3.7,-0.21,83,238,4.299411296844482,4.294031620025635
32,-0.1289428323507309,-2.085982322692871,0.013784201815724373,36.7148723,3.1818729,69.2,-2.0,-3.7,-0.01,82,240,4.209649085998535,4.209630489349365
33,-0.04393529146909714,-2.087350606918335,-0.014804651029407978,36.7148459,3.1818128,69.2,-1.76,-3.22,0.0,82,240,3.6772797107696533,3.677276849746704
34,0.03169097751379013,-2.3096210956573486,-0.07075415551662445,36.7148233,3.1817678,68.36,-1.21,-1.42,1.12,82,227,2.183502435684204,1.8711339235305786
35,-0.04545010253787041,-2.48262882232666,0.02489963360130787,36.7148083,3.1817512,66.15,-1.03,-0.79,1.45,81,217,1.9560765027999878,1.3056694269180298
36,-0.01848750375211239,-2.4723899364471436,-0.020706448704004288,36.7147943,3.1817381,63.9,-1.03,-0.82,1.41,81,218,1.9405540227890015,1.3251897096633911
37,-0.01570173352956772,-2.4699454307556152,0.020565951243042946,36.7147776,3.1817217,61.3,-1.06,-0.87,1.43,80,218,1.9878482818603516,1.3765172958374023
38,-0.05774229019880295,-2.469552516937256,-0.01901230774819851,36.7147631,3.1817071,59.06,-1.07,-0.88,1.44,80,218,2.0108871459960938,1.394677758216858
39,-0.011894217692315578,-2.4693491458892822,-0.016120286658406258,36.7147461,3.18169,56.44,-1.07,-0.86,1.45,80,218,2.005467414855957,1.3812578916549683
40,-0.05433030053973198,-2.4699089527130127,0.022376513108611107,36.7147315,3.1816754,54.2,-1.07,-0.87,1.45,79,218,2.010484457015991,1.382797360420227
41,-0.013220190070569515,-2.469945192337036,-0.013621985912322998,36.714717,3.1816609,51.95,-1.07,-0.88,1.46,79,218,2.0177969932556152,1.389611005783081
42,-0.016599278897047043,-2.46954083442688,0.02401871047914028,36.7147,3.1816436,49.33,-1.06,-0.88,1.46,79,218,2.0195086002349854,1.387601613998413
43,-0.04246554523706436,-2.4689207077026367,-0.026219382882118225,36.7146855,3.1816288,47.08,-1.07,-0.89,1.46,78,218,2.0230445861816406,1.3944588899612427
44,-0.011643142439424992,-2.46952223777771,-0.014787542633712292,36.7146683,3.1816117,44.46,-1.07,-0.88,1.47,78,218,2.024639844894409,1.3915941715240479
45,-0.0587402880191803,-2.469820261001587,0.011601435020565987,36.7146537,3.181597,42.21,-1.06,-0.88,1.47,78,218,2.0210914611816406,1.3834376335144043
46,-0.012612351216375828,-2.470092296600342,-0.010067404247820377,36.7146392,3.1815823,39.97,-1.06,-0.88,1.47,77,218,2.020909547805786,1.3805420398712158
47,-0.02796977385878563,-2.4692649841308594,0.023225856944918633,36.7146222,3.1815651,37.35,-1.06,-0.88,1.48,77,218,2.025575637817383,1.3803201913833618
48,-0.04653589800000191,-2.4693455696105957,-0.024629514664411545,36.7146076,3.1815503,35.09,-1.06,-0.88,1.47,76,218,2.025704860687256,1.3847955465316772
49,-0.02679748833179474,-2.4692447185516357,0.029580185189843178,36.714593,3.1815356,32.84,-1.06,-0.88,1.47,76,218,2.0207695960998535,1.3795207738876343
50,-0.12828320264816284,-2.9116032123565674,-0.0896148830652237,36.7145737,3.1815203,30.26,-1.65,-0.43,1.29,76,193,2.1394660472869873,1.7063666582107544
51,-0.2090398669242859,2.6790671348571777,-0.0415496826171875,36.7145415,3.181528,29.21,-3.2,1.43,0.06,75,153,3.5062437057495117,3.5056488513946533
52,-0.1712682694196701,2.67966890335083,0.026881853118538857,36.7144817,3.1815642,29.31,-4.07,2.03,-0.01,75,153,4.55964469909668,4.559632301330566
53,-0.0373963937163353,2.8552846908569336,0.11011682450771332,36.7144274,3.1815946,29.27,-3.74,1.07,0.05,75,163,3.896379232406616,3.895928144454956
54,-0.33092963695526123,-2.240097999572754,0.1422000378370285,36.7143761,3.1815782,29.24,-2.93,-3.21,0.01,74,231,4.350935935974121,4.350895881652832
55,-0.5086190700531006,-2.1395418643951416,-0.014880235306918621,36.7143309,3.1814961,29.24,-3.99,-6.34,0.01,74,237,7.5019707679748535,7.501946449279785
56,-0.4260604679584503,-2.147736072540283,0.0010089713614434004,36.7142592,3.1813545,29.25,-4.89,-7.66,0.0,73,236,9.096842765808105,9.09683895111084
57,-0.3703543245792389,-2.150923728942871,-0.02366013079881668,36.7141924,3.1812252,29.27,-4.78,-7.38,0.0,73,236,8.796250343322754,8.796247482299805
58,-0.24367009103298187,-2.14813232421875,0.03901899233460426,36.7141328,3.1811102,29.28,-3.96,-6.19,0.03,73,236,7.356240749359131,7.35616397857666
59,-0.2951717972755432,-2.117777109146118,-0.0021078414283692837,36.7140761,3.1809959,29.25,-3.36,-5.68,0.02,72,238,6.602713108062744,6.602675437927246
60,-0.26842671632766724,-2.100421667098999,0.038067083805799484,36.7140319,3.1809008,29.25,-3.22,-5.66,0.01,72,239,6.513900279998779,6.513888835906982
61,-0.21574872732162476,-2.099419593811035,-0.0068825543858110905,36.7139814,3.1807904,29.25,-3.08,-5.42,0.0,71,239,6.238514423370361,6.238513469696045
62,0.13856476545333862,-2.1008622646331787,0.005583378951996565,36.7139458,3.1807131,29.23,-1.94,-3.38,0.04,71,239,3.90987491607666,3.9096226692199707
63,0.1076376810669899,-2.1004953384399414,-0.00854550488293171,36.7139308,3.1806802,29.23,-0.36,-0.66,-0.01,71,239,0.7623112201690674,0.7620499134063721
64,0.007060927338898182,-2.100391387939453,0.0031788391061127186,36.7139307,3.1806795,29.22,0.12,0.14,0.03,70,239,0.19297173619270325,0.18891087174415588
