timestamp,pitch,yaw,roll,lat,lon,alt,velocity_x,velocity_y,velocity_z,battery,heading,airspeed,groundspeed
0,-0.003208242589607835,0.03675304725766182,-0.0213481392711401,36.7156066,3.1846299,16.02,-0.02,0.02,-0.05,96,2,0.07151856273412704,0.0404822863638401
1,-0.03252987191081047,0.03353418409824371,0.12292958796024323,36.7156075,3.1846322,16.05,0.22,0.53,-0.02,95,1,0.5828782916069031,0.5821762084960938
2,-0.24912376701831818,1.6382744312286377,-0.1019936352968216,36.7156192,3.1846616,16.06,1.38,2.81,-0.07,95,93,3.141141414642334,3.1401381492614746
3,-0.24359427392482758,0.9553235769271851,-0.0033363348338752985,36.7156436,3.184723,16.06,2.1,4.26,0.04,95,54,4.760261058807373,4.7600860595703125
4,-0.1571376621723175,1.0699281692504883,0.033388782292604446,36.7156738,3.1847975,16.06,2.24,4.4,-0.02,94,61,4.940911769866943,4.940853118896484
5,0.23150822520256042,1.1311213970184326,0.036574117839336395,36.7157029,3.1848682,16.07,0.9,1.98,0.0,94,64,2.1826958656311035,2.1826913356781006
6,0.0800209566950798,2.3958871364593506,0.27648255228996277,36.7156983,3.184865,16.1,-1.57,-2.2,0.0,93,137,2.7052786350250244,2.7052786350250244
7,-0.12588530778884888,-2.0979795455932617,0.01968342252075672,36.7156659,3.184806,16.06,-2.2,-3.26,-0.07,93,239,3.940441608428955,3.9397199153900146
8,-0.06157805025577545,-2.159449577331543,0.0583653599023819,36.7156378,3.1847508,16.1,-1.67,-3.17,0.03,93,236,3.590930938720703,3.5907773971557617
9,-0.16655780375003815,-1.1423425674438477,0.26468080282211304,36.715632,3.1847004,16.06,1.25,-2.71,0.0,92,294,2.9906458854675293,2.990633010864258
10,-0.5006452798843384,-0.6248500347137451,0.03955874219536781,36.7156855,3.1846404,16.06,5.34,-3.72,0.0,92,324,6.518364906311035,6.518360614776611
11,-0.48577335476875305,-0.6208421587944031,0.02488437481224537,36.7157726,3.1845652,16.07,7.34,-5.07,-0.01,91,324,8.930575370788574,8.930567741394043
12,-0.513477623462677,-0.619757890701294,0.0025282937567681074,36.7158952,3.1844588,16.08,7.9,-5.56,0.0,91,324,9.663919448852539,9.663920402526855
13,-0.28395622968673706,-0.6199679970741272,0.027995681390166283,36.7159988,3.1843678,16.12,7.03,-4.99,-0.01,91,324,8.62964916229248,8.629640579223633
14,0.006163643207401037,-0.6505417823791504,-0.10287182778120041,36.716079,3.1842966,16.12,4.43,-3.43,0.03,90,322,5.6076250076293945,5.6075215339660645
15,-0.1945154368877411,-1.7531906366348267,-0.2470829337835312,36.7161123,3.1842372,16.46,-0.5,-3.15,-0.46,90,259,3.227930784225464,3.193777561187744
16,-0.4738663136959076,-2.1609058380126953,-0.013053943403065205,36.7160815,3.1841693,17.67,-3.72,-5.21,-1.1,89,236,6.507147789001465,6.412533760070801
17,-0.44239717721939087,-2.165166139602661,0.01170937716960907,36.716008,3.1840394,20.13,-5.25,-7.64,-1.56,89,235,9.413716316223145,9.282800674438477
18,-0.4784837067127228,-2.1661195755004883,-0.019925808534026146,36.7159335,3.1839043,22.59,-5.54,-8.07,-1.58,88,235,9.923357009887695,9.795439720153809
19,-0.4350142478942871,-2.1644482612609863,0.03241419419646263,36.7158457,3.1837424,25.46,-5.55,-8.22,-1.59,88,235,10.051722526550293,9.925065994262695
20,-0.43549254536628723,-2.1665005683898926,-0.019859258085489273,36.7157709,3.1836035,27.93,-5.53,-8.24,-1.58,88,235,10.058955192565918,9.932877540588379
21,-0.4819702208042145,-2.162867546081543,-0.019821327179670334,36.7156961,3.183464,30.41,-5.51,-8.29,-1.59,87,236,10.088045120239258,9.9610595703125
22,-0.4246112108230591,-2.1627185344696045,0.014504709281027317,36.7156087,3.1833007,33.31,-5.52,-8.25,-1.62,87,236,10.065017700195312,9.933696746826172
23,-0.45105767250061035,-2.1640899181365967,-0.028014758601784706,36.715534,3.1831614,35.81,-5.51,-8.26,-1.61,86,236,10.06387996673584,9.932891845703125
24,-0.4955996870994568,-2.1660585403442383,0.0046964362263679504,36.7154596,3.1830223,38.31,-5.51,-8.3,-1.61,86,235,10.097662925720215,9.967229843139648
25,-0.4226682484149933,-2.164717435836792,0.0041393921710550785,36.7153721,3.1828584,41.22,-5.52,-8.32,-1.63,85,235,10.120635032653809,9.987427711486816
26,-0.46231651306152344,-2.1643810272216797,-0.029359303414821625,36.7152973,3.1827185,43.73,-5.5,-8.25,-1.63,85,236,10.056844711303711,9.923584938049316
27,-0.44855383038520813,-2.1650216579437256,0.043006833642721176,36.7152102,3.1825561,46.65,-5.5,-8.3,-1.63,84,235,10.100557327270508,9.967514991760254
28,-0.430303156375885,-2.163325786590576,-0.013152653351426125,36.7151357,3.182416,49.15,-5.52,-8.31,-1.63,84,236,10.118310928344727,9.984912872314453
29,-0.41139328479766846,-2.165548324584961,0.016278114169836044,36.7150485,3.1822533,52.06,-5.39,-8.02,-1.59,83,235,9.804512023925781,9.67322826385498
30,-0.10862328857183456,-2.1665196418762207,0.018959295004606247,36.7149824,3.182131,54.29,-4.16,-6.2,-1.21,83,235,7.571736812591553,7.473069190979004
31,-0.08880749344825745,-2.1535072326660156,-0.003311755834147334,36.7149372,3.1820457,55.61,-2.63,-4.1,-0.52,83,236,4.904301166534424,4.876557350158691
32,-0.1203969344496727,-2.1085522174835205,-0.002327931812033057,36.7149013,3.1819719,56.04,-2.11,-3.68,-0.06,82,239,4.245580196380615,4.245105266571045
33,-0.1710035502910614,-2.103605031967163,0.012788467109203339,36.7148733,3.1819108,56.04,-2.08,-3.69,-0.02,82,239,4.244751453399658,4.244686603546143
34,0.04821095988154411,-2.1318745613098145,-0.05561893433332443,36.7148443,3.1818482,55.91,-1.45,-2.38,0.31,82,237,2.8148977756500244,2.7975234985351562
35,0.01616378128528595,-2.4263620376586914,-0.007657495327293873,36.7148272,3.1818208,54.49,-1.13,-1.05,1.43,81,220,2.1139891147613525,1.5539696216583252
36,-0.034967608749866486,-2.463714361190796,-0.02376057580113411,36.7148129,3.181807,52.19,-1.02,-0.79,1.42,81,218,1.9285638332366943,1.3018395900726318
37,-0.01148302759975195,-2.468592643737793,0.006751147098839283,36.7147966,3.1817914,49.58,-1.06,-0.85,1.42,81,218,1.972849726676941,1.3640836477279663
38,-0.06294634193181992,-2.469386100769043,-0.006417362950742245,36.7147821,3.1817769,47.34,-1.06,-0.88,1.43,80,218,1.9993923902511597,1.3876756429672241
39,-0.023155389353632927,-2.4692656993865967,-0.023339956998825073,36.7147651,3.1817599,44.73,-1.07,-0.87,1.44,80,218,2.001224994659424,1.3825438022613525
40,-0.044992122799158096,-2.4695541858673096,0.027331458404660225,36.7147506,3.1817454,42.48,-1.07,-0.87,1.45,79,218,2.004638195037842,1.3834545612335205
41,-0.05878613889217377,-2.4694554805755615,-0.0106782466173172,36.7147335,3.1817283,39.87,-1.07,-0.89,1.46,79,218,2.0225679874420166,1.397751808166504
42,-0.014498413540422916,-2.469670295715332,0.01563473418354988,36.7147189,3.1817135,37.62,-1.06,-0.87,1.46,79,218,2.0149364471435547,1.3812153339385986
43,-0.051623303443193436,-2.469163179397583,-0.01697358675301075,36.7147044,3.1816988,35.37,-1.07,-0.89,1.46,78,218,2.0248301029205322,1.3980098962783813
44,-0.018123209476470947,-2.469773769378662,-0.02096085622906685,36.7146874,3.1816816,32.75,-1.06,-0.88,1.47,78,218,2.0238852500915527,1.3882334232330322
45,-0.052120666950941086,-2.4696733951568604,0.021528804674744606,36.7146728,3.1816668,30.51,-1.06,-0.88,1.47,78,218,2.022397994995117,1.3814903497695923
46,-0.052632804960012436,-2.4697318077087402,-0.02092895470559597,36.7146558,3.1816498,27.88,-1.07,-0.88,1.47,77,218,2.026473045349121,1.394263505935669
47,-0.021345166489481926,-2.4690871238708496,0.026987865567207336,36.7146412,3.181635,25.63,-1.06,-0.88,1.47,77,218,2.0205881595611572,1.3848567008972168
48,-0.04981043562293053,-2.4692327976226807,-0.020978299900889397,36.7146266,3.1816202,23.39,-1.06,-0.88,1.47,77,218,2.029142379760742,1.3899379968643188
49,-0.01325303129851818,-2.469787359237671,-0.010609378106892109,36.7146096,3.1816031,20.75,-1.07,-0.87,1.47,76,218,2.0241518020629883,1.3864067792892456
50,-0.07390525937080383,-2.4797329902648926,-0.012928354553878307,36.714595,3.1815884,18.5,-1.09,-0.87,1.47,76,217,2.0330774784088135,1.4013465642929077
51,-0.2150285840034485,2.8723490238189697,-0.13119575381278992,36.7145692,3.1815807,16.3,-2.39,0.53,0.64,75,164,2.5355820655822754,2.4510815143585205
52,-0.21030370891094208,2.6712825298309326,0.02444283477962017,36.7145263,3.1816036,16.08,-3.76,1.89,-0.05,75,153,4.220484256744385,4.220155715942383
53,-0.14193522930145264,2.674211263656616,-0.0015457611298188567,36.7144725,3.1816374,16.15,-3.98,2.01,0.05,75,153,4.464807033538818,4.464484214782715
54,-0.062451500445604324,-2.929487705230713,0.2723523676395416,36.714414,3.1816578,16.09,-3.17,-0.65,0.03,74,192,3.241814136505127,3.24157452583313
55,-0.4615258276462555,-2.192345142364502,0.08151579648256302,36.7143731,3.1816135,16.08,-3.15,-4.61,0.02,74,234,5.5920562744140625,5.592014789581299
56,-0.45639386773109436,-2.1562373638153076,-0.009800273925065994,36.7143118,3.1814932,16.08,-4.56,-7.25,0.0,73,236,8.571585655212402,8.57158374786377
57,-0.4762266278266907,-2.150739908218384,-0.01713431067764759,36.7142462,3.1813648,16.1,-4.95,-7.73,0.0,73,236,9.181827545166016,9.1818265914917
58,-0.3060504198074341,-2.1522700786590576,0.026287566870450974,36.714181,3.1812389,16.12,-4.49,-6.91,0.0,73,236,8.249205589294434,8.249202728271484
59,-0.2866121530532837,-2.1396944522857666,0.000799130299128592,36.7141176,3.1811155,16.1,-3.58,-5.76,0.03,72,237,6.788816928863525,6.788712501525879
60,-0.25981923937797546,-2.114966869354248,0.03824089840054512,36.714071,3.1810195,16.09,-3.33,-5.66,0.01,72,238,6.571669101715088,6.571657180786133
61,-0.31161296367645264,-2.1073670387268066,-0.006566533353179693,36.714019,3.1809084,16.09,-3.29,-5.67,0.01,71,239,6.562200546264648,6.562188625335693
62,-0.06636609882116318,-2.1082444190979004,0.011974835768342018,36.7139763,3.1808173,16.09,-2.82,-4.83,0.01,71,239,5.593785762786865,5.593776226043701
63,0.14199382066726685,-2.1092565059661865,0.0207208301872015,36.7139447,3.18075,16.05,-1.0,-1.72,0.0,71,239,1.9910085201263428,1.99100661277771
64,0.08288716524839401,-2.1088476181030273,-0.021076908335089684,36.7139394,3.1807383,16.08,0.04,0.03,0.0,70,239,0.059284765273332596,0.058757539838552475
65,-0.034500204026699066,-2.111908435821533,0.11584483832120895,36.7139415,3.1807403,16.03,0.39,-0.1,0.01,70,239,0.4129072427749634,0.41257962584495544
