timestamp,pitch,yaw,roll,lat,lon,alt,velocity_x,velocity_y,velocity_z,battery,heading,airspeed,groundspeed
0,-0.023653041571378708,0.03794263303279877,0.010347063653171062,36.7156066,3.1846299,14.91,-0.02,0.02,-0.05,96,2,0.060696933418512344,0.034058310091495514
1,-0.07020247727632523,0.05957081913948059,0.08552101254463196,36.7156082,3.1846328,14.94,0.43,0.6,-0.02,95,3,0.7442488074302673,0.7438163757324219
2,-0.20689378678798676,1.2426271438598633,-0.0746617317199707,36.7156282,3.1846652,14.96,2.18,2.8,-0.04,95,71,3.5507702827453613,3.5505428314208984
3,-0.2083277702331543,0.9418455958366394,-0.0045101577416062355,36.7156631,3.1847212,14.93,2.82,3.59,-0.01,95,53,4.5710954666137695,4.5710649490356445
4,0.006645869463682175,0.9015637636184692,0.0029853410087525845,36.715701,3.1847806,14.95,2.56,3.23,0.0,94,51,4.133111000061035,4.13310432434082
5,0.3486369252204895,0.5039754509925842,-0.12107379734516144,36.7157232,3.1848123,14.97,-0.36,-0.69,-0.02,94,28,0.7861003875732422,0.7857707738876343
6,-0.0861770436167717,-1.0678998231887817,-0.20831744372844696,36.7157037,3.1847758,14.96,-2.13,-3.1,0.06,93,298,3.7697675228118896,3.7692711353302
7,-0.07866125553846359,-2.390707492828369,0.028513826429843903,36.7156684,3.1847114,15.0,-2.19,-3.28,-0.01,93,223,3.954169988632202,3.954155445098877
8,-0.046891551464796066,-1.7180849313735962,0.236227348446846,36.7156489,3.1846577,14.95,-0.28,-2.94,0.03,93,261,2.9593212604522705,2.9591400623321533
9,-0.36101892590522766,-0.6594514846801758,0.06707355380058289,36.7156703,3.18461,14.94,3.52,-2.98,0.0,92,322,4.620611667633057,4.620608806610107
10,-0.5335437059402466,-0.6145432591438293,0.014278517104685307,36.7157385,3.1845486,14.94,6.37,-4.41,0.0,92,324,7.759674549102783,7.759674549102783
11,-0.4743061661720276,-0.6182296276092529,-0.01113088522106409,36.7158534,3.1844494,14.96,7.83,-5.43,0.0,91,324,9.535706520080566,9.53570556640625
12,-0.40661606192588806,-0.6213365793228149,0.02806461974978447,36.7159777,3.1843406,14.98,7.6,-5.38,-0.02,91,324,9.50293254852295,9.502923965454102
13,-0.06815186887979507,-0.6223013401031494,-0.008271333761513233,36.71607,3.1842593,15.01,5.74,-4.07,0.03,91,324,7.042662143707275,7.04255485534668
14,0.046995859593153,-0.9543454647064209,-0.2152853012084961,36.7161252,3.1842027,15.06,2.05,-2.92,-0.15,90,305,3.5777969360351562,3.574249505996704
15,-0.38402119278907776,-2.1258962154388428,-0.12367799878120422,36.7161186,3.1841381,15.96,-2.65,-4.23,-0.85,90,238,5.0710577964782715,4.998315811157227
16,-0.49779626727104187,-2.16607928276062,0.03387424349784851,36.7160665,3.1840461,17.71,-4.75,-6.72,-1.39,89,235,8.355460166931152,8.237628936767578
17,-0.4322034418582916,-2.163194417953491,0.012504154816269875,36.7159955,3.1839195,20.06,-5.51,-7.96,-1.61,89,236,9.822206497192383,9.688736915588379
18,-0.49041956663131714,-2.1658236980438232,-0.0016427296213805676,36.7159077,3.1837597,22.94,-5.52,-8.19,-1.57,88,235,10.010807991027832,9.88569450378418
19,-0.473705917596817,-2.1636688709259033,0.04092951491475105,36.7158327,3.1836202,25.4,-5.52,-8.24,-1.59,88,236,10.048640251159668,9.921895027160645
20,-0.4509604871273041,-2.1653006076812744,-0.028592770919203758,36.7157452,3.1834572,28.29,-5.52,-8.24,-1.59,88,235,10.051527976989746,9.923751831054688
21,-0.48705747723579407,-2.1632280349731445,-0.010041171684861183,36.7156704,3.1833179,30.78,-5.51,-8.25,-1.6,87,236,10.05316162109375,9.924532890319824
22,-0.42678382992744446,-2.163482427597046,-0.0015232013538479805,36.7155833,3.1831552,33.68,-5.52,-8.3,-1.62,87,236,10.110918998718262,9.98018741607666
23,-0.4322761595249176,-2.1622774600982666,-0.010748562403023243,36.7155212,3.1830388,35.77,-5.5,-8.26,-1.62,86,236,10.063913345336914,9.932049751281738
24,-0.4836699962615967,-2.169093370437622,0.028074463829398155,36.7154335,3.1828756,38.68,-5.51,-8.26,-1.62,86,235,10.064796447753906,9.93213176727295
25,-0.429557740688324,-2.1634044647216797,-0.015608856454491615,36.7153468,3.1827128,41.59,-5.5,-8.33,-1.64,85,236,10.117969512939453,9.983755111694336
26,-0.4775177538394928,-2.1628775596618652,-0.025588931515812874,36.7152721,3.1825727,44.1,-5.55,-8.3,-1.63,85,236,10.122687339782715,9.989299774169922
27,-0.42898979783058167,-2.164921760559082,0.035354238003492355,36.7151844,3.1824096,47.02,-5.51,-8.29,-1.64,84,235,10.097798347473145,9.963457107543945
28,-0.4436506927013397,-2.1643011569976807,-0.021971046924591064,36.71511,3.1822698,49.53,-5.49,-8.27,-1.63,84,236,10.0690336227417,9.93559455871582
29,-0.3293954133987427,-2.167731285095215,0.0028871274553239346,36.7150374,3.1821346,51.97,-5.01,-7.44,-1.48,84,235,9.101305961608887,8.978926658630371
30,-0.04013792797923088,-2.163910150527954,-0.0032576406374573708,36.7149722,3.1820134,54.09,-3.17,-4.78,-0.77,83,236,5.79237174987793,5.739868640899658
31,-0.1694505661725998,-2.126568078994751,0.029526500031352043,36.7149372,3.1819446,54.82,-2.25,-3.72,-0.22,83,238,4.354766368865967,4.3491644859313965
32,-0.16047921776771545,-2.1014907360076904,-0.022154225036501884,36.7149037,3.1818728,54.92,-2.06,-3.66,0.0,82,239,4.205112934112549,4.205108165740967
33,-0.03093237802386284,-2.1025192737579346,0.029328715056180954,36.7148762,3.1818129,54.92,-1.84,-3.26,0.0,82,239,3.7470061779022217,3.7470009326934814
34,0.036348775029182434,-2.2367191314697266,-0.07035237550735474,36.7148556,3.1817712,54.41,-1.24,-1.68,0.84,82,231,2.2553727626800537,2.093065023422241
35,-0.0052239601500332355,-2.484606981277466,0.007463659159839153,36.7148377,3.1817496,51.99,-1.03,-0.79,1.47,81,217,1.9658833742141724,1.3040767908096313
36,-0.0638468787074089,-2.4729130268096924,-0.006599796935915947,36.7148237,3.1817366,49.74,-1.03,-0.82,1.42,81,218,1.9430063962936401,1.320345401763916
37,-0.024817220866680145,-2.470867395401001,-0.020074112340807915,36.7148071,3.1817203,47.12,-1.06,-0.87,1.43,81,218,1.9890450239181519,1.3753324747085571
38,-0.04681916907429695,-2.4701461791992188,0.022857144474983215,36.7147926,3.1817057,44.88,-1.06,-0.88,1.44,80,218,1.9941169023513794,1.3793320655822754
39,-0.017011424526572227,-2.4700024127960205,-0.019637182354927063,36.714778,3.1816911,42.64,-1.07,-0.89,1.44,80,218,2.0128324031829834,1.3969120979309082
40,-0.05684564262628555,-2.4699013233184814,0.021370675414800644,36.7147635,3.1816765,40.4,-1.06,-0.88,1.45,80,218,2.0110039710998535,1.3844596147537231
41,-0.05355178937315941,-2.4698994159698486,-0.01918111927807331,36.7147464,3.1816594,37.78,-1.06,-0.88,1.46,79,218,2.0181753635406494,1.3869227170944214
42,-0.014231149107217789,-2.4704363346099854,-0.010842226445674896,36.7147295,3.1816423,35.17,-1.07,-0.88,1.47,79,218,2.034092903137207,1.3956596851348877
43,-0.059570591896772385,-2.4696948528289795,0.007757674437016249,36.7147149,3.1816275,32.92,-1.05,-0.89,1.47,78,218,2.0260465145111084,1.3850798606872559
44,-0.048505380749702454,-2.470062732696533,-0.021459292620420456,36.7146979,3.1816104,30.29,-1.07,-0.88,1.47,78,218,2.031858205795288,1.3950531482696533
45,-0.027575189247727394,-2.4697461128234863,0.024582980200648308,36.7146833,3.1815957,28.04,-1.06,-0.88,1.47,78,218,2.0228679180145264,1.3821779489517212
46,-0.039945460855960846,-2.4700212478637695,-0.024524349719285965,36.7146686,3.1815809,25.79,-1.06,-0.89,1.47,77,218,2.0287528038024902,1.3910157680511475
47,-0.0030042408034205437,-2.469719648361206,0.0025751544162631035,36.7146516,3.1815638,23.17,-1.06,-0.88,1.47,77,218,2.0176219940185547,1.3804035186767578
48,-0.062248773872852325,-2.469952344894409,0.005242244806140661,36.7146371,3.1815491,20.92,-1.06,-0.89,1.47,77,218,2.026472568511963,1.3910048007965088
49,-0.03596181422472,-2.47021484375,-0.024264004081487656,36.7146201,3.181532,18.29,-1.07,-0.88,1.47,76,218,2.0296175479888916,1.3938626050949097
50,-0.09639570116996765,-2.8687734603881836,-0.06814958900213242,36.7146035,3.1815187,16.08,-1.58,-0.48,1.32,76,195,2.1234071254730225,1.6560126543045044
51,-0.23186169564723969,2.6781842708587646,-0.07150973379611969,36.7145723,3.1815253,14.95,-3.11,1.37,0.11,75,153,3.4116246700286865,3.4096908569335938
52,-0.13946545124053955,2.672778844833374,0.009735627099871635,36.7145135,3.1815612,15.03,-4.0,2.03,-0.01,75,153,4.495815753936768,4.495788097381592
53,-0.06919042021036148,2.8362479209899902,0.12327159196138382,36.7144602,3.1815919,14.99,-3.71,1.12,0.06,75,162,3.886650323867798,3.886162519454956
54,-0.2885344624519348,-2.375032663345337,0.2088332325220108,36.7144156,3.1815844,14.96,-2.9,-2.43,0.02,74,223,3.7960398197174072,3.7959368228912354
55,-0.5043651461601257,-2.140349864959717,0.016457773745059967,36.7143637,3.1814955,14.96,-3.96,-6.28,0.01,74,237,7.428544521331787,7.428525447845459
56,-0.45147496461868286,-2.1467461585998535,0.021694205701351166,36.7143033,3.1813764,14.97,-4.84,-7.63,0.0,73,237,9.044859886169434,9.044859886169434
57,-0.39074820280075073,-2.1516969203948975,-0.0034519361797720194,36.7142259,3.181226,14.99,-4.81,-7.43,0.0,73,236,8.857839584350586,8.857839584350586
58,-0.23409244418144226,-2.1482253074645996,0.030774857848882675,36.714166,3.1811104,14.99,-3.99,-6.23,0.02,73,236,7.406304359436035,7.406253337860107
59,-0.29984065890312195,-2.1245510578155518,0.01656731776893139,36.7141085,3.1809953,14.96,-3.41,-5.68,0.01,72,238,6.629861354827881,6.629840850830078
60,-0.2533523440361023,-2.1088268756866455,0.01845702715218067,36.7140635,3.1809001,14.96,-3.27,-5.63,0.0,72,239,6.515389919281006,6.515388011932373
61,-0.24125106632709503,-2.1089272499084473,-0.017786016687750816,36.7140191,3.1808053,14.96,-3.22,-5.54,0.0,72,239,6.416788578033447,6.416788578033447
62,0.12163705378770828,-2.1094930171966553,-0.008746818639338017,36.7139756,3.1807125,14.95,-2.01,-3.43,0.04,71,239,3.9829540252685547,3.9827513694763184
63,0.10535827279090881,-2.1091535091400146,0.008878669701516628,36.7139598,3.1806788,14.94,-0.41,-0.73,-0.02,71,239,0.8442786335945129,0.843957245349884
64,-0.0035465864930301905,-2.10935115814209,-0.003973191604018211,36.7139593,3.1806773,14.94,0.11,0.14,0.03,70,239,0.18815164268016815,0.1848868578672409
