timestamp,pitch,yaw,roll,lat,lon,alt,velocity_x,velocity_y,velocity_z,battery,heading,airspeed,groundspeed
0,0.003707913216203451,-0.05523598939180374,0.03168313205242157,36.7156065,3.1846299,20.55,-0.01,0.03,0.02,96,356,0.04374336823821068,0.03679351881146431
1,-0.05762781202793121,-0.057302772998809814,0.07026494294404984,36.7156078,3.1846324,20.51,0.31,0.55,-0.01,95,356,0.6385743021965027,0.6384353041648865
2,-0.17008277773857117,1.4905016422271729,-0.09185531735420227,36.7156185,3.1846548,20.5,1.42,2.3,-0.02,95,85,2.7050089836120605,2.704888343811035
3,-0.14186035096645355,0.8693397045135498,0.045698218047618866,36.7156482,3.184714,20.53,2.13,3.43,-0.03,95,49,4.04319429397583,4.043062686920166
4,0.0087472228333354,0.9790028929710388,-0.02394711598753929,36.715677,3.1847708,20.55,1.91,3.03,-0.01,94,56,3.5935707092285156,3.593536138534546
5,0.34920087456703186,1.3393633365631104,0.11298928409814835,36.7156901,3.1847967,20.54,-0.76,-1.05,0.0,94,76,1.301937460899353,1.3019260168075562
6,-0.09891758859157562,2.966484785079956,0.17936426401138306,36.7156681,3.184757,20.58,-2.2,-3.14,-0.02,93,169,3.8399057388305664,3.8398211002349854
7,-0.11955671012401581,-1.946304440498352,0.013755107298493385,36.7156329,3.1846921,20.57,-2.12,-3.24,0.0,93,248,3.8814892768859863,3.881483793258667
8,-0.03152529522776604,-1.517592430114746,0.2607112228870392,36.7156167,3.1846391,20.55,0.11,-2.88,0.0,93,273,2.889172077178955,2.889157295227051
9,-0.42501702904701233,-0.6570069193840027,0.06729992479085922,36.7156439,3.1845907,20.55,3.89,-3.12,0.0,92,322,4.9951171875,4.995116710662842
10,-0.4990437626838684,-0.6218997836112976,0.04120488837361336,36.7157165,3.1845261,20.55,6.6,-4.6,0.0,92,324,8.055280685424805,8.055277824401855
11,-0.506252646446228,-0.6214261651039124,-0.025390733033418655,36.715833,3.1844248,20.57,7.87,-5.52,0.0,91,324,9.619424819946289,9.619424819946289
12,-0.41744834184646606,-0.6224641799926758,0.03125813603401184,36.7159394,3.1843311,20.59,7.62,-5.41,-0.02,91,324,9.356756210327148,9.35672664642334
13,-0.054778389632701874,-0.6274785995483398,-0.0452953577041626,36.7160453,3.1842371,20.62,5.3,-3.83,0.04,91,324,6.546985149383545,6.546814441680908
14,0.05295725166797638,-1.1124241352081299,-0.24416087567806244,36.7160934,3.1841828,20.72,1.41,-2.88,-0.22,90,296,3.2233123779296875,3.2155466079711914
15,-0.43746092915534973,-2.129488706588745,-0.060079433023929596,36.7160779,3.1841149,21.75,-3.07,-4.55,-0.94,90,237,5.57864236831665,5.497982978820801
16,-0.44702866673469543,-2.159024477005005,0.023752067238092422,36.7160218,3.1840168,23.62,-4.85,-6.99,-1.45,89,236,8.637688636779785,8.513777732849121
17,-0.4778122305870056,-2.162645101547241,-0.02122245915234089,36.7159376,3.1838651,26.43,-5.53,-8.07,-1.6,89,236,9.917263984680176,9.78612995147705
18,-0.46598565578460693,-2.163787364959717,0.03523863106966019,36.7158621,3.1837267,28.89,-5.54,-8.19,-1.58,88,236,10.02469539642334,9.898763656616211
19,-0.41890016198158264,-2.1629068851470947,0.004107238259166479,36.7157868,3.1835871,31.36,-5.52,-8.23,-1.58,88,236,10.040594100952148,9.914399147033691
20,-0.49254199862480164,-2.1665029525756836,0.006397216580808163,36.7156997,3.1834251,34.25,-5.5,-8.24,-1.59,87,235,10.038273811340332,9.9111328125
21,-0.4545038938522339,-2.163012981414795,0.04502871632575989,36.7156253,3.1832858,36.72,-5.52,-8.31,-1.61,87,236,10.10939884185791,9.97927188873291
22,-0.46498367190361023,-2.163496732711792,-0.032453395426273346,36.7155379,3.1831224,39.64,-5.52,-8.27,-1.61,87,236,10.078946113586426,9.948734283447266
23,-0.4827057421207428,-2.1651670932769775,-0.021890725940465927,36.7154753,3.1830061,41.72,-5.51,-8.28,-1.61,86,235,10.081673622131348,9.950810432434082
24,-0.43322375416755676,-2.164497137069702,0.026078402996063232,36.7153885,3.1828433,44.63,-5.5,-8.3,-1.63,86,235,10.098956108093262,9.965174674987793
25,-0.4849075675010681,-2.1630780696868896,-0.01938808336853981,36.7153013,3.1826801,47.55,-5.5,-8.29,-1.63,85,236,10.090456008911133,9.957626342773438
26,-0.4702375829219818,-2.1638989448547363,0.02975219115614891,36.7152265,3.1825401,50.06,-5.52,-8.28,-1.63,85,236,10.09341049194336,9.96023941040039
27,-0.44714945554733276,-2.165391683578491,-0.022848254069685936,36.7151391,3.182377,52.98,-5.51,-8.29,-1.63,84,235,10.089397430419922,9.955672264099121
28,-0.48499178886413574,-2.165522575378418,0.002180874813348055,36.7150646,3.1822374,55.48,-5.5,-8.28,-1.63,84,235,10.084260940551758,9.951314926147461
29,-0.25217217206954956,-2.167725086212158,0.030518468469381332,36.7149928,3.1821041,57.89,-4.83,-7.18,-1.44,84,235,8.777522087097168,8.658161163330078
30,-0.08951644599437714,-2.159642457962036,-0.0012390613555908203,36.7149314,3.1819893,59.85,-2.95,-4.51,-0.68,83,236,5.440168380737305,5.396621227264404
31,-0.11347457766532898,-2.107846736907959,0.02830587327480316,36.7148984,3.1819228,60.47,-2.15,-3.71,-0.17,83,239,4.300015926361084,4.296541690826416
32,-0.17594291269779205,-2.086276054382324,0.022118447348475456,36.7148662,3.181851,60.53,-2.0,-3.69,-0.01,82,240,4.205502033233643,4.205488681793213
33,0.015997599810361862,-2.0882208347320557,-0.020086467266082764,36.7148402,3.1817921,60.52,-1.68,-3.07,0.04,82,240,3.511448860168457,3.5111820697784424
34,-0.002628022339195013,-2.281571388244629,-0.045954376459121704,36.7148213,3.1817541,59.81,-1.21,-1.49,1.04,82,229,2.191431999206543,1.9264683723449707
35,-0.046233512461185455,-2.4752042293548584,-0.025213344022631645,36.7148037,3.1817344,57.25,-1.03,-0.8,1.44,81,218,1.949925184249878,1.3091880083084106
36,-0.029593750834465027,-2.4717092514038086,0.02872912585735321,36.7147897,3.1817213,55.01,-1.04,-0.82,1.42,81,218,1.9462662935256958,1.330101728439331
37,-0.06312978267669678,-2.4700469970703125,0.008485758677124977,36.714773,3.1817048,52.41,-1.06,-0.88,1.44,81,218,1.9982212781906128,1.3841801881790161
38,-0.005260750651359558,-2.469621419906616,-0.0008153290254995227,36.7147584,3.1816903,50.16,-1.07,-0.87,1.44,80,218,2.001873254776001,1.383471131324768
39,-0.06001138314604759,-2.4696543216705322,0.007513006683439016,36.7147438,3.1816757,47.92,-1.06,-0.88,1.44,80,218,2.0045886039733887,1.3853944540023804
40,-0.039109762758016586,-2.4695980548858643,-0.023756686598062515,36.7147269,3.1816586,45.3,-1.07,-0.89,1.46,79,218,2.020231008529663,1.3940767049789429
41,-0.038200508803129196,-2.469864845275879,0.02881735935807228,36.7147123,3.1816439,43.06,-1.06,-0.88,1.46,79,218,2.0186891555786133,1.3865153789520264
42,-0.05803417041897774,-2.4698519706726074,-0.0031968201510608196,36.7146953,3.1816267,40.43,-1.06,-0.89,1.46,79,218,2.018817186355591,1.388841986656189
43,-0.010619628243148327,-2.46895694732666,0.012258277274668217,36.7146807,3.1816121,38.19,-1.06,-0.87,1.47,78,218,2.021176338195801,1.382041335105896
44,-0.06085406616330147,-2.4694888591766357,-0.005986012052744627,36.7146661,3.1815973,35.94,-1.05,-0.88,1.47,78,218,2.022517681121826,1.3809469938278198
45,-0.022680800408124924,-2.4695653915405273,-0.022215964272618294,36.7146491,3.1815801,33.31,-1.07,-0.88,1.47,78,218,2.0222327709198,1.3880655765533447
46,-0.04639057070016861,-2.470099925994873,0.024970628321170807,36.7146345,3.1815654,31.07,-1.05,-0.88,1.47,77,218,2.0173308849334717,1.3777967691421509
47,-0.054916851222515106,-2.4691569805145264,-0.018600307404994965,36.7146175,3.1815482,28.45,-1.06,-0.88,1.48,77,218,2.0285515785217285,1.386581301689148
48,-0.00969685148447752,-2.4691436290740967,0.018183264881372452,36.7146029,3.1815335,26.19,-1.06,-0.88,1.47,77,218,2.018683671951294,1.379051685333252
49,-0.05232912674546242,-2.469385862350464,-0.017112743109464645,36.7145883,3.1815188,23.94,-1.05,-0.88,1.47,76,218,2.0162150859832764,1.3766897916793823
50,-0.09487191587686539,-3.0199029445648193,-0.1253768503665924,36.7145682,3.1815043,21.4,-1.77,-0.28,1.2,76,186,2.1622629165649414,1.7952409982681274
51,-0.2508279085159302,2.675999641418457,-0.009909305721521378,36.7145339,3.181515,20.54,-3.33,1.55,0.0,75,153,3.6825480461120605,3.6825461387634277
52,-0.18108169734477997,2.6797142028808594,-0.030784932896494865,36.7144727,3.1815523,20.64,-4.06,2.04,0.01,75,153,4.551970481872559,4.551946640014648
53,-0.015230772085487843,2.9192535877227783,0.1878601610660553,36.7144193,3.1815808,20.59,-3.65,0.83,0.05,75,167,3.7467286586761475,3.746314764022827
54,-0.4086249768733978,-2.2135984897613525,0.1319320648908615,36.714369,3.1815571,20.57,-2.97,-3.6,0.01,74,233,4.673582077026367,4.673546314239502
55,-0.451605886220932,-2.141944408416748,0.015623380430042744,36.7143222,3.1814696,20.57,-4.12,-6.52,0.0,74,237,7.719871520996094,7.719865322113037
56,-0.47590386867523193,-2.146881103515625,-0.029932543635368347,36.7142604,3.181348,20.58,-4.89,-7.69,0.0,73,237,9.116653442382812,9.11665153503418
57,-0.31576165556907654,-2.152282953262329,0.021638531237840652,36.7141827,3.1811975,20.6,-4.72,-7.26,-0.01,73,236,8.66987133026123,8.669862747192383
58,-0.22958022356033325,-2.146583080291748,-0.01004535797983408,36.7141241,3.1810842,20.6,-3.86,-6.07,0.03,73,237,7.197680473327637,7.197597980499268
59,-0.2836395800113678,-2.1200928688049316,0.0430353507399559,36.714076,3.1809867,20.58,-3.37,-5.67,0.02,72,238,6.599675178527832,6.599639892578125
60,-0.300022155046463,-2.1001250743865967,-0.01717999204993248,36.7140245,3.180876,20.58,-3.23,-5.66,0.01,72,239,6.528542518615723,6.528530120849609
61,-0.19153963029384613,-2.1003193855285645,0.02982136234641075,36.7139809,3.1807808,20.58,-3.11,-5.45,0.0,71,239,6.279321193695068,6.27932071685791
62,0.10426807403564453,-2.1005775928497314,-0.0037518301978707314,36.7139401,3.1806923,20.56,-1.75,-3.06,0.03,71,239,3.532569408416748,3.5323431491851807
63,0.14987488090991974,-2.100743055343628,0.004771070089191198,36.7139273,3.1806641,20.56,-0.27,-0.49,-0.01,71,239,0.57011479139328,0.569786012172699
64,-0.014439605176448822,-2.1014750003814697,0.0770440325140953,36.7139276,3.1806642,20.54,0.17,0.09,0.04,70,239,0.2042521983385086,0.20000235736370087
