timestamp,pitch,yaw,roll,lat,lon,alt,velocity_x,velocity_y,velocity_z,battery,heading,airspeed,groundspeed
0,-0.0023028841242194176,0.019946731626987457,-0.021799687296152115,36.7156067,3.18463,17.57,-0.02,0.02,-0.03,96,1,0.04912862554192543,0.037847455590963364
1,-0.05071999132633209,0.023030968382954597,0.12154140323400497,36.7156081,3.1846324,17.63,0.35,0.54,0.0,95,1,0.6510998010635376,0.6510699391365051
2,-0.23669826984405518,1.3565075397491455,-0.09174533933401108,36.715621,3.1846543,17.58,1.64,2.25,-0.01,95,77,2.79347562789917,2.7934458255767822
3,-0.1678164005279541,0.931471049785614,-0.029260823503136635,36.7156549,3.1847117,17.62,2.42,3.28,-0.02,95,53,4.083680152893066,4.083586692810059
4,0.02553042769432068,0.9167622923851013,0.02165369875729084,36.7156875,3.184766,17.63,2.14,2.84,-0.01,94,52,3.562105655670166,3.562086820602417
5,0.2862202525138855,0.4645429849624634,-0.13330397009849548,36.7157024,3.1847879,17.62,-0.73,-1.18,0.0,94,26,1.3981382846832275,1.3981224298477173
6,-0.06545419245958328,-1.159542202949524,-0.16838811337947845,36.7156802,3.1847469,17.66,-2.2,-3.2,-0.02,93,293,3.888441324234009,3.8883838653564453
7,-0.11137796193361282,-2.4197990894317627,0.07955224812030792,36.7156498,3.1846915,17.66,-2.19,-3.28,0.01,93,221,3.9558756351470947,3.9558427333831787
8,-0.07812555879354477,-1.5505584478378296,0.23997925221920013,36.7156298,3.1846292,17.64,0.2,-2.85,0.01,93,271,2.863375186920166,2.8633294105529785
9,-0.370914101600647,-0.6587066650390625,0.07583511620759964,36.7156587,3.1845809,17.63,4.01,-3.13,0.0,92,322,5.091766834259033,5.091766357421875
10,-0.5257290005683899,-0.6229041814804077,-0.009695961140096188,36.7157325,3.1845157,17.63,6.67,-4.62,0.0,92,324,8.123129844665527,8.123127937316895
11,-0.46117475628852844,-0.6178491115570068,0.00994342565536499,36.7158498,3.1844144,17.65,7.89,-5.49,0.0,91,324,9.622689247131348,9.622688293457031
12,-0.3953256905078888,-0.6191292405128479,-0.030209006741642952,36.7159563,3.1843211,17.67,7.64,-5.4,-0.01,91,324,9.357647895812988,9.35762882232666
13,-0.02054208144545555,-0.6252936124801636,-0.012592953629791737,36.7160622,3.1842276,17.7,5.28,-3.79,0.04,91,324,6.503695964813232,6.5035247802734375
14,0.0008262512274086475,-1.1125322580337524,-0.2636241316795349,36.7161097,3.1841737,17.8,1.37,-2.85,-0.23,90,296,3.178844451904297,3.1704628467559814
15,-0.39009055495262146,-2.133591413497925,-0.08904596418142319,36.7160935,3.1841058,18.85,-3.11,-4.57,-0.95,90,237,5.6168999671936035,5.535190582275391
16,-0.5124365091323853,-2.1624317169189453,0.021402649581432343,36.7160372,3.1840071,20.73,-4.91,-7.01,-1.45,89,236,8.686774253845215,8.564802169799805
17,-0.438564658164978,-2.1637847423553467,0.026022285223007202,36.7159649,3.1838776,23.13,-5.51,-8.0,-1.61,89,236,9.852505683898926,9.71954345703125
18,-0.48843398690223694,-2.1633846759796143,-0.020974397659301758,36.7158774,3.1837171,25.99,-5.53,-8.22,-1.58,88,236,10.041369438171387,9.916130065917969
19,-0.47695884108543396,-2.1654365062713623,0.032470911741256714,36.7158021,3.1835776,28.46,-5.54,-8.26,-1.59,88,235,10.084628105163574,9.957438468933105
20,-0.441800594329834,-2.163454055786133,-0.03152814507484436,36.7157148,3.1834146,31.36,-5.51,-8.26,-1.59,88,236,10.054895401000977,9.92668628692627
21,-0.4930233657360077,-2.163722276687622,-0.002176102716475725,36.7156401,3.1832753,33.84,-5.52,-8.27,-1.61,87,236,10.082344055175781,9.952916145324707
22,-0.4449681341648102,-2.1647069454193115,0.03792527690529823,36.7155652,3.1831356,36.33,-5.52,-8.27,-1.63,87,235,10.082195281982422,9.949535369873047
23,-0.47310060262680054,-2.1636135578155518,-0.027393443509936333,36.7154778,3.1829724,39.25,-5.5,-8.28,-1.62,86,236,10.079606056213379,9.948123931884766
24,-0.48810911178588867,-2.1674561500549316,0.031149793416261673,36.7154033,3.1828333,41.75,-5.51,-8.29,-1.62,86,235,10.096956253051758,9.964547157287598
25,-0.4343961477279663,-2.1659491062164307,-0.014741052873432636,36.7153162,3.1826701,44.67,-5.53,-8.3,-1.63,85,235,10.11488151550293,9.98187255859375
26,-0.48462963104248047,-2.1636927127838135,-0.007260405924171209,36.7152413,3.1825297,47.18,-5.5,-8.29,-1.62,85,236,10.087990760803223,9.95584487915039
27,-0.4588216245174408,-2.164759397506714,0.043497294187545776,36.7151665,3.18239,49.68,-5.5,-8.28,-1.63,84,235,10.078774452209473,9.945508003234863
28,-0.4518437683582306,-2.1637237071990967,-0.029199181124567986,36.7150797,3.1822274,52.6,-5.53,-8.31,-1.63,84,236,10.122179985046387,9.989114761352539
29,-0.28688693046569824,-2.169304370880127,0.02133472077548504,36.7150079,3.1820943,55.0,-4.83,-7.14,-1.43,83,235,8.747238159179688,8.628558158874512
30,-0.05654483288526535,-2.160850763320923,-0.011165386065840721,36.7149466,3.1819798,56.95,-2.94,-4.49,-0.67,83,236,5.415921688079834,5.373461723327637
31,-0.1490394026041031,-2.1193394660949707,0.039147816598415375,36.7149136,3.1819135,57.55,-2.2,-3.7,-0.16,83,238,4.313401222229004,4.310086727142334
32,-0.13835830986499786,-2.1020166873931885,-0.019136227667331696,36.7148849,3.1818521,57.62,-2.08,-3.67,0.0,82,239,4.223013401031494,4.2230072021484375
33,0.016106460243463516,-2.103860855102539,0.009613706730306149,36.7148532,3.1817832,57.6,-1.72,-3.04,0.04,82,239,3.500239849090576,3.499943733215332
34,0.0039392500184476376,-2.2917428016662598,-0.06380126625299454,36.7148339,3.1817458,56.88,-1.22,-1.48,1.05,82,228,2.1955835819244385,1.9266005754470825
35,-0.02070239558815956,-2.475099563598633,-0.022630194202065468,36.7148164,3.1817262,54.33,-1.03,-0.8,1.45,81,218,1.9580767154693604,1.313511610031128
36,-0.0549623966217041,-2.4720449447631836,0.02851499430835247,36.7148023,3.1817129,52.09,-1.03,-0.83,1.42,81,218,1.9521812200546265,1.3326644897460938
37,-0.058418482542037964,-2.469860315322876,-0.014857333153486252,36.7147857,3.1816966,49.48,-1.06,-0.87,1.44,81,218,1.9967882633209229,1.381024956703186
38,-0.011783294379711151,-2.469674825668335,0.021391719579696655,36.7147712,3.1816821,47.23,-1.06,-0.87,1.44,80,218,2.000668525695801,1.3803504705429077
39,-0.05626147612929344,-2.4693400859832764,-0.013917554169893265,36.7147566,3.1816674,44.99,-1.06,-0.88,1.45,80,218,2.0093092918395996,1.3895230293273926
40,-0.021835099905729294,-2.469705104827881,-0.02018638700246811,36.7147396,3.1816503,42.37,-1.06,-0.88,1.45,79,218,2.0103514194488525,1.3854498863220215
41,-0.05705152451992035,-2.4699840545654297,0.021555542945861816,36.7147251,3.1816356,40.13,-1.06,-0.89,1.47,79,218,2.025224208831787,1.3917492628097534
42,-0.01437758281826973,-2.4694626331329346,-0.013725368306040764,36.7147105,3.1816209,37.88,-1.07,-0.88,1.47,79,218,2.0257625579833984,1.3934177160263062
43,-0.01911960542201996,-2.4690072536468506,0.027512364089488983,36.7146934,3.1816037,35.26,-1.06,-0.88,1.47,78,218,2.0191240310668945,1.3821951150894165
44,-0.05478208139538765,-2.4694881439208984,-0.016162998974323273,36.7146788,3.1815891,33.02,-1.06,-0.88,1.47,78,218,2.0234215259552,1.3823388814926147
45,-0.013637739233672619,-2.469768762588501,-0.01646067388355732,36.7146618,3.1815719,30.39,-1.06,-0.88,1.48,78,218,2.0279970169067383,1.3863022327423096
46,-0.05746498703956604,-2.470360279083252,0.020216478034853935,36.7146473,3.1815571,28.14,-1.06,-0.88,1.47,77,218,2.0206470489501953,1.3804852962493896
47,-0.04859568551182747,-2.4691576957702637,-0.023178784176707268,36.7146302,3.18154,25.52,-1.06,-0.88,1.47,77,218,2.027656078338623,1.3875229358673096
48,-0.016856655478477478,-2.469217538833618,0.022175805643200874,36.7146156,3.1815252,23.27,-1.05,-0.88,1.47,77,218,2.0200705528259277,1.3757678270339966
49,-0.04982326552271843,-2.4695446491241455,-0.02414706163108349,36.714601,3.1815105,21.01,-1.06,-0.87,1.47,76,218,2.0219643115997314,1.3830899000167847
50,-0.09385214000940323,-3.0300021171569824,-0.1180165484547615,36.7145808,3.1814962,18.47,-1.77,-0.27,1.19,76,186,2.1594109535217285,1.796459674835205
51,-0.25121742486953735,2.6686670780181885,-0.006454219575971365,36.7145464,3.1815074,17.62,-3.32,1.56,0.0,75,152,3.672922134399414,3.672921895980835
52,-0.17297492921352386,2.6725614070892334,-0.030804689973592758,36.7144859,3.1815449,17.72,-4.0,2.04,0.01,75,153,4.495307445526123,4.49524450302124
53,-0.012651720084249973,2.93721866607666,0.19237834215164185,36.7144332,3.1815728,17.67,-3.58,0.74,0.05,75,168,3.6607227325439453,3.660342216491699
54,-0.3659743666648865,-2.260312557220459,0.1186358705163002,36.7143905,3.1815562,17.65,-2.93,-3.06,0.02,74,230,4.24077033996582,4.240714073181152
55,-0.4525669515132904,-2.1441168785095215,0.01630890555679798,36.7143363,3.1814579,17.65,-4.16,-6.58,0.0,74,237,7.795272350311279,7.7952680587768555
56,-0.46737995743751526,-2.1470987796783447,-0.02898293547332287,36.7142742,3.1813354,17.66,-4.88,-7.68,0.0,73,236,9.099949836730957,9.09994888305664
57,-0.3132832944393158,-2.1517999172210693,0.0207415409386158,36.714197,3.1811859,17.68,-4.7,-7.25,0.0,73,236,8.64643383026123,8.646430015563965
58,-0.23988959193229675,-2.1475672721862793,-0.012642006389796734,36.7141386,3.1810731,17.68,-3.87,-6.07,0.03,73,236,7.206900119781494,7.206821441650391
59,-0.27856341004371643,-2.1242733001708984,0.04215046390891075,36.7140901,3.1809753,17.66,-3.41,-5.67,0.01,72,238,6.624600410461426,6.624571800231934
60,-0.30047357082366943,-2.107889413833618,-0.020778870210051537,36.7140377,3.1808645,17.66,-3.28,-5.64,0.01,72,239,6.534372806549072,6.53436279296875
61,-0.1791025847196579,-2.108372449874878,0.029158364981412888,36.7139934,3.1807697,17.66,-3.15,-5.41,0.0,71,239,6.271114826202393,6.271114349365234
62,0.10906509310007095,-2.1092100143432617,0.009714340791106224,36.7139524,3.1806826,17.63,-1.73,-2.96,0.03,71,239,3.433478355407715,3.4332733154296875
63,0.1458318680524826,-2.1090941429138184,-0.004859533626586199,36.71394,3.1806556,17.64,-0.26,-0.45,-0.02,71,239,0.5212125182151794,0.5207545757293701
64,-0.025336019694805145,-2.109163999557495,0.02589612454175949,36.7139401,3.1806557,17.63,0.12,0.13,0.03,70,239,0.18852411210536957,0.18510474264621735
