timestamp,pitch,yaw,roll,lat,lon,alt,velocity_x,velocity_y,velocity_z,battery,heading,airspeed,groundspeed
0,-0.005027344916015863,0.0419490709900856,0.028336726129055023,36.7156066,3.1846299,20.75,-0.02,0.02,-0.01,96,2,0.03955196961760521,0.037504538893699646
1,-0.06602466106414795,0.03801465034484863,0.06771348416805267,36.7156079,3.1846322,20.72,0.34,0.53,-0.02,95,2,0.6392120718955994,0.6387263536453247
2,-0.17562735080718994,1.3490452766418457,-0.09192582964897156,36.715625,3.1846615,20.72,1.85,2.62,-0.02,95,77,3.209857940673828,3.20971941947937
3,-0.17408399283885956,0.9448611736297607,0.01715659536421299,36.7156548,3.184714,20.74,2.43,3.44,-0.02,95,54,4.22086238861084,4.220794677734375
4,0.042096398770809174,0.9308263659477234,-0.022287968546152115,36.7156875,3.1847703,20.75,2.16,2.94,0.0,94,53,3.654691457748413,3.6546788215637207
5,0.3535251319408417,0.589499831199646,-0.09796204417943954,36.7157026,3.1847935,20.73,-0.73,-1.17,0.0,94,33,1.3840326070785522,1.3840242624282837
6,-0.09276125580072403,-1.0443289279937744,-0.18557214736938477,36.7156805,3.1847528,20.77,-2.2,-3.2,-0.02,93,300,3.8912932872772217,3.8912155628204346
7,-0.06400483846664429,-2.391143560409546,0.03426108509302139,36.7156453,3.1846879,20.76,-2.08,-3.26,0.01,93,223,3.8690550327301025,3.8690271377563477
8,-0.0670919343829155,-1.5508848428726196,0.27760860323905945,36.7156298,3.1846348,20.75,0.18,-2.85,0.01,93,271,2.86594820022583,2.865915536880493
9,-0.45551252365112305,-0.6596688628196716,0.0482618510723114,36.7156678,3.1845776,20.74,4.52,-3.32,0.0,92,322,5.619093418121338,5.619093418121338
10,-0.5414817333221436,-0.624108076095581,0.02706095203757286,36.7157316,3.1845216,20.74,6.68,-4.61,0.0,92,324,8.127480506896973,8.127479553222656
11,-0.45902910828590393,-0.6200435757637024,-0.014855940826237202,36.7158493,3.18442,20.76,7.87,-5.49,0.0,91,324,9.600271224975586,9.600269317626953
12,-0.3856503665447235,-0.6215913891792297,0.026382964104413986,36.7159726,3.1843119,20.79,7.44,-5.27,-0.01,91,324,9.130270957946777,9.130252838134766
13,-0.025338593870401382,-0.6255983114242554,-0.02536110393702984,36.7160613,3.1842337,20.81,5.33,-3.82,0.04,91,324,6.5661773681640625,6.566018104553223
14,-0.04785635322332382,-1.3423614501953125,-0.2568111717700958,36.7161119,3.1841712,20.98,0.65,-2.92,-0.31,90,283,3.008746862411499,2.9920079708099365
15,-0.39378365874290466,-2.131518602371216,-0.0996573269367218,36.7160938,3.1841111,21.96,-3.1,-4.55,-0.94,90,237,5.588537693023682,5.50770378112793
16,-0.512320876121521,-2.1614248752593994,0.018780460581183434,36.716038,3.1840132,23.83,-4.92,-7.0,-1.44,89,236,8.67837905883789,8.557252883911133
17,-0.4127821922302246,-2.1636788845062256,-0.005854107905179262,36.715953,3.1838611,26.63,-5.54,-8.02,-1.6,89,236,9.887603759765625,9.755780220031738
18,-0.48054802417755127,-2.164771556854248,-0.023450942710042,36.7158776,3.1837232,29.09,-5.54,-8.2,-1.58,88,235,10.02773666381836,9.901642799377441
19,-0.44447076320648193,-2.1636340618133545,0.03570256009697914,36.7157901,3.1835606,31.97,-5.53,-8.26,-1.59,88,236,10.07771110534668,9.950957298278809
20,-0.42619240283966064,-2.162099838256836,-0.017259443178772926,36.7157154,3.1834209,34.44,-5.51,-8.25,-1.6,88,236,10.056266784667969,9.927626609802246
21,-0.4690088927745819,-2.1624677181243896,-0.04035358130931854,36.7156406,3.1832814,36.92,-5.52,-8.22,-1.61,87,236,10.038725852966309,9.907465934753418
22,-0.442231684923172,-2.1657586097717285,0.03312059864401817,36.7155533,3.1831191,39.84,-5.5,-8.27,-1.63,87,235,10.06973648071289,9.936868667602539
23,-0.4329749047756195,-2.1638894081115723,-0.018191959708929062,36.7154787,3.1829793,42.34,-5.52,-8.32,-1.62,86,236,10.123379707336426,9.991995811462402
24,-0.48570606112480164,-2.1634154319763184,0.02400944195687771,36.7153916,3.1828158,45.25,-5.5,-8.27,-1.63,86,236,10.070361137390137,9.93690299987793
25,-0.4352721571922302,-2.164271116256714,0.03180084004998207,36.7153169,3.1826763,47.75,-5.53,-8.25,-1.64,85,236,10.078385353088379,9.943692207336426
26,-0.4373490810394287,-2.166189670562744,-0.019788451492786407,36.715242,3.1825368,50.26,-5.53,-8.3,-1.63,85,235,10.111653327941895,9.97819709777832
27,-0.4810217618942261,-2.1658105850219727,0.03273926302790642,36.7151546,3.1823733,53.18,-5.5,-8.3,-1.63,84,235,10.097533226013184,9.963545799255371
28,-0.42207372188568115,-2.1628949642181396,0.018015846610069275,36.7150801,3.1822333,55.69,-5.5,-8.27,-1.63,84,236,10.074511528015137,9.940361022949219
29,-0.248517706990242,-2.168997049331665,-0.0017196752596646547,36.714998,3.1820811,58.45,-4.62,-6.83,-1.36,83,235,8.369019508361816,8.256889343261719
30,-0.06219225004315376,-2.161083698272705,0.03770754113793373,36.7149471,3.181986,60.05,-2.97,-4.51,-0.68,83,236,5.44605827331543,5.402581214904785
31,-0.14642232656478882,-2.119088888168335,-0.011634805239737034,36.7149135,3.1819192,60.66,-2.2,-3.7,-0.17,83,238,4.3172831535339355,4.313742637634277
32,-0.13272425532341003,-2.1011548042297363,0.009828035719692707,36.7148804,3.1818477,60.72,-2.08,-3.68,0.0,82,239,4.232351779937744,4.232341289520264
33,-0.031170224770903587,-2.1030044555664062,-0.016414249315857887,36.7148535,3.1817889,60.71,-1.72,-3.07,0.04,82,239,3.523064136505127,3.522834062576294
34,0.03148035332560539,-2.3513846397399902,-0.06250766664743423,36.7148314,3.1817473,59.71,-1.2,-1.31,1.23,82,225,2.1661860942840576,1.7793800830841064
35,-0.05302286520600319,-2.476029634475708,0.01753421127796173,36.7148165,3.1817315,57.46,-1.03,-0.8,1.45,81,218,1.9572890996932983,1.311706781387329
36,-0.013939334079623222,-2.471890687942505,-0.004503030329942703,36.7148025,3.1817184,55.22,-1.04,-0.83,1.42,81,218,1.9565554857254028,1.3369576930999756
37,-0.028860151767730713,-2.470205068588257,0.029509007930755615,36.7147858,3.181702,52.61,-1.06,-0.87,1.44,81,218,1.9965760707855225,1.3742280006408691
38,-0.03414468094706535,-2.470134735107422,-0.022104037925601006,36.7147713,3.1816874,50.37,-1.07,-0.89,1.45,80,218,2.0131943225860596,1.3929299116134644
39,-0.011276235803961754,-2.469372510910034,0.010024217888712883,36.7147544,3.1816703,47.75,-1.07,-0.87,1.45,80,218,2.0112998485565186,1.3870669603347778
40,-0.05939343944191933,-2.469634771347046,-0.004392452072352171,36.7147397,3.1816557,45.51,-1.08,-0.88,1.46,79,218,2.0283048152923584,1.3990558385849
41,-0.012384342029690742,-2.46976637840271,0.015635985881090164,36.7147252,3.181641,43.26,-1.06,-0.87,1.46,79,218,2.0172088146209717,1.3814311027526855
42,-0.05132419615983963,-2.4705686569213867,0.02399253658950329,36.7147082,3.1816239,40.63,-1.06,-0.89,1.46,79,218,2.0243728160858154,1.3934303522109985
43,-0.009240614250302315,-2.4695847034454346,-0.005961107090115547,36.7146936,3.1816092,38.39,-1.07,-0.88,1.47,78,218,2.0278234481811523,1.3919178247451782
44,-0.02293846756219864,-2.4697821140289307,0.026721809059381485,36.7146766,3.181592,35.77,-1.05,-0.87,1.48,78,218,2.0220468044281006,1.3753551244735718
45,-0.037333227694034576,-2.469684600830078,-0.024603407829999924,36.714662,3.1815773,33.52,-1.07,-0.88,1.47,78,218,2.027137041091919,1.3894705772399902
46,-0.03649894893169403,-2.470158338546753,0.029303578659892082,36.7146474,3.1815626,31.27,-1.05,-0.87,1.47,77,218,2.015716314315796,1.3716953992843628
47,-0.06063677743077278,-2.469984531402588,-0.0006499502924270928,36.7146303,3.1815454,28.65,-1.05,-0.88,1.48,77,218,2.0289788246154785,1.3836551904678345
48,-0.008900284767150879,-2.469871997833252,0.00937390886247158,36.7146158,3.1815306,26.4,-1.06,-0.87,1.48,77,218,2.0247373580932617,1.3802381753921509
49,-0.058732736855745316,-2.4694833755493164,-0.01487546507269144,36.7146012,3.181516,24.14,-1.07,-0.88,1.47,76,218,2.0243873596191406,1.3864459991455078
50,-0.09876890480518341,-3.021216869354248,-0.12743325531482697,36.714581,3.1815016,21.6,-1.75,-0.28,1.2,76,186,2.1523854732513428,1.780352234840393
51,-0.2014547437429428,2.668201208114624,0.005068636033684015,36.714539,3.1815172,20.74,-3.5,1.73,-0.05,75,152,3.907092809677124,3.906759738922119
52,-0.17364375293254852,2.672269105911255,-0.02836417593061924,36.7144865,3.1815499,20.83,-4.01,2.05,0.01,75,153,4.5115156173706055,4.511502742767334
53,-0.023968424648046494,2.930558681488037,0.19853508472442627,36.7144337,3.1815781,20.78,-3.59,0.76,0.05,75,167,3.6763768196105957,3.6760194301605225
54,-0.4097706973552704,-2.205789089202881,0.10876541584730148,36.7143839,3.1815524,20.76,-2.98,-3.66,0.01,74,233,4.731940269470215,4.731912136077881
55,-0.4618176817893982,-2.143747568130493,0.03304106742143631,36.7143367,3.1814643,20.76,-4.14,-6.58,0.0,74,237,7.779123783111572,7.779120922088623
56,-0.48392316699028015,-2.149601936340332,-0.017186736688017845,36.7142636,3.1813203,20.77,-4.93,-7.73,0.0,73,236,9.172059059143066,9.172059059143066
57,-0.3343907296657562,-2.152416706085205,0.030513117089867592,36.7141973,3.1811917,20.79,-4.69,-7.23,0.0,73,236,8.622973442077637,8.622967720031738
58,-0.21534821391105652,-2.147061347961426,-0.006854409351944923,36.7141392,3.1810793,20.79,-3.88,-6.08,0.02,73,236,7.22152853012085,7.221468925476074
59,-0.26967737078666687,-2.1199028491973877,0.03940305486321449,36.7140828,3.1809652,20.76,-3.37,-5.67,0.01,72,238,6.603600978851318,6.603592872619629
60,-0.26473140716552734,-2.1079537868499756,-0.02345888502895832,36.7140379,3.18087,20.76,-3.28,-5.61,0.0,72,239,6.507983684539795,6.507978439331055
61,-0.15461952984333038,-2.1084091663360596,0.028601426631212234,36.7139866,3.1807606,20.76,-3.04,-5.22,0.0,71,239,6.04442024230957,6.044419288635254
62,0.13091394305229187,-2.108942985534668,-0.030139336362481117,36.7139528,3.1806884,20.74,-1.75,-3.0,0.03,71,239,3.4830100536346436,3.4828226566314697
63,0.11645074933767319,-2.109264612197876,0.027411099523305893,36.71394,3.180661,20.75,-0.26,-0.48,-0.02,71,239,0.5479909181594849,0.5475838780403137
64,-0.03084809146821499,-2.1105234622955322,0.04281727597117424,36.7139403,3.180661,20.73,0.19,0.08,0.03,70,239,0.21781764924526215,0.21416443586349487
