timestamp,pitch,yaw,roll,lat,lon,alt,velocity_x,velocity_y,velocity_z,battery,heading,airspeed,groundspeed
0,-0.024336453527212143,-0.0007595504284836352,0.005391334183514118,36.7156066,3.1846299,17.3,-0.02,0.03,-0.02,96,359,0.048660170286893845,0.040004096925258636
1,-0.030252661556005478,-0.0022426387295126915,0.08795038610696793,36.7156077,3.1846321,17.37,0.27,0.5,-0.01,95,359,0.5765402913093567,0.5763550400733948
2,-0.170946404337883,1.4862233400344849,-0.0900970846414566,36.7156221,3.1846603,17.32,1.64,2.57,-0.02,95,85,3.057677745819092,3.057610273361206
3,-0.19539719820022583,0.897335946559906,0.017805026844143867,36.7156494,3.1847132,17.35,2.23,3.5,-0.02,95,51,4.1541266441345215,4.1540350914001465
4,0.04478161782026291,0.9811205267906189,-0.03002673201262951,36.7156847,3.1847803,17.37,1.91,2.92,0.0,94,56,3.4943130016326904,3.494304895401001
5,0.370258629322052,1.1119427680969238,0.08683494478464127,36.7156972,3.1848033,17.35,-0.49,-0.7,0.01,94,63,0.8589636087417603,0.858859121799469
6,-0.06194950267672539,2.753277063369751,0.16934619843959808,36.7156771,3.1847669,17.38,-2.15,-3.07,-0.03,93,157,3.755648136138916,3.755512237548828
7,-0.0867132917046547,-1.922141671180725,-0.01014591846615076,36.7156419,3.1847025,17.38,-2.16,-3.25,0.0,93,249,3.914841890335083,3.914834976196289
8,-0.03554336354136467,-1.6683183908462524,0.24137425422668457,36.7156231,3.1846489,17.36,-0.18,-2.94,0.0,93,264,2.951991081237793,2.9519803524017334
9,-0.44124138355255127,-0.6548460721969604,0.07107914984226227,36.7156544,3.1845922,17.36,4.16,-3.17,0.0,92,322,5.234539985656738,5.23453950881958
10,-0.5226593017578125,-0.6167041659355164,0.03283716365695,36.7157149,3.184539,17.36,6.43,-4.45,0.0,92,324,7.828587055206299,7.828587532043457
11,-0.49134552478790283,-0.6172664761543274,-0.03239341452717781,36.7158299,3.1844399,17.38,7.85,-5.47,0.0,91,324,9.575909614562988,9.575908660888672
12,-0.387287974357605,-0.6199253797531128,0.0336664542555809,36.7159541,3.1843311,17.4,7.59,-5.37,-0.02,91,324,9.303109169006348,9.303079605102539
13,-0.07561130821704865,-0.6226492524147034,-0.030654987320303917,36.7160464,3.1842497,17.43,5.65,-4.02,0.03,91,324,6.94245719909668,6.94235372543335
14,0.044744107872247696,-1.1775754690170288,-0.2712477743625641,36.716104,3.1841856,17.54,1.18,-2.87,-0.25,90,303,3.4934957027435303,3.489359140396118
15,-0.413406640291214,-2.124796152114868,-0.09750998765230179,36.7160921,3.1841288,18.4,-2.73,-4.29,-0.86,90,238,5.168787002563477,5.095102310180664
16,-0.4606561064720154,-2.1632914543151855,0.03929032012820244,36.7160391,3.1840357,20.17,-4.73,-6.73,-1.41,89,236,8.357937812805176,8.236627578735352
17,-0.4741428792476654,-2.1628663539886475,-0.03508903831243515,36.7159558,3.1838864,22.96,-5.51,-8.03,-1.6,89,236,9.87784481048584,9.746777534484863
18,-0.47353214025497437,-2.1642746925354004,0.03607127070426941,36.7158806,3.1837486,25.42,-5.54,-8.22,-1.57,88,236,10.046010971069336,9.921561241149902
19,-0.4426667392253876,-2.1641955375671387,-0.028130216524004936,36.7157929,3.1835857,28.28,-5.53,-8.24,-1.59,88,236,10.051389694213867,9.924396514892578
20,-0.49002134799957275,-2.164501190185547,0.000493372033815831,36.715718,3.1834462,30.76,-5.52,-8.25,-1.6,88,235,10.056025505065918,9.927834510803223
21,-0.42203769087791443,-2.162449359893799,0.006366052199155092,36.715631,3.1832838,33.66,-5.51,-8.26,-1.61,87,236,10.064801216125488,9.933805465698242
22,-0.4699926972389221,-2.16320538520813,-0.031191952526569366,36.7155561,3.1831442,36.15,-5.52,-8.27,-1.62,87,236,10.083995819091797,9.952696800231934
23,-0.48589470982551575,-2.1643707752227783,0.028381675481796265,36.7154812,3.1830043,38.66,-5.51,-8.28,-1.62,86,236,10.0848970413208,9.95307445526123
24,-0.43020978569984436,-2.164511203765869,-0.017130047082901,36.7153943,3.1828417,41.57,-5.51,-8.29,-1.62,86,235,10.093846321105957,9.96197509765625
25,-0.4920567572116852,-2.1646909713745117,-0.015455548651516438,36.7153195,3.1827019,44.06,-5.54,-8.29,-1.63,85,235,10.110921859741211,9.978574752807617
26,-0.4286864399909973,-2.1635804176330566,0.023387689143419266,36.7152322,3.1825386,46.99,-5.49,-8.27,-1.64,85,236,10.06625747680664,9.931714057922363
27,-0.46639636158943176,-2.163891077041626,-0.029281845316290855,36.7151578,3.1823992,49.5,-5.51,-8.32,-1.62,84,236,10.119791030883789,9.98766803741455
28,-0.49444326758384705,-2.1645686626434326,0.007897480390965939,36.7150829,3.1822589,52.0,-5.53,-8.3,-1.63,84,235,10.112787246704102,9.980511665344238
29,-0.22954028844833374,-2.168703556060791,-0.012286810204386711,36.7149991,3.1821033,54.8,-4.77,-7.06,-1.43,83,235,8.645780563354492,8.526681900024414
30,-0.09798070788383484,-2.163522243499756,0.004063237924128771,36.7149456,3.1820037,56.53,-3.12,-4.72,-0.76,83,236,5.717979907989502,5.6659393310546875
31,-0.13595783710479736,-2.1176586151123047,-0.014459772035479546,36.714906,3.1819249,57.29,-2.2,-3.7,-0.15,83,238,4.315890312194824,4.313045024871826
32,-0.16291353106498718,-2.1022632122039795,0.03157941997051239,36.7148774,3.1818635,57.34,-2.07,-3.66,0.0,82,239,4.213549613952637,4.2135396003723145
33,-0.013310779817402363,-2.102963924407959,-0.022975660860538483,36.7148501,3.1818038,57.34,-1.82,-3.22,0.0,82,239,3.7102713584899902,3.7102713584899902
34,0.043398670852184296,-2.306633949279785,-0.02918212115764618,36.714827,3.1817586,56.55,-1.22,-1.44,1.09,82,227,2.18575119972229,1.8927901983261108
35,-0.057903505861759186,-2.4828968048095703,-0.01268577016890049,36.7148118,3.1817415,54.36,-1.03,-0.81,1.46,81,217,1.9708423614501953,1.3168963193893433
36,-0.027305616065859795,-2.4716508388519287,-0.023199714720249176,36.7147954,3.1817262,51.74,-1.04,-0.83,1.42,81,218,1.9532248973846436,1.3338991403579712
37,-0.0531693771481514,-2.4705605506896973,0.024024665355682373,36.7147812,3.1817121,49.49,-1.06,-0.87,1.43,81,218,1.989330768585205,1.3802891969680786
38,-0.012328709475696087,-2.46937894821167,-0.017522107809782028,36.7147667,3.1816976,47.26,-1.07,-0.88,1.44,80,218,2.004044771194458,1.3888778686523438
39,-0.019017474725842476,-2.4689724445343018,0.02202438749372959,36.7147497,3.1816805,44.64,-1.07,-0.88,1.45,80,218,2.0137245655059814,1.3913547992706299
40,-0.05814579874277115,-2.4695842266082764,-0.01259427610784769,36.7147351,3.1816659,42.39,-1.06,-0.89,1.45,79,218,2.0184288024902344,1.3962805271148682
41,-0.0144047811627388,-2.469662666320801,-0.014797546900808811,36.7147181,3.1816486,39.78,-1.07,-0.88,1.46,79,218,2.022035837173462,1.3925544023513794
42,-0.05531548336148262,-2.4701132774353027,0.023356646299362183,36.7147035,3.181634,37.54,-1.06,-0.87,1.47,79,218,2.0202858448028564,1.3798564672470093
43,-0.01749674789607525,-2.4693217277526855,-0.01362768653780222,36.714689,3.1816194,35.29,-1.06,-0.88,1.47,78,218,2.026059627532959,1.389440894126892
44,-0.014565428718924522,-2.4691710472106934,0.020578479394316673,36.7146719,3.1816022,32.66,-1.06,-0.89,1.47,78,218,2.029766082763672,1.3950814008712769
45,-0.047682084143161774,-2.4694442749023438,-0.01989958994090557,36.7146573,3.1815873,30.42,-1.06,-0.88,1.47,78,218,2.026466131210327,1.3844830989837646
46,-0.013228872790932655,-2.4699795246124268,-0.015118299052119255,36.7146403,3.1815702,27.79,-1.06,-0.88,1.47,77,218,2.0251271724700928,1.3847355842590332
47,-0.06060886010527611,-2.4693453311920166,0.012447766959667206,36.7146258,3.1815555,25.54,-1.06,-0.88,1.47,77,218,2.024742364883423,1.387994408607483
48,-0.012280960567295551,-2.4696929454803467,-0.01475887093693018,36.7146111,3.1815408,23.29,-1.06,-0.88,1.47,77,218,2.0280098915100098,1.3879704475402832
49,-0.01559294480830431,-2.469564199447632,0.02241119183599949,36.7145941,3.1815236,20.66,-1.05,-0.87,1.47,76,218,2.0141258239746094,1.3710205554962158
50,-0.11402115225791931,-2.885814905166626,-0.12148962169885635,36.7145775,3.1815106,18.45,-1.62,-0.46,1.3,76,194,2.1335153579711914,1.687633752822876
51,-0.20679950714111328,2.6736860275268555,-0.04433509707450867,36.7145384,3.1815215,17.35,-3.4,1.59,-0.01,75,153,3.7638936042785645,3.7638661861419678
52,-0.1963014453649521,2.6799168586730957,0.011132951825857162,36.7144861,3.1815533,17.45,-4.06,2.03,-0.01,75,153,4.544473648071289,4.544459819793701
53,-0.01886686496436596,2.844259023666382,0.1261107623577118,36.7144321,3.1815841,17.41,-3.76,1.14,0.06,75,162,3.9325926303863525,3.932097911834717
54,-0.3485433757305145,-2.255788564682007,0.17214055359363556,36.7143805,3.1815694,17.38,-2.94,-3.09,0.02,74,230,4.270130157470703,4.270063400268555
55,-0.4703962206840515,-2.139807939529419,-0.02982659637928009,36.7143353,3.1814884,17.38,-3.95,-6.27,0.01,74,237,7.420482158660889,7.4204630851745605
56,-0.4628739655017853,-2.146913528442383,0.02545633353292942,36.7142641,3.1813481,17.39,-4.88,-7.67,0.0,73,237,9.098402976989746,9.098402976989746
57,-0.34617504477500916,-2.1517813205718994,-0.026421628892421722,36.7141974,3.1812188,17.41,-4.81,-7.44,0.0,73,236,8.864291191101074,8.864287376403809
58,-0.26806098222732544,-2.148763656616211,0.017302028834819794,36.7141373,3.1811029,17.41,-3.98,-6.23,0.03,73,236,7.404056072235107,7.403989791870117
59,-0.26506307721138,-2.1178574562072754,-0.013551663607358932,36.7140805,3.180988,17.38,-3.36,-5.67,0.01,72,238,6.59535551071167,6.5953288078308105
60,-0.30127421021461487,-2.1008687019348145,0.025014160200953484,36.7140363,3.1808931,17.39,-3.22,-5.64,0.0,72,239,6.501589298248291,6.501582622528076
61,-0.2026488333940506,-2.0999114513397217,-0.022908924147486687,36.7139855,3.1807825,17.39,-3.08,-5.42,0.0,71,239,6.240411281585693,6.240411281585693
62,0.10315903276205063,-2.1005988121032715,0.029617050662636757,36.7139497,3.1807047,17.37,-1.97,-3.45,0.04,71,239,3.978372097015381,3.9781646728515625
63,0.08934736996889114,-2.1007351875305176,0.0052469633519649506,36.7139343,3.1806708,17.36,-0.4,-0.74,-0.02,71,239,0.8484212160110474,0.8481053113937378
64,0.030881058424711227,-2.0996532440185547,0.020995551720261574,36.7139337,3.1806693,17.36,0.12,0.14,0.03,70,239,0.19286571443080902,0.18919096887111664
