timestamp,pitch,yaw,roll,lat,lon,alt,velocity_x,velocity_y,velocity_z,battery,heading,airspeed,groundspeed
0,-0.02189282886683941,0.031238755211234093,-0.008711759001016617,36.7156066,3.1846301,21.31,-0.01,0.01,-0.02,96,1,0.037309903651475906,0.02639480121433735
1,-0.02862633764743805,0.028916360810399055,0.0950758308172226,36.7156078,3.1846322,21.26,0.29,0.5,-0.02,95,1,0.5821388363838196,0.5815553665161133
2,-0.18760909140110016,1.448151707649231,-0.07150111347436905,36.7156223,3.1846599,21.29,1.62,2.47,-0.03,95,82,2.966564893722534,2.9663164615631104
3,-0.1839606761932373,0.9271555542945862,-0.009981781244277954,36.7156491,3.1847106,21.3,2.21,3.34,-0.01,95,53,4.011600971221924,4.011553764343262
4,0.026389053091406822,0.9591284990310669,0.0209756251424551,36.7156792,3.184766,21.3,1.99,2.96,0.0,94,54,3.576596736907959,3.576582908630371
5,0.3347831666469574,1.0406829118728638,0.055009447038173676,36.7156933,3.1847909,21.33,-0.71,-1.04,-0.02,94,59,1.2685022354125977,1.2682737112045288
6,-0.03678895905613899,2.8105931282043457,0.1492411494255066,36.7156715,3.1847513,21.31,-2.18,-3.11,0.05,93,161,3.809263229370117,3.8089256286621094
7,-0.06865262240171432,-1.9044069051742554,0.029549824073910713,36.7156364,3.1846867,21.35,-2.12,-3.25,0.0,93,245,3.9538822174072266,3.9538047313690186
8,-0.07416128367185593,-1.57155179977417,0.24513357877731323,36.71562,3.1846335,21.3,0.08,-2.89,0.01,93,269,2.899930000305176,2.8998615741729736
9,-0.3639787435531616,-0.6603182554244995,0.07424230873584747,36.7156469,3.1845851,21.3,3.85,-3.1,0.0,92,322,4.955772876739502,4.9557695388793945
10,-0.5318747758865356,-0.6257769465446472,-0.004470096435397863,36.715719,3.1845206,21.3,6.6,-4.59,0.0,92,324,8.04577350616455,8.04577350616455
11,-0.45924368500709534,-0.6188938021659851,0.001540969591587782,36.7158358,3.1844193,21.32,7.88,-5.5,0.0,91,324,9.611454010009766,9.611451148986816
12,-0.39667776226997375,-0.6226610541343689,0.0022202348336577415,36.715959,3.1843107,21.34,7.45,-5.3,-0.02,91,324,9.148179054260254,9.148148536682129
13,-0.03367115184664726,-0.6276435852050781,-0.002446928061544895,36.7160479,3.1842316,21.36,5.34,-3.85,0.03,91,324,6.590756416320801,6.590635776519775
14,0.007756229490041733,-1.0966475009918213,-0.2782660126686096,36.7160964,3.184177,21.46,1.46,-2.89,-0.22,90,297,3.2479488849639893,3.239990472793579
15,-0.37329190969467163,-2.130796432495117,-0.09452987462282181,36.7160814,3.1841088,22.5,-3.07,-4.53,-0.94,90,237,5.563564777374268,5.482211589813232
16,-0.5138909220695496,-2.161930561065674,0.003893373068422079,36.7160254,3.1840112,24.36,-4.9,-6.97,-1.45,89,236,8.652030944824219,8.529386520385742
17,-0.42289844155311584,-2.16369366645813,0.013889598660171032,36.7159406,3.1838593,27.17,-5.53,-8.03,-1.61,89,236,9.889229774475098,9.756701469421387
18,-0.4668671488761902,-2.1644980907440186,-0.02399699203670025,36.7158653,3.1837213,29.63,-5.52,-8.23,-1.58,88,235,10.039470672607422,9.914268493652344
19,-0.48799508810043335,-2.162977695465088,0.010325190611183643,36.7157903,3.1835817,32.1,-5.53,-8.25,-1.58,88,236,10.06807804107666,9.942028999328613
20,-0.4261414110660553,-2.1658740043640137,-0.008945531211793423,36.7157029,3.183419,34.99,-5.54,-8.26,-1.6,88,235,10.0798921585083,9.951733589172363
21,-0.46502676606178284,-2.1628775596618652,-0.029273247346282005,36.7156281,3.1832793,37.48,-5.49,-8.26,-1.61,87,236,10.05575180053711,9.925921440124512
22,-0.4427732825279236,-2.1627533435821533,0.02770819514989853,36.7155412,3.1831169,40.38,-5.52,-8.28,-1.63,87,236,10.090367317199707,9.956953048706055
23,-0.4356917440891266,-2.1643407344818115,-0.016976261511445045,36.7154661,3.182977,42.88,-5.53,-8.3,-1.63,86,236,10.11439323425293,9.981257438659668
24,-0.4860556721687317,-2.1623756885528564,-0.01859506405889988,36.7153916,3.1828371,45.38,-5.5,-8.29,-1.63,86,236,10.082576751708984,9.949663162231445
25,-0.4305981695652008,-2.165693759918213,0.02849210985004902,36.7153043,3.182674,48.3,-5.55,-8.29,-1.64,85,235,10.114075660705566,9.980019569396973
26,-0.4436783492565155,-2.1655030250549316,-0.02135450206696987,36.7152294,3.1825341,50.81,-5.5,-8.28,-1.64,85,235,10.083436012268066,9.949003219604492
27,-0.4705384373664856,-2.163792371749878,0.030991695821285248,36.7151424,3.1823711,53.73,-5.5,-8.29,-1.63,84,236,10.085516929626465,9.9519681930542
28,-0.4171266257762909,-2.1643269062042236,0.007729112636297941,36.7150676,3.1822314,56.24,-5.52,-8.28,-1.63,84,236,10.097286224365234,9.964098930358887
29,-0.2776486277580261,-2.1677398681640625,-0.02433348447084427,36.7149962,3.1820986,58.64,-4.84,-7.18,-1.44,84,235,8.785651206970215,8.666769027709961
30,-0.04891159385442734,-2.159308910369873,0.03038722090423107,36.7149347,3.1819834,60.6,-2.96,-4.51,-0.69,83,236,5.445219039916992,5.400875091552734
31,-0.1591409146785736,-2.108834743499756,-0.0009759965469129384,36.7149015,3.1819168,61.21,-2.16,-3.7,-0.17,83,239,4.297710418701172,4.294068336486816
32,-0.1280527114868164,-2.086235761642456,-0.008670754730701447,36.7148692,3.181845,61.28,-1.99,-3.68,-0.01,82,240,4.192078590393066,4.192066192626953
33,-0.03532099351286888,-2.087911605834961,0.003015355207026005,36.7148433,3.1817862,61.27,-1.65,-3.06,0.04,82,240,3.4875569343566895,3.487248659133911
34,0.04404681548476219,-2.284377098083496,-0.04654030501842499,36.7148244,3.1817484,60.56,-1.21,-1.5,1.04,82,229,2.1998956203460693,1.9337456226348877
35,-0.030431652441620827,-2.475283622741699,0.026751654222607613,36.7148068,3.1817286,58.01,-1.03,-0.8,1.45,81,218,1.9589215517044067,1.3146816492080688
36,-0.03613146394491196,-2.471856117248535,-0.025634948164224625,36.7147928,3.1817155,55.77,-1.05,-0.83,1.43,81,218,1.9631942510604858,1.3450316190719604
37,-0.011215203441679478,-2.4698431491851807,0.0096615394577384,36.7147762,3.1816992,53.15,-1.06,-0.87,1.43,81,218,1.9929399490356445,1.3782702684402466
38,-0.0586649514734745,-2.469726324081421,-0.012655266560614109,36.7147617,3.1816845,50.91,-1.06,-0.89,1.44,80,218,2.0078814029693604,1.3908592462539673
39,-0.010870610363781452,-2.4693310260772705,0.011938695795834064,36.7147471,3.1816699,48.67,-1.07,-0.88,1.45,80,218,2.0174694061279297,1.3960868120193481
40,-0.06214355304837227,-2.469417095184326,-0.013494218699634075,36.7147325,3.1816552,46.43,-1.07,-0.89,1.46,79,218,2.0279650688171387,1.4013493061065674
41,-0.014588934369385242,-2.4698727130889893,-0.0181129090487957,36.7147155,3.1816381,43.82,-1.07,-0.88,1.47,79,218,2.032162666320801,1.3963572978973389
42,-0.017176831141114235,-2.4695684909820557,0.024472517892718315,36.7146985,3.1816209,41.19,-1.07,-0.88,1.47,79,218,2.0258543491363525,1.3872334957122803
43,-0.042048655450344086,-2.4691455364227295,-0.024475181475281715,36.7146839,3.1816062,38.94,-1.07,-0.89,1.47,78,218,2.0303971767425537,1.3940305709838867
44,-0.02393684722483158,-2.4696929454803467,0.023212091997265816,36.7146694,3.1815914,36.69,-1.06,-0.88,1.47,78,218,2.023409366607666,1.3829385042190552
45,-0.06313031911849976,-2.46956467628479,0.005112715531140566,36.7146523,3.1815743,34.07,-1.07,-0.88,1.47,78,218,2.0301475524902344,1.3924131393432617
46,-0.009844527579843998,-2.4700686931610107,-0.0036028039176017046,36.7146377,3.1815596,31.82,-1.07,-0.87,1.47,77,218,2.0237343311309814,1.3860352039337158
47,-0.03806404396891594,-2.469146966934204,0.029967382550239563,36.7146207,3.1815424,29.19,-1.05,-0.88,1.47,77,218,2.0207149982452393,1.380405306816101
48,-0.0352482907474041,-2.4695653915405273,-0.026596974581480026,36.7146062,3.1815277,26.95,-1.06,-0.88,1.48,77,218,2.031745195388794,1.389448642730713
49,-0.043830759823322296,-2.4696414470672607,0.027518901973962784,36.7145916,3.1815129,24.7,-1.06,-0.88,1.48,76,218,2.0308585166931152,1.3854154348373413
50,-0.14548061788082123,-3.0158119201660156,-0.11056097596883774,36.7145713,3.1814985,22.15,-1.77,-0.28,1.2,76,187,2.1664180755615234,1.8005468845367432
51,-0.204030841588974,2.6743342876434326,-0.020999355241656303,36.7145369,3.1815094,21.29,-3.33,1.56,0.0,75,153,3.6828718185424805,3.6828653812408447
52,-0.19225594401359558,2.679435968399048,0.01523427665233612,36.7144758,3.1815467,21.39,-4.07,2.02,0.01,75,153,4.5518646240234375,4.551840782165527
53,-0.018443552777171135,2.921942949295044,0.14101877808570862,36.7144224,3.1815748,21.34,-3.66,0.81,0.05,75,167,3.7533531188964844,3.752990961074829
54,-0.37330570816993713,-2.2838714122772217,0.17497937381267548,36.7143788,3.1815597,21.32,-2.94,-2.92,0.02,74,229,4.149478435516357,4.149412155151367
55,-0.4849760830402374,-2.143139362335205,-0.02393149957060814,36.7143249,3.1814633,21.32,-4.12,-6.54,0.01,74,237,7.736603260040283,7.7365922927856445
56,-0.5009672045707703,-2.1470608711242676,0.007424518465995789,36.7142631,3.1813413,21.33,-4.86,-7.67,0.0,73,236,9.089164733886719,9.089164733886719
57,-0.3274171054363251,-2.152432441711426,-0.02580082416534424,36.714186,3.1811915,21.35,-4.72,-7.28,0.0,73,236,8.683786392211914,8.683782577514648
58,-0.2648848593235016,-2.146635055541992,0.014492396265268326,36.7141272,3.1810782,21.34,-3.88,-6.1,0.02,73,237,7.236790657043457,7.236748695373535
59,-0.24516882002353668,-2.118441104888916,0.02351134642958641,36.7140788,3.1809803,21.32,-3.37,-5.66,0.01,72,238,6.595442771911621,6.595422744750977
60,-0.3020051121711731,-2.100280284881592,0.021700453013181686,36.7140272,3.1808693,21.32,-3.2,-5.64,0.0,72,239,6.493899345397949,6.493896484375
61,-0.17085407674312592,-2.1000208854675293,-0.004512361716479063,36.7139839,3.1807744,21.32,-3.11,-5.44,0.0,71,239,6.271438121795654,6.271437168121338
62,0.12620270252227783,-2.1009883880615234,0.029933657497167587,36.7139432,3.1806863,21.3,-1.76,-3.05,0.03,71,239,3.5283188819885254,3.528136968612671
63,0.12418284267187119,-2.100820541381836,-0.02718554064631462,36.7139305,3.1806584,21.31,-0.28,-0.5,-0.02,71,239,0.5776602625846863,0.5772110819816589
64,0.022408055141568184,-2.0997531414031982,0.057931505143642426,36.7139308,3.1806582,21.29,0.17,0.11,0.04,70,239,0.21236592531204224,0.20830880105495453
