timestamp,pitch,yaw,roll,lat,lon,alt,velocity_x,velocity_y,velocity_z,battery,heading,airspeed,groundspeed
0,0.008294780738651752,0.026712017133831978,0.027166325598955154,36.7156067,3.18463,21.43,-0.03,0.02,-0.03,96,1,0.0551595538854599,0.042444441467523575
1,-0.07867865264415741,0.026363493874669075,0.07133939117193222,36.7156078,3.1846326,21.39,0.33,0.57,-0.03,95,1,0.6624520421028137,0.6616169214248657
2,-0.18390974402427673,1.450649619102478,-0.08878698945045471,36.7156197,3.1846557,21.42,1.47,2.41,-0.04,95,83,2.825113534927368,2.824711322784424
3,-0.13891224563121796,0.9637364745140076,0.01926630362868309,36.7156503,3.1847172,21.43,2.17,3.54,-0.02,95,55,4.158179759979248,4.158127784729004
4,-0.0009491107775829732,0.985842227935791,-0.02484297752380371,36.71568,3.1847754,21.43,1.97,3.05,0.0,94,56,3.6391987800598145,3.6391894817352295
5,0.351461797952652,1.292061448097229,0.0865597054362297,36.7156935,3.1848013,21.46,-0.76,-1.08,-0.01,94,74,1.3283300399780273,1.3281797170639038
6,-0.08297669887542725,2.935802459716797,0.19188328087329865,36.7156713,3.1847612,21.44,-2.2,-3.14,0.05,93,168,3.83955979347229,3.8391027450561523
7,-0.10444638878107071,-1.933320164680481,-0.0311544481664896,36.7156409,3.1847053,21.47,-2.2,-3.24,-0.03,93,249,3.9229929447174072,3.922842502593994
8,-0.022412389516830444,-1.5220547914505005,0.23772168159484863,36.7156198,3.1846433,21.44,0.09,-2.89,0.02,93,272,2.891988754272461,2.8919107913970947
9,-0.4269912838935852,-0.6587639451026917,0.09703171998262405,36.7156469,3.1845951,21.43,3.88,-3.11,0.0,92,322,4.980436325073242,4.980434417724609
10,-0.4990366995334625,-0.6273220777511597,-0.017346400767564774,36.7157346,3.1845175,21.43,6.9,-4.8,-0.01,92,324,8.411033630371094,8.411026954650879
11,-0.5218175649642944,-0.6200888752937317,-0.0016313530504703522,36.7158359,3.1844294,21.45,7.86,-5.51,0.0,91,324,9.606404304504395,9.606405258178711
12,-0.383543998003006,-0.6217347979545593,0.025045566260814667,36.7159422,3.1843358,21.47,7.6,-5.43,-0.02,91,324,9.343497276306152,9.343474388122559
13,-0.076216921210289,-0.6267750263214111,-0.019532667472958565,36.7160484,3.1842415,21.5,5.3,-3.84,0.05,91,324,6.555624485015869,6.555428504943848
14,0.06898917257785797,-1.111360788345337,-0.2811490595340729,36.7160967,3.1841873,21.6,1.41,-2.89,-0.21,90,296,3.2294559478759766,3.2222132682800293
15,-0.3939155638217926,-2.131913900375366,-0.03281143680214882,36.7160812,3.1841197,22.63,-3.06,-4.55,-0.94,90,237,5.57086706161499,5.490421772003174
16,-0.4610581398010254,-2.161705493927002,-0.020912302657961845,36.7160252,3.1840218,24.48,-4.85,-6.98,-1.45,89,236,8.633986473083496,8.509967803955078
17,-0.4911171793937683,-2.163475513458252,-0.014351609162986279,36.7159533,3.1838924,26.89,-5.49,-8.02,-1.6,89,236,9.851778030395508,9.719841957092285
18,-0.42478299140930176,-2.1633517742156982,-0.002295340411365032,36.7158657,3.1837315,29.76,-5.53,-8.21,-1.57,88,236,10.030708312988281,9.90648078918457
19,-0.46237850189208984,-2.1643717288970947,-0.0323784276843071,36.7157905,3.1835919,32.22,-5.54,-8.24,-1.58,88,236,10.058220863342285,9.932194709777832
20,-0.4435926079750061,-2.165781021118164,0.03523354232311249,36.7157032,3.1834295,35.12,-5.52,-8.24,-1.6,87,235,10.05628776550293,9.927767753601074
21,-0.4228381812572479,-2.1632096767425537,-0.02140921913087368,36.7156287,3.1832903,37.6,-5.52,-8.28,-1.6,87,236,10.086274147033691,9.957338333129883
22,-0.4887101650238037,-2.1635043621063232,-0.007139991968870163,36.7155537,3.1831504,40.1,-5.53,-8.3,-1.61,87,236,10.104363441467285,9.974398612976074
23,-0.46439507603645325,-2.1636736392974854,0.03908485174179077,36.7154789,3.1830105,42.6,-5.51,-8.27,-1.62,86,236,10.074275016784668,9.942493438720703
24,-0.4556076228618622,-2.163907051086426,-0.028375498950481415,36.7153918,3.1828478,45.52,-5.52,-8.3,-1.61,86,236,10.103671073913574,9.973026275634766
25,-0.4563142657279968,-2.1664819717407227,0.04290814697742462,36.7153045,3.1826847,48.42,-5.53,-8.3,-1.63,85,235,10.109696388244629,9.976511001586914
26,-0.42470282316207886,-2.1642673015594482,-0.00982307456433773,36.7152297,3.1825446,50.93,-5.49,-8.27,-1.63,85,236,10.069435119628906,9.935338973999023
27,-0.486024409532547,-2.1647543907165527,0.02684825472533703,36.7151427,3.1823819,53.86,-5.51,-8.31,-1.63,84,235,10.107452392578125,9.974947929382324
28,-0.42639973759651184,-2.1649980545043945,0.0344066321849823,36.7150679,3.1822419,56.36,-5.51,-8.3,-1.63,84,235,10.101762771606445,9.968306541442871
29,-0.25779569149017334,-2.1687493324279785,-0.025039002299308777,36.7149962,3.1821086,58.76,-4.85,-7.18,-1.44,83,235,8.789810180664062,8.669733047485352
30,-0.04553825035691261,-2.1594300270080566,0.036973338574171066,36.7149345,3.1819936,60.74,-2.93,-4.5,-0.68,83,236,5.420906066894531,5.376980304718018
31,-0.15988440811634064,-2.10899019241333,-0.0021431862842291594,36.7149017,3.1819274,61.35,-2.15,-3.71,-0.17,83,239,4.299943447113037,4.296530246734619
32,-0.14116425812244415,-2.086204767227173,0.03333365172147751,36.7148741,3.1818659,61.41,-2.0,-3.69,-0.01,82,240,4.201862335205078,4.201846599578857
33,-0.034298136830329895,-2.087932586669922,0.005233431234955788,36.7148436,3.1817965,61.4,-1.69,-3.08,0.03,82,240,3.5198440551757812,3.519653797149658
34,0.0455675944685936,-2.282736301422119,-0.05467904359102249,36.7148245,3.1817583,60.69,-1.21,-1.49,1.03,82,229,2.191680908203125,1.9296324253082275
35,-0.019648196175694466,-2.475679636001587,0.025204241275787354,36.7148069,3.1817386,58.14,-1.03,-0.78,1.44,81,218,1.948621153831482,1.3043020963668823
36,-0.050412774085998535,-2.4719319343566895,-0.02017255499958992,36.7147929,3.1817256,55.9,-1.03,-0.83,1.41,81,218,1.945604920387268,1.3306849002838135
37,-0.009729539975523949,-2.4700770378112793,-0.006256516091525555,36.7147763,3.1817092,53.28,-1.07,-0.87,1.42,80,218,1.9861433506011963,1.3827121257781982
38,-0.05851124972105026,-2.469599723815918,0.012053261511027813,36.7147617,3.1816945,51.05,-1.06,-0.88,1.44,80,218,1.998379111289978,1.3833922147750854
39,-0.009915972128510475,-2.4695489406585693,-0.011886726133525372,36.7147471,3.1816798,48.8,-1.07,-0.87,1.45,80,218,2.007624626159668,1.3875222206115723
40,-0.021133359521627426,-2.4693233966827393,0.02491368167102337,36.7147302,3.1816628,46.18,-1.07,-0.87,1.45,79,218,2.00594425201416,1.3834288120269775
41,-0.04213247448205948,-2.4695539474487305,-0.02491207793354988,36.7147155,3.1816481,43.94,-1.07,-0.89,1.46,79,218,2.018935441970825,1.3939709663391113
42,-0.012071927078068256,-2.4701225757598877,-0.008086957968771458,36.7146985,3.181631,41.33,-1.06,-0.87,1.47,79,218,2.0197248458862305,1.3823511600494385
43,-0.061020318418741226,-2.469191551208496,0.005904004443436861,36.714684,3.1816163,39.08,-1.06,-0.89,1.47,78,218,2.023026466369629,1.3889514207839966
44,-0.010743226855993271,-2.469648838043213,-0.011690772138535976,36.7146694,3.1816016,36.83,-1.08,-0.88,1.46,78,218,2.0287647247314453,1.3995437622070312
45,-0.025597311556339264,-2.4693844318389893,0.02707570418715477,36.7146523,3.1815843,34.21,-1.06,-0.87,1.47,78,218,2.020981788635254,1.379055142402649
46,-0.04324866086244583,-2.469660758972168,-0.020776864141225815,36.7146377,3.1815696,31.96,-1.06,-0.88,1.47,77,218,2.02563738822937,1.3874660730361938
47,-0.013435857370495796,-2.4693822860717773,-0.0035389363765716553,36.7146208,3.1815526,29.33,-1.07,-0.88,1.47,77,218,2.0253336429595947,1.3909249305725098
48,-0.05871773883700371,-2.469667434692383,0.014393086545169353,36.7146062,3.1815377,27.08,-1.06,-0.88,1.47,76,218,2.0245420932769775,1.385617733001709
49,-0.011006307788193226,-2.4694995880126953,-0.006586508825421333,36.7145916,3.181523,24.83,-1.06,-0.88,1.47,76,218,2.0235161781311035,1.3846672773361206
50,-0.10555611550807953,-3.015047550201416,-0.07963067293167114,36.7145715,3.1815085,22.28,-1.75,-0.29,1.19,76,187,2.1453163623809814,1.7800418138504028
51,-0.24534419178962708,2.676320791244507,-0.05792141705751419,36.7145373,3.181519,21.42,-3.35,1.56,0.0,75,153,3.6986968517303467,3.6986961364746094
52,-0.1440628468990326,2.679408073425293,-0.006885531824082136,36.714476,3.1815565,21.53,-4.06,2.04,0.01,75,153,4.552672386169434,4.552642345428467
53,-0.055756617337465286,2.9114203453063965,0.1788509488105774,36.7144225,3.1815851,21.48,-3.66,0.81,0.05,75,166,3.7505548000335693,3.750092029571533
54,-0.3183686137199402,-2.2781214714050293,0.1474408209323883,36.7143789,3.1815706,21.45,-2.92,-2.93,0.02,74,229,4.148174285888672,4.14809513092041
55,-0.488533616065979,-2.141923666000366,0.032696548849344254,36.7143255,3.181474,21.45,-4.1,-6.53,0.01,74,237,7.7184553146362305,7.718445777893066
56,-0.4380757808685303,-2.146801471710205,-0.00927058793604374,36.7142637,3.1813521,21.46,-4.88,-7.65,0.0,73,237,9.085490226745605,9.085490226745605
57,-0.34767696261405945,-2.152129888534546,0.02865665964782238,36.7141861,3.181202,21.48,-4.71,-7.28,-0.01,73,236,8.681626319885254,8.681620597839355
58,-0.20384956896305084,-2.1466550827026367,0.005509383976459503,36.7141274,3.1810886,21.49,-3.86,-6.08,0.03,73,237,7.205623149871826,7.205526351928711
59,-0.299595445394516,-2.120112895965576,0.020631924271583557,36.7140792,3.1809911,21.46,-3.37,-5.67,0.02,72,238,6.604031085968018,6.603980541229248
60,-0.27039581537246704,-2.1002860069274902,-0.018470363691449165,36.7140278,3.1808805,21.46,-3.23,-5.67,0.01,72,239,6.533059120178223,6.533047199249268
61,-0.21749049425125122,-2.1002721786499023,0.022094054147601128,36.7139841,3.1807852,21.46,-3.11,-5.47,0.0,71,239,6.295718193054199,6.295716762542725
62,0.11368240416049957,-2.101074695587158,-0.022003421559929848,36.7139434,3.1806965,21.44,-1.76,-3.07,0.04,71,239,3.5466365814208984,3.546370029449463
63,0.13729050755500793,-2.1007771492004395,0.025465011596679688,36.7139304,3.1806681,21.44,-0.27,-0.49,-0.01,71,239,0.5637267827987671,0.5633955597877502
64,-0.017963895574212074,-2.1002681255340576,-0.004937521647661924,36.7139306,3.1806681,21.43,0.11,0.14,0.03,70,239,0.18756957352161407,0.18449406325817108
