timestamp,pitch,yaw,roll,lat,lon,alt,velocity_x,velocity_y,velocity_z,battery,heading,airspeed,groundspeed
0,-0.014592569321393967,0.041513923555612564,-0.015880072489380836,36.7156067,3.18463,17.38,-0.02,0.03,-0.03,96,2,0.05369586870074272,0.041793908923864365
1,-0.04009237512946129,0.03888927027583122,0.11223085969686508,36.7156078,3.1846322,17.44,0.29,0.51,-0.01,95,2,0.5969435572624207,0.5968279242515564
2,-0.1922675222158432,1.4349039793014526,-0.0665416345000267,36.7156227,3.1846605,17.4,1.67,2.56,-0.02,95,82,3.0604588985443115,3.060382127761841
3,-0.18487538397312164,0.9457067847251892,-0.01972518302500248,36.7156502,3.1847128,17.43,2.26,3.45,-0.02,95,54,4.132812023162842,4.132730484008789
4,0.013520059175789356,0.9636837840080261,0.02152762934565544,36.715681,3.1847702,17.44,2.07,3.08,-0.01,94,55,3.717869997024536,3.7178525924682617
5,0.34024837613105774,1.0368484258651733,0.050219349563121796,36.7156968,3.1847985,17.43,-0.61,-0.9,0.0,94,59,1.0917848348617554,1.0917482376098633
6,-0.03194626793265343,2.762906074523926,0.1593835949897766,36.7156758,3.1847602,17.46,-2.18,-3.11,-0.03,93,158,3.804814338684082,3.8046762943267822
7,-0.07529354095458984,-1.9178857803344727,0.020194901153445244,36.7156405,3.1846951,17.45,-2.13,-3.24,0.0,93,250,3.885111093521118,3.8851091861724854
8,-0.062476981431245804,-1.6195335388183594,0.2397388368844986,36.7156231,3.1846419,17.44,-0.02,-2.89,0.0,93,267,2.890965700149536,2.890963077545166
9,-0.3635861277580261,-0.6573094725608826,0.06918884813785553,36.7156483,3.1845942,17.44,3.75,-3.04,0.0,92,322,4.836702823638916,4.836700916290283
10,-0.5363463163375854,-0.6209983229637146,0.005482897162437439,36.7157191,3.1845311,17.44,6.56,-4.54,0.0,92,324,7.9835710525512695,7.983569622039795
11,-0.463321715593338,-0.616554856300354,-0.001448251772671938,36.7158358,3.1844305,17.46,7.84,-5.48,0.0,91,324,9.573223114013672,9.573219299316406
12,-0.40633490681648254,-0.6208891272544861,0.015220776200294495,36.7159594,3.1843218,17.49,7.51,-5.33,-0.01,91,324,9.218653678894043,9.218632698059082
13,-0.046543188393116,-0.6229308843612671,-0.007062792312353849,36.7160502,3.184242,17.51,5.52,-3.94,0.04,91,324,6.79318904876709,6.79306173324585
14,0.030666742473840714,-1.0278676748275757,-0.24842073023319244,36.7161019,3.1841867,17.58,1.71,-2.9,-0.19,90,301,3.3830678462982178,3.3776328563690186
15,-0.3789263069629669,-2.1309893131256104,-0.10791285336017609,36.71609,3.1841205,18.56,-2.92,-4.4,-0.9,90,237,5.365952491760254,5.288390636444092
16,-0.5098413228988647,-2.163886070251465,0.02491557039320469,36.7160357,3.1840255,20.38,-4.8,-6.9,-1.42,89,236,8.534271240234375,8.413961410522461
17,-0.4187782108783722,-2.1636462211608887,-0.005776328034698963,36.7159516,3.1838742,23.16,-5.53,-8.05,-1.61,89,236,9.9082612991333,9.776081085205078
18,-0.4870278835296631,-2.1645901203155518,-0.017559701576828957,36.7158763,3.1837361,25.63,-5.53,-8.17,-1.58,88,235,9.996927261352539,9.870932579040527
19,-0.47841018438339233,-2.1651341915130615,0.03608276695013046,36.7158012,3.1835972,28.1,-5.53,-8.26,-1.58,88,235,10.073647499084473,9.948332786560059
20,-0.44245445728302,-2.1635923385620117,-0.03204330801963806,36.7157139,3.1834341,30.99,-5.52,-8.27,-1.59,88,236,10.074902534484863,9.947686195373535
21,-0.4918629825115204,-2.1644914150238037,-0.0028643840923905373,36.7156389,3.1832944,33.47,-5.52,-8.26,-1.6,87,235,10.072776794433594,9.943275451660156
22,-0.4267166554927826,-2.1628880500793457,0.0005046720034442842,36.7155519,3.1831319,36.38,-5.5,-8.25,-1.62,87,236,10.056903839111328,9.92531681060791
23,-0.4687190055847168,-2.1637191772460938,-0.028455263003706932,36.7154771,3.1829923,38.88,-5.54,-8.31,-1.61,86,236,10.118426322937012,9.987924575805664
24,-0.4483413100242615,-2.165795087814331,0.04136302322149277,36.7153898,3.1828291,41.79,-5.5,-8.28,-1.63,86,235,10.082050323486328,9.948718070983887
25,-0.42746415734291077,-2.163588285446167,-0.01610528863966465,36.7153152,3.182689,44.3,-5.49,-8.3,-1.63,85,236,10.092300415039062,9.958992958068848
26,-0.4828258752822876,-2.163907289505005,-0.023448944091796875,36.7152405,3.1825494,46.8,-5.53,-8.29,-1.62,85,236,10.101813316345215,9.969762802124023
27,-0.42585495114326477,-2.1642119884490967,0.027179155498743057,36.715153,3.1823862,49.72,-5.5,-8.28,-1.64,84,236,10.08573055267334,9.95096206665039
28,-0.43965959548950195,-2.1655685901641846,-0.023544464260339737,36.7150784,3.1822464,52.23,-5.51,-8.29,-1.63,84,235,10.092035293579102,9.958732604980469
29,-0.3135412335395813,-2.1679470539093018,0.004688853397965431,36.7150066,3.1821127,54.65,-4.92,-7.29,-1.45,84,235,8.924165725708008,8.80440902709961
30,-0.044031813740730286,-2.1622674465179443,-0.007535110227763653,36.7149432,3.1819945,56.68,-3.05,-4.62,-0.72,83,236,5.591856956481934,5.544487953186035
31,-0.16030742228031158,-2.1224989891052246,0.032572608441114426,36.7149091,3.1819271,57.34,-2.21,-3.7,-0.19,83,238,4.320650577545166,4.316164016723633
32,-0.16871260106563568,-2.1014463901519775,-0.021293969824910164,36.7148759,3.1818556,57.42,-2.07,-3.69,-0.01,82,239,4.238182544708252,4.238170146942139
33,-0.008959019556641579,-2.102769136428833,0.02416757121682167,36.7148487,3.1817962,57.41,-1.79,-3.15,0.01,82,239,3.6276307106018066,3.62760066986084
34,-0.00826757587492466,-2.3262290954589844,-0.04333505779504776,36.714826,3.1817524,56.53,-1.2,-1.37,1.16,82,226,2.1676111221313477,1.8285268545150757
35,-0.007781416177749634,-2.4800829887390137,-0.006297993008047342,36.714811,3.1817361,54.3,-1.03,-0.79,1.45,81,217,1.9543577432632446,1.3034381866455078
36,-0.06691385805606842,-2.472900152206421,0.0032890758011490107,36.714797,3.1817231,52.06,-1.05,-0.82,1.41,81,218,1.9492264986038208,1.3365570306777954
37,-0.03472613915801048,-2.4705917835235596,-0.024600179865956306,36.7147803,3.1817067,49.45,-1.06,-0.88,1.44,81,218,1.9967020750045776,1.382975459098816
38,-0.03613360598683357,-2.4701950550079346,0.026885610073804855,36.7147658,3.1816922,47.21,-1.06,-0.87,1.44,80,218,1.9966219663619995,1.3777384757995605
39,-0.060464516282081604,-2.4693565368652344,-0.007254576310515404,36.7147489,3.1816751,44.59,-1.07,-0.89,1.44,80,218,2.0130374431610107,1.3977612257003784
40,-0.007765406742691994,-2.4696900844573975,0.0045515792444348335,36.7147343,3.1816604,42.35,-1.07,-0.88,1.46,79,218,2.01878023147583,1.3926092386245728
41,-0.060879774391651154,-2.4697954654693604,-0.009340647608041763,36.7147197,3.1816457,40.1,-1.06,-0.88,1.46,79,218,2.0167157649993896,1.3864449262619019
42,-0.023165464401245117,-2.4704291820526123,-0.023153312504291534,36.7147027,3.1816287,37.47,-1.07,-0.89,1.46,79,218,2.0231478214263916,1.3973736763000488
43,-0.05493408441543579,-2.469627857208252,0.021571381017565727,36.7146881,3.181614,35.23,-1.06,-0.88,1.46,78,218,2.0193893909454346,1.3853511810302734
44,-0.059809599071741104,-2.469788074493408,-0.010733969509601593,36.7146711,3.1815967,32.61,-1.06,-0.89,1.47,78,218,2.0300004482269287,1.3926653861999512
45,-0.017659876495599747,-2.4697816371917725,0.01884184405207634,36.7146565,3.1815821,30.36,-1.06,-0.88,1.47,78,218,2.0229063034057617,1.3886044025421143
46,-0.05574062466621399,-2.4699981212615967,-0.013573197647929192,36.7146419,3.1815674,28.11,-1.06,-0.88,1.47,77,218,2.022947072982788,1.3862731456756592
47,-0.017548244446516037,-2.469892740249634,-0.014778587967157364,36.7146249,3.1815502,25.5,-1.06,-0.88,1.48,77,218,2.026010036468506,1.3830701112747192
48,-0.056058771908283234,-2.4699273109436035,0.020554497838020325,36.7146104,3.1815355,23.24,-1.05,-0.87,1.47,77,218,2.016677141189575,1.3724418878555298
49,-0.011561514809727669,-2.4700686931610107,-0.011873897165060043,36.7145958,3.1815209,20.98,-1.07,-0.88,1.47,76,218,2.023984670639038,1.3910623788833618
50,-0.08888901770114899,-2.9489388465881348,-0.07828587293624878,36.7145762,3.1815057,18.42,-1.68,-0.38,1.26,76,191,2.1415796279907227,1.7263290882110596
51,-0.25155723094940186,2.6789562702178955,-0.05604690685868263,36.7145432,3.1815144,17.43,-3.25,1.47,0.04,75,153,3.5749125480651855,3.5746214389801025
52,-0.1462310254573822,2.6797146797180176,-0.0065005188807845116,36.714483,3.181551,17.53,-4.07,2.04,0.0,75,153,4.5624237060546875,4.562423229217529
53,-0.058768484741449356,2.871788740158081,0.1599644422531128,36.714429,3.1815808,17.49,-3.7,0.98,0.05,75,164,3.8398780822753906,3.8394455909729004
54,-0.3689101040363312,-2.2297651767730713,0.10581425577402115,36.714378,3.1815618,17.46,-2.96,-3.33,0.02,74,232,4.461233139038086,4.461179733276367
55,-0.49581095576286316,-2.140305757522583,0.030429260805249214,36.7143323,3.181478,17.46,-4.01,-6.42,0.01,74,237,7.578335285186768,7.578321933746338
56,-0.4405268430709839,-2.1474342346191406,-0.006474882364273071,36.7142711,3.1813572,17.47,-4.86,-7.63,0.0,73,236,9.058265686035156,9.058265686035156
57,-0.3680041432380676,-2.1514296531677246,0.017832117155194283,36.7141933,3.1812065,17.49,-4.74,-7.34,0.0,73,236,8.738603591918945,8.738600730895996
58,-0.20821498334407806,-2.1470112800598145,0.016251811757683754,36.7141343,3.1810923,17.49,-3.93,-6.17,0.03,73,236,7.320796489715576,7.3207316398620605
59,-0.2889057695865631,-2.117020606994629,0.0388440303504467,36.7140778,3.1809779,17.46,-3.35,-5.68,0.01,72,238,6.600579261779785,6.600555419921875
60,-0.24709053337574005,-2.1006627082824707,-0.0051286970265209675,36.7140335,3.1808827,17.47,-3.22,-5.64,0.01,72,239,6.496983051300049,6.496974468231201
61,-0.24175012111663818,-2.0999555587768555,0.003341829404234886,36.71399,3.1807877,17.47,-3.13,-5.5,0.0,72,239,6.337371349334717,6.3373703956604
62,0.12103685736656189,-2.1012778282165527,-0.030730359256267548,36.7139482,3.1806969,17.45,-1.89,-3.29,0.04,71,239,3.8037099838256836,3.803485631942749
63,0.11818690598011017,-2.10105299949646,0.027648041024804115,36.7139339,3.1806656,17.44,-0.34,-0.6,-0.02,71,239,0.6972569227218628,0.6968956589698792
64,-0.027209116145968437,-2.1015734672546387,0.02347663789987564,36.7139339,3.1806651,17.43,0.15,0.11,0.03,70,239,0.1927170306444168,0.18885909020900726
