timestamp,pitch,yaw,roll,lat,lon,alt,velocity_x,velocity_y,velocity_z,battery,heading,airspeed,groundspeed
0,-0.01596863940358162,0.03550107404589653,-0.016754165291786194,36.7156066,3.18463,19.44,-0.02,0.02,0.05,96,2,0.06632932275533676,0.03962481766939163
1,-0.054348234087228775,0.04922749102115631,0.12268201261758804,36.7156081,3.1846326,19.41,0.37,0.6,0.0,95,2,0.7127164602279663,0.7127138376235962
2,-0.18161053955554962,1.359270691871643,-0.05143338814377785,36.7156261,3.1846648,19.38,1.92,2.73,-0.04,95,79,3.048114776611328,3.0479795932769775
3,-0.16986103355884552,0.9653372168540955,-0.023393681272864342,36.7156561,3.1847182,19.43,2.36,3.35,-0.04,95,55,4.108002662658691,4.107790946960449
4,0.11398763954639435,0.9418864250183105,0.02028350718319416,36.7156869,3.1847714,19.46,1.81,2.51,-0.01,94,53,3.105353593826294,3.1052916049957275
5,0.26247191429138184,0.39348697662353516,-0.1402398645877838,36.7156939,3.184781,19.46,-1.24,-1.87,-0.01,94,22,2.2484290599823,2.248373031616211
6,-0.07350993901491165,-1.2771644592285156,-0.14539332687854767,36.715668,3.184734,19.5,-2.26,-3.28,-0.01,93,286,3.995363235473633,3.9953501224517822
7,-0.018560299649834633,-2.2547199726104736,0.0752912238240242,36.7156335,3.1846689,19.49,-1.82,-3.22,0.01,93,230,3.7118654251098633,3.7118301391601562
8,-0.1780996322631836,-1.2713700532913208,0.266262412071228,36.7156249,3.1846173,19.47,0.96,-2.75,0.01,93,287,2.921194314956665,2.921168804168701
9,-0.40560781955718994,-0.6527490019798279,0.04924265295267105,36.715664,3.1845677,19.47,4.66,-3.37,0.0,92,322,5.75738000869751,5.757379531860352
10,-0.537659764289856,-0.6225383877754211,0.034283917397260666,36.7157608,3.1844838,19.48,7.27,-5.03,-0.01,92,324,8.847911834716797,8.847906112670898
11,-0.45747870206832886,-0.6184190511703491,0.015238398686051369,36.7158649,3.1843935,19.5,7.9,-5.55,0.0,91,324,9.662707328796387,9.662707328796387
12,-0.33588242530822754,-0.6214784979820251,0.006780564785003662,36.715987,3.1842859,19.54,7.15,-5.06,-0.01,91,324,8.762100219726562,8.76209545135498
13,0.03172443434596062,-0.6437746286392212,-0.0503133162856102,36.7160694,3.1842129,19.54,4.61,-3.46,0.04,91,323,5.774615287780762,5.774418830871582
14,-0.1075061783194542,-1.3935778141021729,-0.2900613248348236,36.7161058,3.1841619,19.74,0.46,-2.93,-0.33,90,280,2.9894092082977295,2.9708313941955566
15,-0.41069459915161133,-2.152822256088257,-0.05746469646692276,36.7160779,3.1840873,21.01,-3.6,-5.08,-1.07,90,236,6.325255393981934,6.233753204345703
16,-0.514120876789093,-2.1633641719818115,0.006796014960855246,36.7160171,3.1839806,23.02,-5.1,-7.35,-1.51,89,236,9.07630443572998,8.949352264404297
17,-0.425892174243927,-2.1647837162017822,0.01786348782479763,36.7159312,3.1838253,25.88,-5.54,-8.07,-1.59,89,235,9.925239562988281,9.796934127807617
18,-0.4687948226928711,-2.165109872817993,-0.030303537845611572,36.7158558,3.1836866,28.33,-5.55,-8.21,-1.57,88,235,10.045639038085938,9.921433448791504
19,-0.4885038733482361,-2.165684700012207,0.019136428833007812,36.7157806,3.1835472,30.8,-5.53,-8.25,-1.59,88,235,10.064460754394531,9.938031196594238
20,-0.42843014001846313,-2.161827325820923,-0.016922280192375183,36.7156936,3.1833846,33.7,-5.51,-8.27,-1.59,88,236,10.077496528625488,9.95029067993164
21,-0.48542624711990356,-2.1635169982910156,-0.0296104084700346,36.7156187,3.1832452,36.19,-5.55,-8.27,-1.59,87,236,10.090669631958008,9.963189125061035
22,-0.43047428131103516,-2.1640379428863525,0.03154727444052696,36.7155312,3.183082,39.09,-5.5,-8.28,-1.62,87,236,10.077816009521484,9.946128845214844
23,-0.4462558329105377,-2.163935422897339,-0.0280827134847641,36.7154568,3.1829425,41.6,-5.49,-8.27,-1.62,86,236,10.064040184020996,9.932607650756836
24,-0.49357685446739197,-2.1630141735076904,-0.003319160547107458,36.7153823,3.1828029,44.1,-5.53,-8.32,-1.62,86,236,10.126891136169434,9.996344566345215
25,-0.42092227935791016,-2.1658918857574463,0.017796926200389862,36.7152946,3.1826395,47.01,-5.53,-8.27,-1.63,85,235,10.09227180480957,9.958627700805664
26,-0.4598608613014221,-2.164841651916504,-0.024761797860264778,36.7152199,3.1824995,49.51,-5.49,-8.29,-1.63,85,235,10.079299926757812,9.946112632751465
27,-0.4560188055038452,-2.1645877361297607,0.035463400185108185,36.7151331,3.1823368,52.44,-5.52,-8.29,-1.63,84,235,10.101637840270996,9.968855857849121
28,-0.3896550238132477,-2.164041519165039,-0.014505528844892979,36.7150582,3.1821969,54.94,-5.49,-8.22,-1.62,84,236,10.025333404541016,9.892104148864746
29,-0.22662241756916046,-2.1676740646362305,-0.01049130130559206,36.7149888,3.1820684,57.27,-4.53,-6.74,-1.34,84,235,8.237702369689941,8.126920700073242
30,-0.03907648101449013,-2.1544976234436035,0.009676193818449974,36.7149327,3.1819629,58.99,-2.68,-4.16,-0.54,83,236,4.9900102615356445,4.959747314453125
31,-0.16642862558364868,-2.1131389141082764,0.019372224807739258,36.7149013,3.1818989,59.43,-2.15,-3.69,-0.1,83,238,4.274670124053955,4.27337646484375
32,-0.14562390744686127,-2.103203296661377,-0.02500169724225998,36.7148683,3.1818274,59.45,-2.09,-3.7,-0.02,82,239,4.254895210266113,4.254842758178711
33,0.0098645631223917,-2.110435962677002,0.013756566680967808,36.7148424,3.1817714,59.4,-1.59,-2.75,0.14,82,239,3.189579725265503,3.186142683029175
34,-0.006271063350141048,-2.412797689437866,-0.04566125571727753,36.7148242,3.1817387,58.36,-1.18,-1.27,1.27,82,224,2.1581108570098877,1.7427914142608643
35,-0.006694413721561432,-2.4642863273620605,0.014522181823849678,36.7148072,3.1817212,55.72,-1.03,-0.79,1.42,81,218,1.935272455215454,1.3042776584625244
36,-0.05964592471718788,-2.4693450927734375,-0.011253738775849342,36.7147932,3.181708,53.48,-1.03,-0.83,1.42,81,218,1.9535943269729614,1.335700511932373
37,-0.018074916675686836,-2.4698734283447266,-0.018228519707918167,36.7147764,3.1816914,50.86,-1.07,-0.88,1.43,81,218,1.9992886781692505,1.3937910795211792
38,-0.053825732320547104,-2.469606637954712,0.0245031900703907,36.7147619,3.1816767,48.63,-1.06,-0.88,1.44,80,218,2.0011746883392334,1.3823193311691284
39,-0.0169871486723423,-2.469526529312134,-0.014879255555570126,36.7147473,3.1816621,46.38,-1.07,-0.87,1.45,80,218,2.0089869499206543,1.3870179653167725
40,-0.01930907554924488,-2.4692933559417725,0.023782487958669662,36.7147304,3.1816451,43.76,-1.07,-0.87,1.45,79,218,2.0132877826690674,1.3887569904327393
41,-0.04843335971236229,-2.4696264266967773,-0.020994622260332108,36.7147157,3.1816304,41.52,-1.07,-0.89,1.46,79,218,2.0264742374420166,1.3974480628967285
42,-0.009773137979209423,-2.470071315765381,-0.00806026253849268,36.7146987,3.1816131,38.9,-1.07,-0.88,1.47,79,218,2.0256259441375732,1.3919572830200195
43,-0.06027480214834213,-2.4691336154937744,0.006437680684030056,36.7146842,3.1815984,36.65,-1.06,-0.89,1.46,78,218,2.0202887058258057,1.3875192403793335
44,-0.04361185058951378,-2.4693126678466797,-0.023904258385300636,36.7146671,3.1815813,34.03,-1.06,-0.89,1.47,78,218,2.0284554958343506,1.3936041593551636
45,-0.029470499604940414,-2.469420909881592,0.027385177090764046,36.7146525,3.1815665,31.78,-1.06,-0.87,1.47,78,218,2.022156238555908,1.3799782991409302
46,-0.03511505946516991,-2.4697978496551514,-0.022394588217139244,36.714638,3.1815518,29.53,-1.07,-0.89,1.47,77,218,2.028639316558838,1.3959084749221802
47,-0.004588100593537092,-2.4694011211395264,0.0033914721570909023,36.714621,3.1815347,26.91,-1.06,-0.88,1.47,77,218,2.018521547317505,1.3818246126174927
48,-0.0611751452088356,-2.4695141315460205,0.004253626801073551,36.7146063,3.1815199,24.66,-1.06,-0.89,1.47,77,218,2.0282297134399414,1.3874454498291016
49,-0.014238785021007061,-2.46940541267395,0.006675131618976593,36.7145918,3.1815052,22.41,-1.06,-0.88,1.47,76,218,2.0224318504333496,1.3830376863479614
50,-0.1599903404712677,3.06618595123291,-0.08197037130594254,36.7145694,3.1814932,19.98,-2.03,0.04,0.96,76,175,2.251910924911499,2.035947561264038
51,-0.21777288615703583,2.6761224269866943,-0.03560176119208336,36.7145307,3.1815101,19.47,-3.59,1.76,-0.06,75,153,4.002193927764893,4.001725196838379
52,-0.12027193605899811,2.6803488731384277,0.02848924696445465,36.7144678,3.1815487,19.56,-4.03,2.01,0.04,75,153,4.509340763092041,4.509096145629883
53,-0.054060179740190506,3.0737202167510986,0.2010013312101364,36.7144158,3.1815721,19.5,-3.46,0.21,0.04,75,176,3.4761149883270264,3.4757955074310303
54,-0.3909633159637451,-2.1885931491851807,0.07117702811956406,36.7143669,3.1815329,19.49,-3.11,-4.33,0.01,74,234,5.335236072540283,5.335206508636475
55,-0.5183812975883484,-2.152836322784424,0.010714140720665455,36.7143169,3.1814359,19.49,-4.33,-6.91,0.0,74,236,8.159317016601562,8.159310340881348
56,-0.4387187063694,-2.149421453475952,0.024593697860836983,36.7142533,3.1813107,19.5,-4.93,-7.7,0.0,73,236,9.149129867553711,9.149130821228027
57,-0.34024378657341003,-2.152073621749878,-0.005242494400590658,36.7141763,3.1811621,19.53,-4.55,-7.05,0.0,73,236,8.39639663696289,8.39639663696289
58,-0.2246401011943817,-2.14182710647583,0.03638622537255287,36.7141202,3.181053,19.52,-3.7,-5.87,0.03,73,237,6.946081161499023,6.9459943771362305
59,-0.30087512731552124,-2.1108765602111816,0.013755613937973976,36.7140657,3.1809409,19.5,-3.29,-5.66,0.01,72,239,6.554980278015137,6.554964542388916
60,-0.25632932782173157,-2.098641872406006,0.019807783886790276,36.7140219,3.1808458,19.5,-3.22,-5.67,0.01,72,239,6.521722793579102,6.521714687347412
61,-0.17011022567749023,-2.100114107131958,-0.018588010221719742,36.7139788,3.1807518,19.5,-2.99,-5.24,0.0,71,239,6.033951282501221,6.0339508056640625
62,0.18948622047901154,-2.1008925437927246,-0.015268704853951931,36.7139421,3.1806721,19.47,-1.38,-2.4,0.02,71,239,2.776761054992676,2.776632308959961
63,0.07332907617092133,-2.100811243057251,0.010656479746103287,36.7139331,3.1806522,19.48,-0.09,-0.21,-0.01,71,239,0.233971506357193,0.23340864479541779
64,-0.01697727106511593,-2.101656436920166,0.05721114203333855,36.7139348,3.180654,19.45,0.3,-0.03,0.02,70,239,0.3128122091293335,0.3117634654045105
