timestamp,pitch,yaw,roll,lat,lon,alt,velocity_x,velocity_y,velocity_z,battery,heading,airspeed,groundspeed
0,-0.018117714673280716,-0.04676803946495056,0.02164624258875847,36.7156065,3.1846299,21.54,-0.01,0.02,-0.03,96,357,0.043816566467285156,0.03151453286409378
1,-0.05876005068421364,-0.029297493398189545,0.0782875046133995,36.715608,3.1846329,21.49,0.39,0.63,-0.03,95,358,0.7424233555793762,0.7417049407958984
2,-0.18457800149917603,1.5001287460327148,-0.0923687070608139,36.7156211,3.1846582,21.52,1.64,2.49,-0.04,95,85,2.988002061843872,2.9876959323883057
3,-0.15438319742679596,0.9039120078086853,0.03519982472062111,36.7156539,3.184719,21.53,2.28,3.42,-0.01,95,51,4.119086742401123,4.119046211242676
4,0.09258948266506195,0.9540351629257202,-0.02826819196343422,36.7156837,3.1847737,21.53,1.79,2.66,0.0,94,54,3.2154173851013184,3.2154078483581543
5,0.3428562581539154,1.2050296068191528,0.08166233450174332,36.7156912,3.1847865,21.57,-1.16,-1.71,-0.01,94,69,2.075932264328003,2.075899124145508
6,-0.09199080616235733,3.0264742374420166,0.14707934856414795,36.7156662,3.1847411,21.53,-2.27,-3.21,0.02,93,173,3.940662145614624,3.9405670166015625
7,-0.07688716799020767,-1.901065468788147,0.01184425875544548,36.7156359,3.1846852,21.58,-2.12,-3.25,0.0,93,251,3.890481472015381,3.8904802799224854
8,-0.10717057436704636,-1.2670292854309082,0.2666285037994385,36.715621,3.1846241,21.53,0.78,-2.78,0.01,93,287,2.8972549438476562,2.897230625152588
9,-0.45578721165657043,-0.6537489295005798,0.05331702530384064,36.7156573,3.1845745,21.53,4.49,-3.33,0.0,92,322,5.595571994781494,5.595571517944336
10,-0.484885573387146,-0.6250132322311401,0.0034769775811582804,36.7157521,3.1844916,21.54,7.22,-5.0,-0.01,92,324,8.791030883789062,8.791023254394531
11,-0.49586158990859985,-0.6206789612770081,-0.02755122259259224,36.715856,3.1844011,21.55,7.88,-5.54,0.0,91,324,9.63681411743164,9.636811256408691
12,-0.3737066388130188,-0.622193455696106,0.024420302361249924,36.7159614,3.1843081,21.57,7.4,-5.26,-0.02,91,324,9.090292930603027,9.090249061584473
13,-0.026375414803624153,-0.6399608254432678,-0.08066899329423904,36.7160609,3.1842195,21.59,4.74,-3.55,0.03,91,323,5.932066917419434,5.931955337524414
14,-0.036147989332675934,-1.3694697618484497,-0.27252283692359924,36.7160991,3.1841673,21.77,0.57,-2.93,-0.32,90,281,3.009833335876465,2.9920358657836914
15,-0.4475192427635193,-2.1480963230133057,-0.018059920519590378,36.7160728,3.1840934,23.02,-3.53,-4.98,-1.05,90,236,6.199458599090576,6.109042644500732
16,-0.4485756456851959,-2.162705421447754,0.019179964438080788,36.7160129,3.1839885,25.02,-5.1,-7.31,-1.51,89,236,9.049176216125488,8.922082901000977
17,-0.4502716362476349,-2.1644840240478516,-0.03243400156497955,36.7159392,3.1838561,27.45,-5.55,-8.04,-1.6,89,235,9.907506942749023,9.776586532592773
18,-0.4529086649417877,-2.1646158695220947,0.03591032326221466,36.7158513,3.1836948,30.32,-5.52,-8.21,-1.58,88,235,10.021109580993652,9.895127296447754
19,-0.4283362030982971,-2.1643736362457275,-0.005820898804813623,36.7157764,3.1835555,32.78,-5.54,-8.27,-1.6,88,236,10.086665153503418,9.95854377746582
20,-0.4870700538158417,-2.166762590408325,0.021449094638228416,36.7156889,3.1833927,35.68,-5.51,-8.24,-1.6,87,235,10.0507230758667,9.920985221862793
21,-0.4317256510257721,-2.1624691486358643,0.03333226963877678,36.7156142,3.183253,38.18,-5.49,-8.26,-1.61,87,236,10.05626392364502,9.925651550292969
22,-0.49146729707717896,-2.1627535820007324,-0.018084168434143066,36.7155272,3.1830903,41.08,-5.52,-8.27,-1.61,87,236,10.07907772064209,9.948888778686523
23,-0.46684545278549194,-2.1642038822174072,0.03735809028148651,36.7154526,3.1829506,43.57,-5.53,-8.29,-1.63,86,236,10.112085342407227,9.978227615356445
24,-0.4208196997642517,-2.164368152618408,0.007081650197505951,36.7153774,3.1828105,46.08,-5.51,-8.28,-1.63,86,236,10.085631370544434,9.951863288879395
25,-0.4907037019729614,-2.1665456295013428,0.01346366573125124,36.7152902,3.1826477,49.0,-5.51,-8.27,-1.63,85,235,10.076210975646973,9.94292163848877
26,-0.4445498287677765,-2.1633589267730713,0.034412652254104614,36.7152158,3.1825082,51.5,-5.5,-8.31,-1.64,85,236,10.103991508483887,9.969306945800781
27,-0.4796290099620819,-2.1639111042022705,-0.020548434928059578,36.7151285,3.1823447,54.42,-5.52,-8.31,-1.63,84,236,10.116796493530273,9.98319149017334
28,-0.4489953815937042,-2.164324998855591,0.023930026218295097,36.7150538,3.1822048,56.93,-5.48,-8.21,-1.63,84,236,10.01461124420166,9.880792617797852
29,-0.18716593086719513,-2.1678173542022705,0.006628673989325762,36.7149843,3.1820761,59.26,-4.59,-6.8,-1.37,83,235,8.323685646057129,8.209458351135254
30,-0.08158282935619354,-2.153714179992676,0.03263465315103531,36.7149273,3.1819692,61.01,-2.7,-4.21,-0.57,83,236,5.041957378387451,5.008812427520752
31,-0.11905807256698608,-2.1008083820343018,-0.0020107952877879143,36.7148961,3.181905,61.49,-2.09,-3.68,-0.11,83,239,4.24213981628418,4.240540027618408
32,-0.13855785131454468,-2.086966037750244,0.026354920119047165,36.7148644,3.1818334,61.51,-2.0,-3.7,-0.01,82,240,4.211380481719971,4.211343288421631
33,0.004155818372964859,-2.0938897132873535,-0.039351169019937515,36.7148394,3.1817767,61.47,-1.56,-2.8,0.14,82,240,3.2186412811279297,3.215378761291504
34,0.02171219512820244,-2.353623628616333,-0.0206153467297554,36.7148213,3.1817435,60.45,-1.18,-1.28,1.25,82,225,2.1572935581207275,1.7520904541015625
35,-0.057654790580272675,-2.4650962352752686,0.014386809431016445,36.7148043,3.1817258,57.82,-1.02,-0.8,1.43,81,218,1.938141107559204,1.3039116859436035
36,-0.013502572663128376,-2.4696879386901855,-0.005483063869178295,36.7147903,3.1817126,55.59,-1.05,-0.83,1.44,81,218,1.971540927886963,1.3459528684616089
37,-0.029193660244345665,-2.469644069671631,0.02892930805683136,36.7147735,3.181696,52.97,-1.06,-0.87,1.44,80,218,1.9988722801208496,1.3831307888031006
38,-0.04002341255545616,-2.4695169925689697,-0.02725525014102459,36.7147589,3.1816814,50.73,-1.07,-0.88,1.45,80,218,2.012638807296753,1.3950815200805664
39,-0.02848156914114952,-2.469317674636841,0.02501494809985161,36.7147444,3.1816667,48.49,-1.07,-0.88,1.46,80,218,2.016467571258545,1.387414813041687
40,-0.04373025894165039,-2.469630241394043,-0.026948202401399612,36.7147298,3.181652,46.25,-1.08,-0.88,1.46,79,218,2.027688503265381,1.3975508213043213
41,-0.007801923435181379,-2.469616413116455,0.0001771680690580979,36.7147128,3.181635,43.62,-1.07,-0.88,1.46,79,218,2.0212419033050537,1.3893052339553833
42,-0.03639485314488411,-2.4697988033294678,0.02668420970439911,36.7146958,3.1816179,41.01,-1.06,-0.88,1.47,79,218,2.025226354598999,1.3840252161026
43,-0.029717154800891876,-2.469116687774658,-0.027071746066212654,36.7146812,3.181603,38.76,-1.07,-0.89,1.47,78,218,2.035271644592285,1.3975902795791626
44,-0.029866350814700127,-2.469449520111084,0.027057550847530365,36.7146666,3.1815882,36.5,-1.06,-0.87,1.47,78,218,2.0243120193481445,1.3846564292907715
45,-0.0640689879655838,-2.469558000564575,0.001245026127435267,36.7146496,3.1815712,33.89,-1.07,-0.88,1.48,78,218,2.0311944484710693,1.3893523216247559
46,-0.00910292100161314,-2.4699387550354004,0.0025323883164674044,36.714635,3.1815565,31.64,-1.06,-0.87,1.48,77,218,2.02508807182312,1.3806660175323486
47,-0.039141107350587845,-2.469345808029175,0.024861857295036316,36.714618,3.1815392,29.0,-1.05,-0.87,1.47,77,218,2.016788959503174,1.3768752813339233
48,-0.036081328988075256,-2.469437599182129,-0.026175081729888916,36.7146035,3.1815245,26.76,-1.06,-0.88,1.47,76,218,2.0226120948791504,1.385619878768921
49,-0.041258636862039566,-2.469454765319824,0.029060088098049164,36.7145889,3.1815098,24.51,-1.06,-0.88,1.48,76,218,2.031327247619629,1.388043761253357
50,-0.1791704297065735,3.083918333053589,-0.11422272771596909,36.7145665,3.1814976,22.06,-2.02,0.01,0.98,76,176,2.2519145011901855,2.0244979858398438
51,-0.19600053131580353,2.6757771968841553,-0.00887136161327362,36.7145282,3.1815141,21.53,-3.56,1.74,-0.05,75,153,3.967238664627075,3.966855049133301
52,-0.16098946332931519,2.6795787811279297,0.033432476222515106,36.7144658,3.1815524,21.62,-4.06,2.02,0.04,75,153,4.544005870819092,4.543769359588623
53,-0.02550433948636055,3.0649707317352295,0.18124015629291534,36.7144134,3.1815762,21.56,-3.49,0.27,0.04,75,175,3.505326271057129,3.505023717880249
54,-0.38254472613334656,-2.186403512954712,0.11010558903217316,36.7143644,3.1815382,21.55,-3.09,-4.24,0.01,74,234,5.254767894744873,5.254744052886963
55,-0.5034369230270386,-2.152498722076416,-0.019456399604678154,36.7143146,3.1814425,21.55,-4.32,-6.87,0.01,74,236,8.126055717468262,8.126049041748047
56,-0.47753798961639404,-2.1497738361358643,0.024621255695819855,36.714251,3.1813174,21.56,-4.91,-7.72,0.0,73,236,9.154695510864258,9.154693603515625
57,-0.325057715177536,-2.152496576309204,-0.02837446518242359,36.7141743,3.1811686,21.58,-4.57,-7.04,0.0,73,236,8.400379180908203,8.400378227233887
58,-0.26341354846954346,-2.14306640625,0.04039083793759346,36.7141179,3.1810594,21.57,-3.72,-5.91,0.02,73,237,6.989731311798096,6.9896769523620605
59,-0.282160222530365,-2.1110641956329346,-0.011605586856603622,36.714063,3.1809466,21.55,-3.3,-5.65,0.0,72,239,6.548775672912598,6.548770904541016
60,-0.2812665104866028,-2.0992507934570312,0.03444806858897209,36.7140192,3.1808514,21.55,-3.2,-5.64,0.0,72,239,6.493459224700928,6.493454456329346
61,-0.14979323744773865,-2.1001174449920654,-0.02792642079293728,36.7139763,3.1807576,21.55,-2.98,-5.24,0.0,71,239,6.035390853881836,6.035390377044678
62,0.18737156689167023,-2.100841760635376,0.010889936238527298,36.7139393,3.1806776,21.53,-1.42,-2.49,0.02,71,239,2.8714802265167236,2.871361255645752
63,0.07662300765514374,-2.1005778312683105,-0.015726452693343163,36.71393,3.1806567,21.54,-0.12,-0.24,-0.01,71,239,0.2739550769329071,0.2734123170375824
64,0.007109498605132103,-2.100123882293701,0.05467884987592697,36.7139313,3.1806581,21.51,0.3,0.0,0.03,70,239,0.21571725606918335,0.21191690862178802
