timestamp,pitch,yaw,roll,lat,lon,alt,velocity_x,velocity_y,velocity_z,battery,heading,airspeed,groundspeed
0,-0.021260585635900497,0.0012503942707553506,0.008417352102696896,36.7156066,3.1846299,20.99,-0.02,0.03,-0.02,96,0,0.04998646676540375,0.0427124910056591
1,-0.040405143052339554,0.0006200919160619378,0.08479133248329163,36.7156078,3.1846322,20.93,0.31,0.53,-0.02,95,0,0.6158356070518494,0.6152791380882263
2,-0.1596183031797409,1.4723727703094482,-0.08957907557487488,36.7156231,3.1846613,20.97,1.72,2.59,-0.04,95,84,3.1222026348114014,3.121875762939453
3,-0.17917147278785706,0.911616861820221,0.011738214641809464,36.7156513,3.184714,20.98,2.28,3.44,-0.02,95,52,4.138271808624268,4.138190746307373
4,0.039807043969631195,0.9539088606834412,-0.002107297070324421,36.7156822,3.1847707,20.99,2.03,2.99,-0.01,94,54,3.6197919845581055,3.6197686195373535
5,0.36531463265419006,1.0133451223373413,0.057200729846954346,36.7156967,3.184796,21.02,-0.74,-1.08,-0.02,94,58,1.3166786432266235,1.316523790359497
6,-0.06559410691261292,2.796619176864624,0.14560599625110626,36.7156746,3.1847559,20.99,-2.19,-3.13,0.04,93,160,3.826235771179199,3.8259763717651367
7,-0.0737714022397995,-1.905527114868164,0.009087254293262959,36.7156393,3.1846908,21.04,-2.11,-3.22,0.0,93,250,3.858198404312134,3.858194351196289
8,-0.05241777002811432,-1.5619449615478516,0.27631857991218567,36.715623,3.184638,20.99,0.12,-2.88,0.02,93,270,2.8836727142333984,2.8835978507995605
9,-0.3925614655017853,-0.6607640385627747,0.05332823097705841,36.7156503,3.18459,20.99,3.91,-3.11,0.0,92,322,4.999238967895508,4.999234676361084
10,-0.4953888952732086,-0.6241369247436523,0.04168536886572838,36.7157384,3.1845125,20.99,6.94,-4.79,-0.01,92,324,8.434234619140625,8.434219360351562
11,-0.47406256198883057,-0.6169686913490295,-0.02823975868523121,36.7158401,3.1844248,21.01,7.87,-5.51,0.0,91,324,9.609356880187988,9.609354972839355
12,-0.3785417973995209,-0.6204155087471008,0.03080791048705578,36.7159638,3.184316,21.04,7.47,-5.3,-0.02,91,324,9.16303539276123,9.163003921508789
13,-0.02639598958194256,-0.6244965195655823,-0.035736292600631714,36.7160537,3.1842368,21.06,5.37,-3.84,0.05,91,324,6.60743522644043,6.607236385345459
14,0.02436741068959236,-1.0781304836273193,-0.24376337230205536,36.7161029,3.1841827,21.15,1.49,-2.88,-0.2,90,298,3.2584240436553955,3.2517504692077637
15,-0.41042229533195496,-2.129034996032715,-0.09890980273485184,36.7160883,3.1841156,22.17,-3.02,-4.53,-0.93,90,238,5.530409336090088,5.451213359832764
16,-0.4922020435333252,-2.1616251468658447,0.040458761155605316,36.7160326,3.1840183,24.01,-4.84,-6.96,-1.45,89,236,8.602843284606934,8.479540824890137
17,-0.4290958642959595,-2.163564682006836,-0.03228282928466797,36.7159484,3.1838665,26.83,-5.49,-8.04,-1.6,89,236,9.876691818237305,9.746007919311523
18,-0.49734291434288025,-2.163339138031006,0.003195624565705657,36.7158734,3.1837285,29.29,-5.55,-8.21,-1.56,88,236,10.039557456970215,9.916889190673828
19,-0.4569217562675476,-2.163116931915283,0.03543784096837044,36.7157979,3.1835886,31.75,-5.54,-8.22,-1.59,88,236,10.048837661743164,9.922184944152832
20,-0.4651230275630951,-2.1665356159210205,-0.029771946370601654,36.7157106,3.1834265,34.64,-5.51,-8.23,-1.59,88,235,10.03759479522705,9.91024398803711
21,-0.4921344220638275,-2.163680076599121,0.014735816977918148,36.7156362,3.1832874,37.12,-5.5,-8.31,-1.6,87,236,10.099320411682129,9.971076011657715
22,-0.42455363273620605,-2.163299322128296,-0.015564752742648125,36.7155488,3.183124,40.03,-5.53,-8.27,-1.61,87,236,10.083349227905273,9.952488899230957
23,-0.47810378670692444,-2.1636300086975098,-0.01958615519106388,36.7154739,3.1829843,42.53,-5.5,-8.27,-1.61,86,236,10.06905460357666,9.93796443939209
24,-0.43961796164512634,-2.164140462875366,0.03301927447319031,36.7153871,3.1828217,45.45,-5.51,-8.3,-1.62,86,236,10.097118377685547,9.965909957885742
25,-0.43696820735931396,-2.165935754776001,-0.02341492287814617,36.7153122,3.1826816,47.95,-5.52,-8.32,-1.63,85,235,10.126829147338867,9.994172096252441
26,-0.48462367057800293,-2.16365909576416,-0.00801807176321745,36.7152373,3.1825415,50.45,-5.5,-8.27,-1.63,85,236,10.070093154907227,9.937051773071289
27,-0.42976489663124084,-2.1641619205474854,0.01902947947382927,36.7151502,3.1823789,53.38,-5.52,-8.31,-1.63,84,236,10.110032081604004,9.97752571105957
28,-0.44651705026626587,-2.1617631912231445,-0.03675477206707001,36.7150756,3.1822386,55.88,-5.51,-8.29,-1.63,84,236,10.095253944396973,9.962705612182617
29,-0.2940175533294678,-2.1686782836914062,0.01716870255768299,36.7150036,3.1821053,58.28,-4.86,-7.2,-1.45,83,235,8.81768798828125,8.697282791137695
30,-0.04649336636066437,-2.1613919734954834,-0.012277333065867424,36.7149415,3.1819896,60.28,-2.97,-4.54,-0.69,83,236,5.473140716552734,5.428445816040039
31,-0.15890471637248993,-2.1207759380340576,0.03851373866200447,36.714908,3.1819231,60.9,-2.2,-3.72,-0.17,83,238,4.332259178161621,4.328670024871826
32,-0.17286163568496704,-2.101418972015381,-0.02017599157989025,36.7148749,3.1818513,60.97,-2.08,-3.69,-0.01,82,239,4.240911483764648,4.240886688232422
33,0.0006270640296861529,-2.103090763092041,0.01950123719871044,36.7148478,3.1817922,60.96,-1.76,-3.1,0.02,82,239,3.5704784393310547,3.570378065109253
34,0.017149366438388824,-2.2798328399658203,-0.07220970094203949,36.714828,3.1817537,60.29,-1.23,-1.52,1.0,82,229,2.2044103145599365,1.9611939191818237
35,-0.006412343587726355,-2.4773666858673096,-0.006016439292579889,36.7148104,3.1817338,57.76,-1.03,-0.79,1.45,81,218,1.953292965888977,1.3081536293029785
36,-0.06289400160312653,-2.4720685482025146,0.006303758360445499,36.7147965,3.1817207,55.51,-1.03,-0.82,1.41,81,218,1.9425166845321655,1.3269436359405518
37,-0.03560497984290123,-2.4700913429260254,-0.0243524182587862,36.7147798,3.1817043,52.9,-1.07,-0.88,1.42,81,218,1.9917768239974976,1.3905068635940552
38,-0.03538261726498604,-2.4697649478912354,0.026298588141798973,36.7147653,3.1816896,50.66,-1.06,-0.87,1.44,80,218,1.9937011003494263,1.3781121969223022
39,-0.028160355985164642,-2.469515323638916,-0.024522116407752037,36.7147507,3.181675,48.42,-1.07,-0.88,1.45,80,218,2.007850170135498,1.388739824295044
40,-0.010333345271646976,-2.4691877365112305,0.008699209429323673,36.7147337,3.181658,45.8,-1.07,-0.88,1.45,79,218,2.0123329162597656,1.392099380493164
41,-0.05882912129163742,-2.4695119857788086,-0.010229750536382198,36.7147191,3.1816433,43.56,-1.06,-0.88,1.46,79,218,2.0165557861328125,1.3909258842468262
42,-0.020150115713477135,-2.470057249069214,-0.01834503561258316,36.7147021,3.1816261,40.94,-1.07,-0.88,1.47,79,218,2.0263006687164307,1.3918819427490234
43,-0.05446247383952141,-2.4692845344543457,0.018196791410446167,36.7146876,3.1816115,38.69,-1.05,-0.88,1.47,78,218,2.016713857650757,1.379646897315979
44,-0.056269265711307526,-2.4694130420684814,-0.015115351416170597,36.7146705,3.1815943,36.07,-1.07,-0.89,1.47,78,218,2.0278050899505615,1.3958792686462402
45,-0.014081991277635098,-2.4693355560302734,0.01885390095412731,36.7146559,3.1815795,33.82,-1.06,-0.87,1.47,78,218,2.0202856063842773,1.3781882524490356
46,-0.052374985069036484,-2.4695615768432617,-0.021407578140497208,36.7146413,3.1815648,31.57,-1.06,-0.89,1.47,77,218,2.024806499481201,1.3864121437072754
47,-0.0062722498551011086,-2.469416618347168,-0.009483528323471546,36.7146243,3.1815477,28.95,-1.06,-0.88,1.47,77,218,2.023148536682129,1.387898564338684
48,-0.05776044353842735,-2.4697282314300537,0.016352329403162003,36.7146097,3.1815329,26.7,-1.06,-0.88,1.47,77,218,2.024566650390625,1.3860547542572021
49,-0.04635286331176758,-2.4696385860443115,-0.022004583850502968,36.7145927,3.1815158,24.07,-1.06,-0.88,1.47,76,218,2.025367021560669,1.389341950416565
50,-0.10176273435354233,-2.9891903400421143,-0.07550226151943207,36.7145753,3.1815034,21.88,-1.72,-0.32,1.22,76,188,2.141167640686035,1.7585707902908325
51,-0.2425454556941986,2.676673412322998,-0.05834588780999184,36.7145416,3.1815132,20.98,-3.31,1.52,0.01,75,153,3.653005838394165,3.6529695987701416
52,-0.14219388365745544,2.6796231269836426,0.002078618621453643,36.7144807,3.1815504,21.09,-4.05,2.04,0.01,75,153,4.543185710906982,4.54317045211792
53,-0.05525307357311249,2.8946425914764404,0.1539030820131302,36.714427,3.1815795,21.04,-3.68,0.89,0.05,75,165,3.795672655105591,3.795210123062134
54,-0.36991745233535767,-2.2163188457489014,0.09748925268650055,36.7143766,3.181558,21.01,-2.96,-3.49,0.02,74,233,4.5825605392456055,4.5825090408325195
55,-0.5052579641342163,-2.140212297439575,0.023079290986061096,36.7143302,3.1814717,21.01,-4.06,-6.48,0.01,74,237,7.648008823394775,7.647995948791504
56,-0.4469483494758606,-2.1492745876312256,-0.026431232690811157,36.7142578,3.1813291,21.02,-4.94,-7.69,0.0,73,237,9.068042755126953,9.068042755126953
57,-0.36671632528305054,-2.1523656845092773,0.00922281201928854,36.714191,3.1812002,21.04,-4.73,-7.31,0.0,73,236,8.714086532592773,8.714080810546875
58,-0.2037755697965622,-2.146373748779297,0.02579900249838829,36.714132,3.1810862,21.04,-3.88,-6.1,0.03,73,237,7.2394232749938965,7.239343166351318
59,-0.29551807045936584,-2.1163523197174072,0.029483601450920105,36.7140761,3.1809726,21.02,-3.34,-5.67,0.02,72,238,6.582662105560303,6.58262825012207
60,-0.250914603471756,-2.099677085876465,0.007299217861145735,36.7140321,3.1808777,21.02,-3.22,-5.66,0.01,72,239,6.521676540374756,6.521662712097168
61,-0.22959649562835693,-2.1001362800598145,-0.010133671574294567,36.7139885,3.1807825,21.02,-3.13,-5.5,0.0,71,239,6.33335018157959,6.333348751068115
62,0.14738844335079193,-2.100750684738159,-0.020661860704421997,36.7139472,3.1806926,21.0,-1.81,-3.15,0.04,71,239,3.637620687484741,3.6373507976531982
63,0.10308964550495148,-2.100693702697754,0.020962851122021675,36.7139338,3.1806632,21.0,-0.3,-0.54,-0.02,71,239,0.6204329133033752,0.6200589537620544
64,-0.021611303091049194,-2.101323127746582,0.017645636573433876,36.713934,3.1806633,20.98,0.14,0.1,0.03,70,239,0.18334974348545074,0.17913533747196198
