timestamp,pitch,yaw,roll,lat,lon,alt,velocity_x,velocity_y,velocity_z,battery,heading,airspeed,groundspeed
0,-0.0013148488942533731,-0.041387561708688736,-0.02229129523038864,36.7156066,3.18463,21.45,-0.01,0.02,-0.03,96,357,0.04992353916168213,0.03365813195705414
1,-0.03626067936420441,-0.04618906229734421,0.12079145014286041,36.7156077,3.1846319,21.4,0.28,0.48,-0.02,95,357,0.5681481957435608,0.5677158236503601
2,-0.19310081005096436,1.4866538047790527,-0.07987496256828308,36.7156223,3.1846593,21.43,1.68,2.48,-0.04,95,85,2.9996142387390137,2.9993362426757812
3,-0.17815177142620087,0.8465263843536377,-0.013320253230631351,36.7156504,3.1847102,21.45,2.28,3.39,-0.02,95,48,4.0931572914123535,4.093108654022217
4,0.09218965470790863,0.9499621987342834,-0.008323675021529198,36.7156858,3.184774,21.45,1.87,2.69,0.0,94,54,3.2849159240722656,3.2849104404449463
5,0.33688387274742126,0.85367751121521,-0.011737688444554806,36.7156966,3.1847921,21.47,-0.65,-1.0,-0.02,94,48,1.201613426208496,1.2013981342315674
6,-0.040523409843444824,-0.8735952377319336,-0.20031939446926117,36.7156752,3.1847526,21.45,-2.17,-3.15,0.04,93,309,3.828925848007202,3.8286213874816895
7,-0.06110584735870361,-2.429062604904175,0.06425760686397552,36.7156401,3.1846884,21.5,-2.14,-3.27,0.0,93,220,3.9161057472229004,3.9161014556884766
8,-0.07093283534049988,-1.5598950386047363,0.24258163571357727,36.7156233,3.184635,21.45,0.01,-2.9,0.02,93,270,2.9061732292175293,2.9060513973236084
9,-0.44092094898223877,-0.6572241187095642,0.04817434772849083,36.7156587,3.1845777,21.44,4.39,-3.25,0.0,92,322,5.462881088256836,5.4628801345825195
10,-0.5285022258758545,-0.617103099822998,0.0126083604991436,36.7157214,3.1845228,21.44,6.58,-4.53,0.0,92,324,7.995233535766602,7.995233535766602
11,-0.4663253724575043,-0.6186853647232056,-0.014686661772429943,36.7158378,3.1844225,21.46,7.89,-5.5,0.0,91,324,9.620109558105469,9.620108604431152
12,-0.3905029594898224,-0.6193823218345642,0.023585904389619827,36.7159616,3.184314,21.48,7.49,-5.28,-0.02,91,324,9.17026424407959,9.170228958129883
13,-0.03882777690887451,-0.6238277554512024,-0.029064413160085678,36.7160516,3.1842344,21.5,5.45,-3.89,0.04,91,324,6.70150899887085,6.701383113861084
14,-0.0033569284714758396,-1.2771989107131958,-0.2613605856895447,36.7161049,3.1841714,21.66,0.87,-2.88,-0.29,90,286,3.0313470363616943,3.0171749591827393
15,-0.4062364101409912,-2.129786491394043,-0.09856157749891281,36.7160891,3.1841127,22.59,-2.96,-4.44,-0.91,90,237,5.41746187210083,5.339003562927246
16,-0.48786142468452454,-2.159968376159668,0.037405114620923996,36.7160344,3.1840164,24.43,-4.8,-6.89,-1.43,89,236,8.530854225158691,8.409525871276855
17,-0.4441070258617401,-2.1628150939941406,-0.030572008341550827,36.7159504,3.1838659,27.22,-5.54,-8.06,-1.6,89,236,9.918319702148438,9.787800788879395
18,-0.49037590622901917,-2.1639251708984375,0.022623982280492783,36.7158749,3.1837278,29.68,-5.55,-8.23,-1.57,88,236,10.05693531036377,9.932258605957031
19,-0.42629528045654297,-2.1639130115509033,-0.013881715945899487,36.7157872,3.1835648,32.55,-5.53,-8.23,-1.58,88,236,10.045350074768066,9.919058799743652
20,-0.4827877879142761,-2.162876605987549,-0.023202579468488693,36.7157124,3.1834255,35.02,-5.51,-8.24,-1.59,88,236,10.05069351196289,9.922964096069336
21,-0.4838346838951111,-2.164215087890625,0.03201952949166298,36.7156378,3.1832865,37.5,-5.53,-8.26,-1.62,87,236,10.078557014465332,9.947303771972656
22,-0.44829365611076355,-2.1652815341949463,-0.026159655302762985,36.7155505,3.1831235,40.42,-5.5,-8.27,-1.61,87,235,10.072099685668945,9.940996170043945
23,-0.4938815236091614,-2.163846015930176,0.007948220707476139,36.7154758,3.1829838,42.92,-5.49,-8.28,-1.62,86,236,10.076981544494629,9.945904731750488
24,-0.42618656158447266,-2.1654367446899414,0.006556320935487747,36.7153889,3.1828211,45.83,-5.53,-8.3,-1.63,86,235,10.108185768127441,9.974468231201172
25,-0.4726482033729553,-2.1644341945648193,-0.031071892008185387,36.7153141,3.1826811,48.33,-5.52,-8.28,-1.63,85,235,10.089988708496094,9.95647144317627
26,-0.4806068539619446,-2.1643290519714355,0.029504787176847458,36.7152391,3.182541,50.84,-5.5,-8.28,-1.63,85,236,10.087475776672363,9.95337963104248
27,-0.44655030965805054,-2.1642372608184814,-0.02560689114034176,36.7151522,3.1823782,53.76,-5.52,-8.31,-1.63,84,236,10.115850448608398,9.982358932495117
28,-0.48692137002944946,-2.162672281265259,-0.014866689220070839,36.7150774,3.1822382,56.26,-5.53,-8.29,-1.63,84,236,10.10543155670166,9.972404479980469
29,-0.20325182378292084,-2.1679880619049072,0.0022335341200232506,36.7149945,3.1820843,59.05,-4.66,-6.91,-1.38,83,235,8.458667755126953,8.343870162963867
30,-0.09375739842653275,-2.1622886657714844,-0.005138530395925045,36.7149427,3.1819877,60.69,-3.03,-4.6,-0.72,83,236,5.561115741729736,5.513831615447998
31,-0.11589813977479935,-2.1211066246032715,0.025380944833159447,36.7149087,3.1819203,61.35,-2.22,-3.71,-0.19,83,238,4.333597660064697,4.329349040985107
32,-0.1770278513431549,-2.102243423461914,0.025667132809758186,36.7148754,3.1818485,61.42,-2.06,-3.67,0.0,82,239,4.2146100997924805,4.214599132537842
33,0.005485602654516697,-2.103339910507202,-0.02301425114274025,36.7148483,3.1817895,61.42,-1.76,-3.12,0.02,82,239,3.5860755443573,3.5860092639923096
34,0.03340833634138107,-2.3334407806396484,-0.019650166854262352,36.7148258,3.1817466,60.5,-1.2,-1.37,1.18,82,226,2.1819746494293213,1.8331153392791748
35,-0.051491256803274155,-2.478726387023926,-0.02011249214410782,36.7148108,3.1817302,58.27,-1.03,-0.81,1.45,81,217,1.966123104095459,1.3208422660827637
36,-0.020417602732777596,-2.471860647201538,0.02914450876414776,36.7147967,3.1817169,56.03,-1.03,-0.82,1.42,81,218,1.9479411840438843,1.324276089668274
37,-0.060458987951278687,-2.4706127643585205,0.020025070756673813,36.7147801,3.1817007,53.42,-1.06,-0.87,1.44,81,218,1.9958120584487915,1.3727041482925415
38,-0.011005223728716373,-2.4696595668792725,-0.016674047335982323,36.7147657,3.1816861,51.18,-1.07,-0.88,1.45,80,218,2.010155439376831,1.3889847993850708
39,-0.017997650429606438,-2.4690847396850586,0.023420870304107666,36.7147486,3.1816691,48.56,-1.07,-0.88,1.45,80,218,2.0130109786987305,1.3897534608840942
40,-0.057939108461141586,-2.4693470001220703,-0.014636274427175522,36.7147341,3.1816544,46.32,-1.06,-0.89,1.46,79,218,2.022543430328369,1.3906618356704712
41,-0.011711586266756058,-2.4697608947753906,-0.011434515006840229,36.714717,3.1816372,43.7,-1.07,-0.89,1.47,79,218,2.0282552242279053,1.3955520391464233
42,-0.05429172143340111,-2.470123291015625,0.020420856773853302,36.7147025,3.1816225,41.45,-1.06,-0.89,1.46,79,218,2.0241286754608154,1.3916929960250854
43,-0.014911824837327003,-2.4695334434509277,-0.01574009284377098,36.7146879,3.1816079,39.21,-1.06,-0.88,1.47,78,218,2.029198169708252,1.3900927305221558
44,-0.017205141484737396,-2.469301700592041,0.021871177479624748,36.7146709,3.1815907,36.58,-1.06,-0.88,1.48,78,218,2.0296671390533447,1.388159990310669
45,-0.050915636122226715,-2.4693751335144043,-0.021913452073931694,36.7146563,3.1815759,34.33,-1.06,-0.88,1.47,78,218,2.0247678756713867,1.3884212970733643
46,-0.017766034230589867,-2.4695005416870117,0.021596573293209076,36.7146417,3.1815612,32.08,-1.05,-0.88,1.47,77,218,2.019407272338867,1.378678560256958
47,-0.062031444162130356,-2.4691569805145264,0.01266792044043541,36.7146248,3.1815441,29.46,-1.06,-0.88,1.48,77,218,2.030322313308716,1.3871829509735107
48,-0.01553916372358799,-2.469660520553589,-0.01647201180458069,36.7146101,3.1815293,27.21,-1.06,-0.88,1.47,77,218,2.0263144969940186,1.3870564699172974
49,-0.05916328728199005,-2.469938278198242,0.01804923452436924,36.7145955,3.1815146,24.95,-1.06,-0.88,1.47,76,218,2.0210041999816895,1.3809398412704468
50,-0.12718231976032257,-2.9608349800109863,-0.122091144323349,36.7145758,3.1814996,22.39,-1.7,-0.37,1.25,76,190,2.1486735343933105,1.7435472011566162
51,-0.2037217617034912,2.674152374267578,-0.040652915835380554,36.7145349,3.1815133,21.44,-3.48,1.66,-0.04,75,153,3.86156964302063,3.8613569736480713
52,-0.19395124912261963,2.6796250343322754,0.013318835757672787,36.7144821,3.1815455,21.53,-4.06,2.02,0.0,75,153,4.542499542236328,4.542497634887695
53,-0.01412951946258545,2.8862977027893066,0.13345417380332947,36.7144283,3.1815749,21.48,-3.7,0.96,0.05,75,165,3.833256483078003,3.8328614234924316
54,-0.35569795966148376,-2.22306227684021,0.15560366213321686,36.7143775,3.181555,21.46,-2.96,-3.36,0.01,74,232,4.484372138977051,4.484327793121338
55,-0.4807300269603729,-2.1411685943603516,-0.026890749111771584,36.7143314,3.1814703,21.46,-4.04,-6.43,0.01,74,237,7.595522880554199,7.595512390136719
56,-0.4593433141708374,-2.1489648818969727,0.030604079365730286,36.7142594,3.1813286,21.47,-4.92,-7.72,0.0,73,236,9.159850120544434,9.159850120544434
57,-0.3384009599685669,-2.151644229888916,-0.03012344241142273,36.7141928,3.1811993,21.49,-4.75,-7.35,-0.01,73,236,8.761930465698242,8.761921882629395
58,-0.25981760025024414,-2.1474084854125977,0.026060041040182114,36.7141336,3.1810849,21.49,-3.92,-6.14,0.02,73,236,7.289151668548584,7.28909969329834
59,-0.2755071222782135,-2.1160788536071777,-0.014802144840359688,36.7140773,3.1809708,21.46,-3.35,-5.66,0.01,72,238,6.581658363342285,6.581643581390381
60,-0.29362237453460693,-2.100353956222534,0.03434135764837265,36.7140331,3.1808758,21.46,-3.23,-5.65,0.0,72,239,6.512399673461914,6.512395858764648
61,-0.1967436820268631,-2.0997986793518066,-0.013901184312999249,36.7139825,3.1807654,21.47,-3.04,-5.33,0.0,71,239,6.13811731338501,6.13811731338501
62,0.1356176882982254,-2.1007883548736572,0.019291499629616737,36.7139479,3.1806903,21.45,-1.85,-3.22,0.03,71,239,3.722531795501709,3.722327709197998
63,0.10376419872045517,-2.10077166557312,-0.020541194826364517,36.713934,3.1806597,21.44,-0.33,-0.6,-0.02,71,239,0.6950608491897583,0.6946439743041992
64,0.019328536465764046,-2.0998342037200928,0.018914857879281044,36.7139338,3.180659,21.44,0.14,0.11,0.03,70,239,0.19018693268299103,0.18599526584148407
