timestamp,pitch,yaw,roll,lat,lon,alt,velocity_x,velocity_y,velocity_z,battery,heading,airspeed,groundspeed
0,-0.02129078470170498,0.016387939453125,-0.00513691920787096,36.7156067,3.18463,17.85,-0.03,0.02,-0.01,96,0,0.04281698167324066,0.04078003391623497
1,-0.04611213505268097,0.023366881534457207,0.10671091079711914,36.7156079,3.1846325,17.89,0.34,0.57,0.0,95,1,0.6712023615837097,0.6711327433586121
2,-0.2407759577035904,1.4446156024932861,-0.08367616683244705,36.7156207,3.1846569,17.85,1.6,2.51,-0.01,95,82,2.9814887046813965,2.98144793510437
3,-0.18842482566833496,0.9530346393585205,-0.003630255814641714,36.7156538,3.1847199,17.89,2.35,3.59,-0.02,95,54,4.298752307891846,4.298648357391357
4,0.0425809770822525,0.9660724401473999,0.009269936010241508,36.7156854,3.1847787,17.91,2.07,3.09,-0.01,94,55,3.7261641025543213,3.726144313812256
5,0.3578634262084961,1.0823514461517334,0.07613829523324966,36.7156998,3.1848045,17.9,-0.77,-1.1,0.0,94,62,1.347251534461975,1.347233772277832
6,-0.05702056735754013,2.836477518081665,0.14591753482818604,36.7156774,3.1847641,17.94,-2.2,-3.15,-0.02,93,162,3.8502509593963623,3.8501698970794678
7,-0.06800542026758194,-1.906022548675537,0.015534818172454834,36.7156423,3.184699,17.92,-2.08,-3.22,0.0,93,250,3.8383727073669434,3.8383679389953613
8,-0.070174440741539,-1.5392273664474487,0.26803699135780334,36.7156263,3.1846462,17.91,0.14,-2.85,0.0,93,271,2.863013982772827,2.863004207611084
9,-0.38586318492889404,-0.6564248204231262,0.05341187119483948,36.715654,3.1845982,17.91,3.92,-3.11,0.0,92,322,5.0059003829956055,5.005898952484131
10,-0.5015135407447815,-0.6250571608543396,0.043605707585811615,36.7157421,3.1845206,17.91,6.93,-4.79,-0.01,92,324,8.428552627563477,8.428543090820312
11,-0.4638158977031708,-0.6186351180076599,-0.01812197081744671,36.7158439,3.1844326,17.93,7.88,-5.49,0.0,91,324,9.605637550354004,9.605634689331055
12,-0.3836621940135956,-0.6200661063194275,0.025811178609728813,36.7159673,3.1843245,17.96,7.5,-5.3,-0.02,91,324,9.186175346374512,9.18614387512207
13,-0.02439134195446968,-0.6247008442878723,-0.027669252827763557,36.716057,3.1842453,17.98,5.37,-3.85,0.04,91,324,6.615222930908203,6.6150617599487305
14,0.01930237002670765,-1.0830832719802856,-0.24340267479419708,36.7161062,3.1841909,18.07,1.48,-2.87,-0.21,90,297,3.2397029399871826,3.2324421405792236
15,-0.4150700569152832,-2.1309778690338135,-0.09712210297584534,36.7160913,3.1841237,19.09,-3.05,-4.52,-0.93,90,237,5.539375305175781,5.459420204162598
16,-0.49602439999580383,-2.160865545272827,0.038292184472084045,36.7160356,3.1840264,20.94,-4.83,-6.97,-1.45,89,236,8.615406036376953,8.491633415222168
17,-0.4265325963497162,-2.1633002758026123,-0.03327833488583565,36.7159512,3.1838744,23.75,-5.5,-8.04,-1.6,89,236,9.883074760437012,9.751226425170898
18,-0.49371737241744995,-2.16310453414917,0.0048673138953745365,36.7158761,3.1837364,26.22,-5.54,-8.21,-1.57,88,236,10.033205032348633,9.908634185791016
19,-0.4493978023529053,-2.162868022918701,0.03428357094526291,36.7158008,3.1835968,28.68,-5.54,-8.24,-1.58,88,236,10.061383247375488,9.934967994689941
20,-0.46730485558509827,-2.165316581726074,-0.028910139575600624,36.7157135,3.1834344,31.57,-5.52,-8.25,-1.59,88,235,10.061501502990723,9.934418678283691
21,-0.49227333068847656,-2.163079023361206,0.00639985641464591,36.7156391,3.1832953,34.06,-5.51,-8.27,-1.6,87,236,10.071897506713867,9.943708419799805
22,-0.4346798062324524,-2.163364887237549,-0.016470393165946007,36.7155517,3.1831321,36.97,-5.52,-8.29,-1.61,87,236,10.09729290008545,9.967126846313477
23,-0.48840320110321045,-2.1638095378875732,-0.016543712466955185,36.7154769,3.1829922,39.46,-5.51,-8.29,-1.61,86,236,10.090668678283691,9.95999813079834
24,-0.4289224445819855,-2.163472890853882,0.02288544550538063,36.7153896,3.1828292,42.38,-5.51,-8.28,-1.63,86,235,10.096598625183105,9.96405029296875
25,-0.44845741987228394,-2.166273355484009,-0.023221205919981003,36.715315,3.1826897,44.87,-5.51,-8.27,-1.63,85,235,10.083069801330566,9.949090003967285
26,-0.49250972270965576,-2.164452075958252,0.004523946437984705,36.7152402,3.1825497,47.38,-5.51,-8.29,-1.63,85,235,10.091314315795898,9.957944869995117
27,-0.425160676240921,-2.1634926795959473,-0.003977805841714144,36.7151531,3.1823864,50.3,-5.52,-8.29,-1.64,84,236,10.104342460632324,9.970009803771973
28,-0.46111637353897095,-2.162229061126709,-0.03221285715699196,36.7150783,3.1822466,52.81,-5.51,-8.28,-1.63,84,236,10.086671829223633,9.953716278076172
29,-0.2892153263092041,-2.1692168712615967,0.029808644205331802,36.7150066,3.1821137,55.22,-4.86,-7.21,-1.44,83,235,8.82392406463623,8.704569816589355
30,-0.06381958723068237,-2.1614603996276855,-0.01955576054751873,36.7149447,3.181998,57.21,-2.98,-4.55,-0.68,83,236,5.4934282302856445,5.449967861175537
31,-0.13807135820388794,-2.1202611923217773,0.04374927282333374,36.714911,3.1819311,57.83,-2.21,-3.72,-0.17,83,238,4.3340067863464355,4.33050537109375
32,-0.18156149983406067,-2.102052688598633,-0.007844326086342335,36.7148778,3.1818594,57.89,-2.08,-3.67,0.0,82,239,4.229393005371094,4.229381561279297
33,0.012802528217434883,-2.1034998893737793,0.009681726805865765,36.7148508,3.1818006,57.88,-1.75,-3.08,0.03,82,239,3.551844835281372,3.551690101623535
34,0.007364717777818441,-2.343313694000244,-0.022004637867212296,36.7148284,3.1817583,56.92,-1.19,-1.32,1.21,82,225,2.1577725410461426,1.7832244634628296
35,-0.02056869864463806,-2.476961374282837,-0.025094931945204735,36.7148136,3.1817423,54.67,-1.03,-0.8,1.45,81,218,1.957381010055542,1.3123482465744019
36,-0.05525054782629013,-2.472041606903076,0.027512863278388977,36.7147996,3.1817292,52.43,-1.04,-0.83,1.42,81,218,1.955542802810669,1.3389431238174438
37,-0.05659939721226692,-2.469848155975342,-0.01703692600131035,36.7147829,3.1817128,49.81,-1.06,-0.87,1.43,81,218,1.9924190044403076,1.381757140159607
38,-0.014012192375957966,-2.4695258140563965,0.021522505208849907,36.7147684,3.1816983,47.57,-1.06,-0.87,1.43,80,218,1.9955542087554932,1.3833352327346802
39,-0.05362008884549141,-2.469318389892578,-0.016625773161649704,36.7147538,3.1816836,45.33,-1.07,-0.88,1.44,80,218,2.0089588165283203,1.3922345638275146
40,-0.016082754358649254,-2.4695322513580322,0.025899073109030724,36.7147393,3.181669,43.09,-1.05,-0.89,1.45,79,218,2.00925612449646,1.3836971521377563
41,-0.05819325149059296,-2.4698705673217773,0.01596386358141899,36.7147223,3.1816518,40.47,-1.06,-0.88,1.46,79,218,2.0170111656188965,1.3864024877548218
42,-0.04628607630729675,-2.4697470664978027,-0.021484874188899994,36.7147052,3.1816346,37.86,-1.06,-0.89,1.47,79,218,2.0306272506713867,1.3936400413513184
43,-0.02929069660604,-2.4690451622009277,0.027522532269358635,36.7146906,3.18162,35.61,-1.06,-0.87,1.47,78,218,2.019174098968506,1.3792507648468018
44,-0.06031769886612892,-2.4695634841918945,0.016310498118400574,36.7146736,3.1816029,32.98,-1.06,-0.89,1.47,78,218,2.0245773792266846,1.3869940042495728
45,-0.007938360795378685,-2.469575881958008,-0.0027254095766693354,36.714659,3.1815881,30.73,-1.06,-0.88,1.47,78,218,2.024444341659546,1.386285662651062
46,-0.06018457189202309,-2.4701008796691895,0.007734645623713732,36.7146445,3.1815733,28.48,-1.06,-0.88,1.47,77,218,2.023385763168335,1.3844013214111328
47,-0.04367227479815483,-2.469391107559204,-0.022519998252391815,36.7146275,3.1815562,25.85,-1.07,-0.89,1.47,77,218,2.0254838466644287,1.3927334547042847
48,-0.027014629915356636,-2.46952486038208,0.0281099583953619,36.7146128,3.1815414,23.6,-1.06,-0.87,1.47,77,218,2.0152359008789062,1.3764618635177612
49,-0.03508935123682022,-2.4694416522979736,-0.02916625887155533,36.7145983,3.1815267,21.36,-1.06,-0.87,1.47,76,218,2.017458438873291,1.378340482711792
50,-0.08290515840053558,-3.000763416290283,-0.10541119426488876,36.7145783,3.1815121,18.8,-1.74,-0.31,1.22,76,188,2.150580406188965,1.7690887451171875
51,-0.2588924765586853,2.669830560684204,-0.02493065595626831,36.7145446,3.1815223,17.9,-3.29,1.54,0.02,75,152,3.6359355449676514,3.635868787765503
52,-0.1597454845905304,2.6720786094665527,-0.02957119792699814,36.7144844,3.1815598,18.0,-4.01,2.05,0.01,75,153,4.507750511169434,4.507734775543213
53,-0.02946881763637066,2.9160380363464355,0.19780801236629486,36.7144314,3.1815883,17.96,-3.61,0.82,0.05,75,167,3.705697774887085,3.7052276134490967
54,-0.4059225916862488,-2.2150039672851562,0.11197272688150406,36.7143813,3.1815641,17.93,-3.0,-3.6,0.02,74,233,4.69504451751709,4.6949992179870605
55,-0.46176210045814514,-2.1475536823272705,0.031196508556604385,36.714334,3.1814768,17.93,-4.16,-6.52,0.01,74,236,7.74522066116333,7.745213031768799
56,-0.4614601731300354,-2.1512949466705322,-0.02972590923309326,36.7142717,3.1813553,17.94,-4.93,-7.69,0.0,73,236,9.14094066619873,9.140938758850098
57,-0.32663342356681824,-2.157538414001465,0.030597364529967308,36.7141932,3.181205,17.96,-4.76,-7.25,-0.01,73,236,8.68298053741455,8.682971000671387
58,-0.21713624894618988,-2.1506779193878174,-0.004585028626024723,36.7141342,3.181092,17.96,-3.89,-6.06,0.03,73,236,7.207092761993408,7.207018852233887
59,-0.25226402282714844,-2.1152236461639404,0.036945268511772156,36.7140782,3.1809786,17.93,-3.33,-5.64,0.01,72,238,6.5584282875061035,6.558411598205566
60,-0.28098341822624207,-2.1001827716827393,-0.018125630915164948,36.7140341,3.1808838,17.93,-3.23,-5.65,0.01,72,239,6.513624668121338,6.513613700866699
61,-0.20440565049648285,-2.1003639698028564,0.030699679628014565,36.7139906,3.1807888,17.94,-3.1,-5.46,0.0,71,239,6.283538818359375,6.283538341522217
62,0.10169745981693268,-2.1009225845336914,-0.010734641924500465,36.7139498,3.1807002,17.92,-1.76,-3.08,0.03,71,239,3.5560429096221924,3.55582857131958
63,0.1456017941236496,-2.100623369216919,0.01604587584733963,36.7139369,3.1806717,17.92,-0.28,-0.5,-0.02,71,239,0.5784408450126648,0.5780698657035828
64,-0.019455092027783394,-2.1016323566436768,0.07274221628904343,36.7139372,3.1806717,17.9,0.18,0.09,0.03,70,239,0.21197542548179626,0.20827323198318481
