timestamp,pitch,yaw,roll,lat,lon,alt,velocity_x,velocity_y,velocity_z,battery,heading,airspeed,groundspeed
0,-0.023151230067014694,-0.03305238112807274,-0.008370772004127502,36.7156066,3.18463,20.92,-0.02,0.02,-0.03,96,358,0.05074199289083481,0.03782171756029129
1,-0.034473784267902374,-0.036567945033311844,0.11015991121530533,36.7156075,3.1846316,20.86,0.27,0.44,0.0,95,357,0.5190417766571045,0.5190317630767822
2,-0.19751296937465668,1.4031853675842285,-0.07911315560340881,36.7156234,3.1846585,20.89,1.84,2.51,-0.04,95,80,3.120061159133911,3.1197285652160645
3,-0.16158662736415863,0.932529628276825,0.023107292130589485,36.7156596,3.1847195,20.91,2.49,3.38,-0.02,95,53,4.199375152587891,4.1993207931518555
4,0.1009281575679779,0.9131466746330261,-0.03181033581495285,36.7156921,3.1847732,20.91,1.95,2.55,0.0,94,52,3.2133162021636963,3.2133047580718994
5,0.2732906639575958,0.1748531460762024,-0.22887097299098969,36.715701,3.1847843,20.94,-1.18,-1.82,0.0,94,10,2.1781694889068604,2.1781609058380127
6,-0.12953026592731476,-1.4173097610473633,-0.09825421124696732,36.7156755,3.1847375,20.91,-2.27,-3.27,0.02,93,278,3.987724542617798,3.9876270294189453
7,-0.053139280527830124,-2.334047794342041,0.03963498771190643,36.7156451,3.1846816,20.97,-2.07,-3.24,0.0,93,226,3.8530187606811523,3.853010654449463
8,-0.10803420841693878,-1.2938660383224487,0.293815553188324,36.7156308,3.1846209,20.91,0.83,-2.76,0.01,93,285,2.885925531387329,2.8858656883239746
9,-0.4548696279525757,-0.6562191843986511,0.03979160264134407,36.7156683,3.1845717,20.91,4.56,-3.33,0.0,92,322,5.652101039886475,5.652100563049316
10,-0.48036614060401917,-0.6210581660270691,0.0011099933180958033,36.7157642,3.1844885,20.92,7.22,-5.0,-0.01,92,324,8.791157722473145,8.791152000427246
11,-0.49771642684936523,-0.6202135682106018,-0.022364426404237747,36.7158679,3.1843982,20.94,7.87,-5.54,0.0,91,324,9.632238388061523,9.632238388061523
12,-0.37704065442085266,-0.620337188243866,0.03374962881207466,36.7159734,3.1843054,20.97,7.47,-5.26,-0.01,91,324,9.137120246887207,9.137106895446777
13,-0.01836516708135605,-0.636607825756073,-0.08046343922615051,36.7160738,3.1842168,20.98,4.74,-3.52,0.05,91,323,5.9120025634765625,5.911749839782715
14,-0.03183061629533768,-1.360726237297058,-0.2753487527370453,36.7161121,3.1841652,21.16,0.57,-2.91,-0.31,90,282,2.9886083602905273,2.972195863723755
15,-0.45553046464920044,-2.148019552230835,-0.014292994514107704,36.7160858,3.184092,22.4,-3.52,-4.99,-1.04,90,236,6.207171440124512,6.1183671951293945
16,-0.4472666382789612,-2.162599563598633,0.019430773332715034,36.7160257,3.1839866,24.39,-5.07,-7.31,-1.5,89,236,9.027097702026367,8.90021800994873
17,-0.4530446529388428,-2.163789987564087,-0.03345301002264023,36.7159523,3.1838541,26.83,-5.53,-8.02,-1.59,89,236,9.875460624694824,9.745174407958984
18,-0.45093920826911926,-2.1643660068511963,0.034968964755535126,36.7158646,3.183693,29.7,-5.54,-8.21,-1.57,88,236,10.034435272216797,9.91057014465332
19,-0.4201219975948334,-2.1638829708099365,-0.007498809136450291,36.7157894,3.1835534,32.17,-5.54,-8.24,-1.58,88,236,10.060515403747559,9.934732437133789
20,-0.48546069860458374,-2.1680872440338135,0.02355307899415493,36.715702,3.1833909,35.06,-5.52,-8.24,-1.6,87,235,10.050142288208008,9.921957969665527
21,-0.4341779053211212,-2.162698984146118,0.02822931669652462,36.7156277,3.1832519,37.55,-5.51,-8.29,-1.6,87,236,10.085297584533691,9.956307411193848
22,-0.447238564491272,-2.1629586219787598,-0.029753971844911575,36.7155528,3.1831118,40.04,-5.53,-8.31,-1.61,87,236,10.11636734008789,9.98696517944336
23,-0.49344149231910706,-2.164445161819458,0.0019837873987853527,36.7154778,3.1829718,42.54,-5.52,-8.27,-1.61,86,235,10.075706481933594,9.944972038269043
24,-0.42066490650177,-2.163426160812378,0.003295253962278366,36.7153906,3.1828089,45.46,-5.49,-8.29,-1.62,86,236,10.081033706665039,9.948872566223145
25,-0.49348822236061096,-2.1664490699768066,0.0143769895657897,36.7153036,3.1826463,48.37,-5.53,-8.31,-1.62,85,235,10.12169361114502,9.990358352661133
26,-0.4368003308773041,-2.16471004486084,0.032938942313194275,36.7152286,3.1825061,50.88,-5.5,-8.29,-1.63,85,235,10.087784767150879,9.954418182373047
27,-0.43788012862205505,-2.1644351482391357,-0.02136968821287155,36.7151539,3.1823662,53.39,-5.49,-8.29,-1.62,84,235,10.08384895324707,9.951309204101562
28,-0.45127585530281067,-2.1660900115966797,0.02634180709719658,36.715067,3.1822035,56.31,-5.49,-8.23,-1.61,84,235,10.032867431640625,9.901505470275879
29,-0.1847909539937973,-2.168367624282837,0.006941914092749357,36.7149972,3.1820741,58.64,-4.59,-6.82,-1.36,83,235,8.344038963317871,8.231644630432129
30,-0.08236391842365265,-2.1560752391815186,0.03277768939733505,36.7149402,3.1819669,60.4,-2.72,-4.2,-0.56,83,236,5.043197154998779,5.011032581329346
31,-0.12712927162647247,-2.1134274005889893,-0.011909730732440948,36.7149085,3.1819028,60.87,-2.16,-3.69,-0.11,83,238,4.283759593963623,4.282245635986328
32,-0.13338002562522888,-2.1026909351348877,0.022676518186926842,36.7148756,3.1818314,60.88,-2.1,-3.7,-0.02,82,239,4.24619722366333,4.246171951293945
33,0.0021920353174209595,-2.1085927486419678,-0.0354984849691391,36.7148495,3.1817746,60.85,-1.61,-2.81,0.12,82,239,3.2477478981018066,3.245307683944702
34,0.02836914174258709,-2.3541393280029297,-0.01506753545254469,36.7148312,3.1817414,59.86,-1.2,-1.29,1.24,82,225,2.1583127975463867,1.7640221118927002
35,-0.05162026360630989,-2.4656498432159424,0.020700663328170776,36.714814,3.1817236,57.22,-1.03,-0.79,1.42,81,218,1.9311777353286743,1.302813172340393
36,-0.01530451886355877,-2.4697532653808594,-0.013853251002728939,36.7147999,3.1817104,54.98,-1.04,-0.85,1.42,81,218,1.9627217054367065,1.3511372804641724
37,-0.02106611803174019,-2.4691569805145264,0.02464929036796093,36.7147833,3.1816937,52.37,-1.05,-0.87,1.43,81,218,1.985174298286438,1.3735814094543457
38,-0.04909472540020943,-2.469611406326294,-0.02052934654057026,36.7147688,3.1816791,50.13,-1.07,-0.88,1.44,80,218,2.001477003097534,1.3895591497421265
39,-0.016708310693502426,-2.4693596363067627,0.02327250875532627,36.7147541,3.1816645,47.89,-1.07,-0.87,1.45,80,218,2.0035440921783447,1.382419466972351
40,-0.05206712335348129,-2.469952344894409,0.02108023688197136,36.7147371,3.1816474,45.27,-1.06,-0.88,1.45,79,218,2.0102808475494385,1.3858851194381714
41,-0.011798867955803871,-2.469810724258423,-0.011125843040645123,36.7147226,3.1816328,43.02,-1.07,-0.88,1.45,79,218,2.015794277191162,1.393428921699524
42,-0.016639169305562973,-2.4694983959198,0.025415915995836258,36.7147056,3.1816156,40.41,-1.06,-0.88,1.47,79,218,2.0217723846435547,1.3871580362319946
43,-0.0463656485080719,-2.468940496444702,-0.023655209690332413,36.7146909,3.1816009,38.16,-1.06,-0.89,1.46,78,218,2.021604299545288,1.388802409172058
44,-0.015851901844143867,-2.4693353176116943,0.020100422203540802,36.7146764,3.1815861,35.91,-1.06,-0.88,1.46,78,218,2.018312454223633,1.3855581283569336
45,-0.056477174162864685,-2.470045328140259,0.01906115561723709,36.7146594,3.181569,33.29,-1.06,-0.88,1.47,78,218,2.0193381309509277,1.383055567741394
46,-0.013437971472740173,-2.4700307846069336,-0.012241718359291553,36.7146448,3.1815543,31.04,-1.07,-0.88,1.47,77,218,2.02731990814209,1.387385606765747
47,-0.020020535215735435,-2.4691810607910156,0.02542690373957157,36.7146278,3.1815371,28.41,-1.06,-0.87,1.47,77,218,2.0169835090637207,1.379470705986023
48,-0.05280786380171776,-2.4693150520324707,-0.017057528719305992,36.7146132,3.1815224,26.17,-1.06,-0.88,1.47,77,218,2.024526596069336,1.3880418539047241
49,-0.018443530425429344,-2.4694204330444336,0.024880914017558098,36.7145986,3.1815077,23.92,-1.06,-0.87,1.47,76,218,2.0216286182403564,1.3794629573822021
50,-0.17372560501098633,3.0898749828338623,-0.0907014012336731,36.7145766,3.1814953,21.46,-1.99,0.01,1.0,76,177,2.231598377227783,1.993481993675232
51,-0.20428162813186646,2.6685450077056885,-0.03079676441848278,36.7145388,3.1815115,20.9,-3.53,1.76,-0.06,75,152,3.954986572265625,3.9544761180877686
52,-0.12902474403381348,2.6729352474212646,0.03814009204506874,36.7144767,3.1815504,21.0,-3.98,2.02,0.04,75,153,4.468474864959717,4.468276500701904
53,-0.04777634143829346,3.0686018466949463,0.1977977305650711,36.7144251,3.1815741,20.94,-3.42,0.22,0.04,75,175,3.4302799701690674,3.429962158203125
54,-0.386943519115448,-2.1866579055786133,0.07364755868911743,36.7143767,3.1815352,20.93,-3.09,-4.32,0.01,74,234,5.318426609039307,5.318398952484131
55,-0.5222322940826416,-2.1526927947998047,0.004114916548132896,36.7143268,3.1814383,20.93,-4.34,-6.9,0.0,74,236,8.153973579406738,8.153968811035156
56,-0.4470614194869995,-2.1488289833068848,0.029499517753720284,36.714263,3.1813128,20.94,-4.93,-7.69,0.0,73,236,9.140340805053711,9.140340805053711
57,-0.34427016973495483,-2.15336275100708,-0.00578187545761466,36.7141862,3.1811647,20.97,-4.57,-7.04,0.0,73,236,8.402246475219727,8.402246475219727
58,-0.22339701652526855,-2.143674850463867,0.04062337800860405,36.7141298,3.1810552,20.96,-3.72,-5.89,0.03,73,237,6.9745612144470215,6.9744672775268555
59,-0.2747093141078949,-2.1204423904418945,-0.014522774145007133,36.7140822,3.1809586,20.94,-3.38,-5.66,0.01,72,238,6.598654270172119,6.598624229431152
60,-0.26550301909446716,-2.10744309425354,0.016748199239373207,36.7140302,3.1808482,20.94,-3.29,-5.67,0.01,72,239,6.558740615844727,6.558725357055664
61,-0.17380477488040924,-2.1085448265075684,-0.015507086180150509,36.7139862,3.1807541,20.94,-3.05,-5.25,0.0,71,239,6.07350492477417,6.073503494262695
62,0.16745172441005707,-2.109288454055786,0.02396852895617485,36.7139523,3.1806817,20.92,-1.71,-2.93,0.04,71,239,3.404205560684204,3.4039433002471924
63,0.0756213366985321,-2.1091396808624268,0.019028380513191223,36.7139395,3.1806541,20.93,-0.1,-0.2,-0.01,71,239,0.22803683578968048,0.2276034653186798
64,-0.026616306975483894,-2.111001968383789,0.06267669796943665,36.7139411,3.180656,20.9,0.31,-0.04,0.01,70,239,0.21004001796245575,0.20950397849082947
