timestamp,pitch,yaw,roll,lat,lon,alt,velocity_x,velocity_y,velocity_z,battery,heading,airspeed,groundspeed
0,-0.002656664466485381,0.012971187941730022,-0.023655489087104797,36.7156066,3.1846299,17.03,-0.01,0.02,-0.04,96,0,0.041663333773612976,0.03159854933619499
1,-0.047935571521520615,0.010018779896199703,0.1180664524435997,36.7156078,3.1846323,17.1,0.32,0.51,-0.01,95,0,0.6117511987686157,0.6116238832473755
2,-0.23386205732822418,1.3904730081558228,-0.10107571631669998,36.7156196,3.1846536,17.06,1.51,2.21,0.0,95,79,2.6794321537017822,2.6794183254241943
3,-0.16084802150726318,0.914811909198761,-0.027217309921979904,36.7156514,3.1847106,17.08,2.29,3.29,-0.02,95,52,4.014470100402832,4.014411926269531
4,0.014978289604187012,0.9367471933364868,0.02625402994453907,36.7156824,3.1847649,17.09,2.02,2.86,0.0,94,53,3.5105574131011963,3.5105483531951904
5,0.30245304107666016,0.719779372215271,-0.07201194018125534,36.7156962,3.1847872,17.07,-0.8,-1.19,0.0,94,41,1.4429678916931152,1.4429548978805542
6,-0.03184233233332634,-0.9825286269187927,-0.16906516253948212,36.7156735,3.1847459,17.11,-2.2,-3.19,-0.02,93,303,3.882446050643921,3.8823649883270264
7,-0.12701943516731262,-2.406991481781006,0.06631804257631302,36.7156432,3.1846904,17.11,-2.2,-3.28,0.01,93,222,3.9596190452575684,3.9595940113067627
8,-0.08093316853046417,-1.5163493156433105,0.2305217683315277,36.7156234,3.1846282,17.08,0.24,-2.84,0.01,93,273,2.8587613105773926,2.8587379455566406
9,-0.3842575252056122,-0.6523822546005249,0.09807969629764557,36.7156528,3.1845798,17.08,4.04,-3.14,0.0,92,322,5.1239013671875,5.123899936676025
10,-0.4949478805065155,-0.6220733523368835,-0.018510203808546066,36.7157271,3.1845143,17.08,6.69,-4.63,0.0,92,324,8.140253067016602,8.140249252319336
11,-0.4855191707611084,-0.616824746131897,0.02812158688902855,36.7158444,3.184413,17.1,7.88,-5.49,0.0,91,324,9.606921195983887,9.606918334960938
12,-0.3682210147380829,-0.6189646124839783,-0.013091007247567177,36.7159508,3.1843196,17.12,7.62,-5.38,-0.02,91,324,9.335967063903809,9.335938453674316
13,-0.05463360622525215,-0.6245754957199097,-0.0004769659717567265,36.7160563,3.1842266,17.15,5.25,-3.77,0.04,91,324,6.4706196784973145,6.470430850982666
14,0.03831242024898529,-1.1313272714614868,-0.2955027222633362,36.7161033,3.1841729,17.25,1.34,-2.88,-0.23,90,295,3.1878905296325684,3.179523229598999
15,-0.37439393997192383,-2.1330504417419434,-0.04758429899811745,36.7160868,3.1841046,18.31,-3.12,-4.58,-0.95,90,237,5.632292747497559,5.550189018249512
16,-0.48227259516716003,-2.1618456840515137,-0.025778386741876602,36.7160303,3.1840058,20.2,-4.91,-7.02,-1.45,89,236,8.694119453430176,8.571943283081055
17,-0.45131245255470276,-2.163080930709839,0.030816417187452316,36.7159459,3.1838538,23.0,-5.51,-8.02,-1.6,89,236,9.873180389404297,9.741617202758789
18,-0.42760413885116577,-2.163954257965088,-0.0029166103340685368,36.7158706,3.1837156,25.46,-5.57,-8.22,-1.58,88,236,10.062857627868652,9.936896324157715
19,-0.46410781145095825,-2.1641809940338135,-0.02707933448255062,36.715795,3.1835759,27.93,-5.53,-8.23,-1.58,88,236,10.0465087890625,9.920570373535156
20,-0.4433860778808594,-2.1623871326446533,0.02848036028444767,36.7157081,3.1834136,30.82,-5.49,-8.22,-1.59,88,236,10.020565032958984,9.892125129699707
21,-0.43510815501213074,-2.1645495891571045,-0.011616443283855915,36.7156336,3.1832747,33.29,-5.57,-8.27,-1.61,87,235,10.106446266174316,9.976517677307129
22,-0.4783076047897339,-2.1642422676086426,-0.01894553005695343,36.7155585,3.1831347,35.79,-5.51,-8.29,-1.61,87,236,10.095352172851562,9.964611053466797
23,-0.4350544512271881,-2.163719892501831,0.028946634382009506,36.7154714,3.1829715,38.71,-5.49,-8.27,-1.62,86,236,10.067666053771973,9.935726165771484
24,-0.4409530460834503,-2.1665568351745605,-0.01977039873600006,36.7153969,3.1828323,41.2,-5.52,-8.29,-1.63,86,235,10.098240852355957,9.965572357177734
25,-0.47891557216644287,-2.166700601577759,0.03484437242150307,36.7153095,3.1826689,44.12,-5.51,-8.32,-1.63,85,235,10.117411613464355,9.984365463256836
26,-0.43590104579925537,-2.1643238067626953,0.03449750691652298,36.7152348,3.182529,46.63,-5.51,-8.28,-1.63,85,236,10.083379745483398,9.950189590454102
27,-0.4889282286167145,-2.163893699645996,-0.01817612536251545,36.7151477,3.182366,49.55,-5.52,-8.3,-1.63,84,236,10.104736328125,9.971317291259766
28,-0.4698505699634552,-2.165311336517334,0.03039088286459446,36.7150727,3.1822262,52.06,-5.51,-8.28,-1.63,84,235,10.087898254394531,9.954314231872559
29,-0.232643723487854,-2.1681106090545654,0.0034824947360903025,36.7150013,3.1820934,54.46,-4.8,-7.14,-1.43,84,235,8.724126815795898,8.606038093566895
30,-0.09174022823572159,-2.1613454818725586,0.02776443399488926,36.7149404,3.1819792,56.4,-2.94,-4.48,-0.67,83,236,5.4124274253845215,5.369861125946045
31,-0.1155153214931488,-2.118793249130249,0.002122205914929509,36.714907,3.1819128,57.0,-2.22,-3.71,-0.17,83,238,4.3278727531433105,4.324493885040283
32,-0.15265294909477234,-2.1020641326904297,0.0331370085477829,36.7148737,3.1818412,57.06,-2.07,-3.67,-0.01,82,239,4.221742630004883,4.22172212600708
33,-0.0035416041500866413,-2.103548526763916,-0.030762135982513428,36.7148468,3.1817826,57.05,-1.72,-3.04,0.04,82,239,3.5037927627563477,3.5035109519958496
34,0.006099413614720106,-2.292666435241699,-0.02525237947702408,36.7148275,3.1817452,56.33,-1.22,-1.48,1.05,82,228,2.1940793991088867,1.9248974323272705
35,-0.05631471797823906,-2.4744770526885986,-0.01769820787012577,36.71481,3.1817255,53.77,-1.03,-0.8,1.44,81,218,1.9516457319259644,1.3100097179412842
36,-0.014043052680790424,-2.4710798263549805,0.021436600014567375,36.7147959,3.1817124,51.53,-1.03,-0.82,1.42,81,218,1.9406657218933105,1.3201626539230347
37,-0.05997130274772644,-2.4699950218200684,0.018591970205307007,36.7147793,3.181696,48.92,-1.06,-0.88,1.44,81,218,1.9983019828796387,1.382076621055603
38,-0.012114154174923897,-2.469714879989624,-0.011902276426553726,36.7147648,3.1816814,46.68,-1.06,-0.87,1.44,80,218,2.0011677742004395,1.3794047832489014
39,-0.060125160962343216,-2.4693236351013184,0.006642999593168497,36.7147502,3.1816668,44.44,-1.07,-0.88,1.45,80,218,2.009831428527832,1.3901560306549072
40,-0.040462225675582886,-2.469491720199585,-0.02346053719520569,36.7147332,3.1816497,41.82,-1.08,-0.89,1.46,79,218,2.0271873474121094,1.4004110097885132
41,-0.037589870393276215,-2.46964693069458,0.028262058272957802,36.7147186,3.181635,39.58,-1.06,-0.88,1.46,79,218,2.021322727203369,1.389309048652649
42,-0.06269326061010361,-2.4697265625,-0.005839602556079626,36.7147016,3.1816179,36.95,-1.06,-0.88,1.46,79,218,2.0194249153137207,1.3882626295089722
43,-0.017967842519283295,-2.468975305557251,0.021414410322904587,36.714687,3.1816032,34.71,-1.06,-0.88,1.47,78,218,2.023310899734497,1.3880019187927246
44,-0.05861954391002655,-2.4693174362182617,-0.012445630505681038,36.7146725,3.1815884,32.46,-1.07,-0.89,1.47,78,218,2.0358924865722656,1.3983888626098633
45,-0.01010329369455576,-2.4694643020629883,-0.020110590383410454,36.7146554,3.1815712,29.83,-1.07,-0.87,1.47,78,218,2.0182933807373047,1.3800917863845825
46,-0.0578172542154789,-2.470149278640747,0.01858053170144558,36.7146408,3.1815565,27.58,-1.06,-0.88,1.47,77,218,2.023169755935669,1.3852797746658325
47,-0.04688173532485962,-2.4693238735198975,-0.025011518970131874,36.7146239,3.1815394,24.97,-1.07,-0.88,1.48,77,218,2.033564805984497,1.3921091556549072
48,-0.02992120385169983,-2.469409227371216,0.028498874977231026,36.7146092,3.1815246,22.71,-1.06,-0.88,1.47,77,218,2.0225939750671387,1.3823788166046143
49,-0.03716516122221947,-2.4696266651153564,-0.030501697212457657,36.7145946,3.1815098,20.46,-1.07,-0.87,1.47,76,218,2.019685745239258,1.3829169273376465
50,-0.08762022107839584,-3.026763677597046,-0.10315684229135513,36.7145744,3.1814955,17.92,-1.78,-0.27,1.19,76,186,2.16442608833313,1.8018898963928223
51,-0.26133549213409424,2.6756582260131836,-0.03247564658522606,36.71454,3.1815065,17.07,-3.35,1.56,0.0,75,153,3.7000162601470947,3.7000133991241455
52,-0.15268804132938385,2.6794004440307617,-0.021476993337273598,36.7144788,3.1815437,17.17,-4.06,2.03,0.01,75,153,4.548959255218506,4.5489325523376465
53,-0.048654817044734955,2.917435646057129,0.1869194209575653,36.7144254,3.181572,17.12,-3.65,0.8,0.05,75,167,3.744363784790039,3.743973970413208
54,-0.3233187198638916,-2.2755579948425293,0.13584043085575104,36.7143818,3.181557,17.1,-2.92,-2.94,0.02,74,229,4.156251907348633,4.156193256378174
55,-0.48427245020866394,-2.142735719680786,0.03619745373725891,36.7143282,3.1814602,17.1,-4.11,-6.54,0.0,74,237,7.732157230377197,7.732150554656982
56,-0.4471244215965271,-2.1459391117095947,-0.009927747771143913,36.7142667,3.1813385,17.11,-4.89,-7.67,0.0,73,237,9.10537052154541,9.105368614196777
57,-0.357742041349411,-2.1531484127044678,0.023242194205522537,36.7141891,3.1811883,17.13,-4.73,-7.27,-0.01,73,236,8.683817863464355,8.683810234069824
58,-0.19837260246276855,-2.1459662914276123,0.01703380048274994,36.7141304,3.181075,17.13,-3.86,-6.07,0.02,73,237,7.198561668395996,7.19849967956543
59,-0.2875830829143524,-2.114854097366333,0.036982133984565735,36.7140747,3.1809615,17.1,-3.32,-5.66,0.01,72,238,6.567209243774414,6.567191123962402
60,-0.25639888644218445,-2.1001672744750977,0.006174711510539055,36.7140307,3.1808667,17.11,-3.23,-5.65,0.01,72,239,6.515777111053467,6.515768527984619
61,-0.22428525984287262,-2.100396156311035,-0.00428942684084177,36.7139871,3.1807716,17.11,-3.11,-5.45,0.0,71,239,6.28186559677124,6.28186559677124
62,0.11089951545000076,-2.100468635559082,0.025865068659186363,36.7139507,3.1806927,17.09,-2.03,-3.55,0.04,71,239,4.101222991943359,4.101017475128174
63,0.10102720558643341,-2.1008830070495605,0.023860059678554535,36.7139337,3.1806553,17.09,-0.28,-0.49,-0.02,71,239,0.5710704922676086,0.5707021951675415
64,-0.025364680215716362,-2.102325439453125,0.028928207233548164,36.713934,3.1806553,17.07,0.18,0.09,0.03,70,239,0.20844852924346924,0.20465247333049774
