timestamp,pitch,yaw,roll,lat,lon,alt,velocity_x,velocity_y,velocity_z,battery,heading,airspeed,groundspeed
0,-0.013783179223537445,0.04013600945472717,-0.019712485373020172,36.7156067,3.1846299,19.58,-0.02,0.02,0.05,96,2,0.06508014351129532,0.03466637432575226
1,-0.047955144196748734,0.044478341937065125,0.12470082938671112,36.7156078,3.1846324,19.54,0.32,0.58,0.0,95,2,0.6631101369857788,0.6631022691726685
2,-0.1967449188232422,1.464368462562561,-0.06052852049469948,36.7156237,3.1846637,19.51,1.72,2.74,-0.04,95,83,3.2411069869995117,3.240851402282715
3,-0.17226091027259827,0.970227062702179,-0.021390924230217934,36.7156509,3.1847176,19.56,2.19,3.46,-0.04,95,55,4.096271991729736,4.0960693359375
4,0.07997280359268188,0.9853175282478333,0.030468355864286423,36.71568,3.1847738,19.59,1.79,2.78,-0.02,94,56,3.313662052154541,3.3135950565338135
5,0.2836703360080719,1.4115097522735596,0.16640526056289673,36.7156887,3.1847902,19.59,-1.1,-1.56,0.0,94,80,1.9175996780395508,1.917575478553772
6,-0.05485449731349945,3.101398229598999,0.11933965981006622,36.7156639,3.1847458,19.63,-2.27,-3.21,-0.01,93,177,3.942312717437744,3.9422740936279297
7,-0.05355657637119293,-1.987802267074585,0.06686131656169891,36.7156291,3.1846802,19.61,-1.96,-3.2,0.0,93,246,3.759918689727783,3.7599172592163086
8,-0.14651814103126526,-1.3399561643600464,0.24788548052310944,36.7156173,3.1846282,19.6,0.64,-2.79,0.0,93,283,2.8683922290802,2.868387222290039
9,-0.39628249406814575,-0.648003876209259,0.06921564787626266,36.7156517,3.1845795,19.6,4.37,-3.27,0.0,92,322,5.470280647277832,5.470279693603516
10,-0.5420063138008118,-0.6270294785499573,0.026367999613285065,36.7157453,3.1844976,19.6,7.15,-4.99,-0.01,92,324,8.727547645568848,8.727538108825684
11,-0.45483487844467163,-0.6204485297203064,0.019826754927635193,36.7158489,3.1844072,19.62,7.85,-5.54,-0.01,91,324,9.61659049987793,9.616579055786133
12,-0.3578674793243408,-0.6230548620223999,-0.007291880436241627,36.715971,3.1842993,19.66,7.22,-5.15,-0.01,91,324,8.876192092895508,8.876179695129395
13,0.0030156616121530533,-0.637559175491333,-0.03249306231737137,36.7160554,3.1842242,19.67,4.86,-3.62,0.04,91,323,6.060870170593262,6.060689449310303
14,-0.06647997349500656,-1.2972561120986938,-0.30196613073349,36.7160958,3.1841719,19.83,0.73,-2.93,-0.29,90,285,3.0443012714385986,3.0296707153320312
15,-0.3903202414512634,-2.1464297771453857,-0.05610910803079605,36.7160712,3.1840994,21.03,-3.45,-4.91,-1.03,90,237,6.1007890701293945,6.01210355758667
16,-0.5229244828224182,-2.1615452766418457,-0.0017497607041150331,36.716012,3.1839958,23.01,-5.04,-7.25,-1.49,89,236,8.961665153503418,8.836726188659668
17,-0.4161812365055084,-2.164212942123413,0.01615597866475582,36.7159262,3.1838407,25.84,-5.5,-8.05,-1.6,89,236,9.890761375427246,9.759672164916992
18,-0.46605384349823,-2.163675308227539,-0.029300283640623093,36.7158511,3.1837023,28.31,-5.53,-8.19,-1.57,88,236,10.017842292785645,9.893233299255371
19,-0.4992818236351013,-2.163240432739258,0.01205983106046915,36.7157761,3.183563,30.78,-5.55,-8.25,-1.57,88,236,10.075109481811523,9.950895309448242
20,-0.4249112010002136,-2.166534185409546,-0.007258669473230839,36.7156885,3.1834003,33.67,-5.53,-8.25,-1.59,88,235,10.069890022277832,9.942188262939453
21,-0.4661518633365631,-2.163287878036499,-0.03368915617465973,36.7156138,3.1832608,36.15,-5.48,-8.26,-1.61,87,236,10.053296089172363,9.923418045043945
22,-0.44414326548576355,-2.162276029586792,0.025031646713614464,36.715527,3.1830983,39.06,-5.52,-8.29,-1.62,87,236,10.097986221313477,9.96709156036377
23,-0.4374430477619171,-2.163621187210083,-0.02653365768492222,36.715452,3.1829582,41.56,-5.53,-8.3,-1.62,86,236,10.10665225982666,9.975482940673828
24,-0.4883711636066437,-2.167180061340332,-0.007009440567344427,36.715377,3.1828184,44.05,-5.51,-8.27,-1.62,86,235,10.080854415893555,9.948342323303223
25,-0.42379438877105713,-2.1626341342926025,0.01442771777510643,36.71529,3.1826553,46.97,-5.48,-8.29,-1.63,85,236,10.07506275177002,9.94108772277832
26,-0.4577091336250305,-2.1631574630737305,-0.03379843011498451,36.7152156,3.1825157,49.48,-5.53,-8.3,-1.62,85,236,10.110852241516113,9.978642463684082
27,-0.45075130462646484,-2.1650516986846924,0.04041162133216858,36.7151279,3.1823523,52.4,-5.51,-8.29,-1.64,84,235,10.094902992248535,9.960586547851562
28,-0.39715203642845154,-2.165376663208008,-0.004886120557785034,36.7150533,3.1822127,54.91,-5.49,-8.23,-1.63,84,235,10.035082817077637,9.901415824890137
29,-0.2477891594171524,-2.167457103729248,-0.019000332802534103,36.7149835,3.1820829,57.27,-4.63,-6.88,-1.37,84,235,8.416546821594238,8.303296089172363
30,-0.030091149732470512,-2.1539323329925537,0.02014065720140934,36.7149255,3.1819742,59.05,-2.75,-4.26,-0.59,83,236,5.117829322814941,5.083229064941406
31,-0.16823284327983856,-2.1028268337249756,0.01808316633105278,36.714894,3.1819097,59.55,-2.1,-3.69,-0.12,83,239,4.2519097328186035,4.249956130981445
32,-0.1443023830652237,-2.087080478668213,-0.02277540974318981,36.7148623,3.1818382,59.57,-2.0,-3.72,-0.01,82,240,4.229394435882568,4.229350566864014
33,-0.0024199809413403273,-2.0920636653900146,0.00979390274733305,36.7148369,3.1817809,59.54,-1.59,-2.86,0.11,82,240,3.2793502807617188,3.277273654937744
34,0.037608422338962555,-2.3411271572113037,-0.05910004675388336,36.7148186,3.1817466,58.59,-1.19,-1.31,1.21,82,225,2.1567752361297607,1.77912437915802
35,-0.010767866857349873,-2.4663894176483154,0.01990240253508091,36.7148016,3.1817288,55.96,-1.03,-0.79,1.42,81,218,1.9336152076721191,1.3051958084106445
36,-0.05537160485982895,-2.4701027870178223,-0.016164934262633324,36.7147876,3.1817155,53.73,-1.04,-0.84,1.42,81,218,1.9590394496917725,1.3485783338546753
37,-0.013941426761448383,-2.469982385635376,-0.01620875671505928,36.7147708,3.1816989,51.12,-1.07,-0.87,1.44,81,218,1.9985345602035522,1.3858140707015991
38,-0.05795104801654816,-2.4695236682891846,0.01592632755637169,36.7147563,3.1816842,48.88,-1.07,-0.87,1.44,80,218,2.0017642974853516,1.384268045425415
39,-0.04219305142760277,-2.4691107273101807,-0.024737799540162086,36.7147393,3.1816672,46.26,-1.07,-0.88,1.44,80,218,2.010523796081543,1.3931365013122559
40,-0.01860428974032402,-2.4694039821624756,0.024680346250534058,36.7147247,3.1816525,44.02,-1.06,-0.87,1.46,79,218,2.0119879245758057,1.383604884147644
41,-0.04379962384700775,-2.469592571258545,-0.02400100976228714,36.7147101,3.1816379,41.77,-1.06,-0.89,1.46,79,218,2.0213871002197266,1.3918205499649048
42,-0.009598004631698132,-2.4701616764068604,-0.004721092060208321,36.7146931,3.1816208,39.15,-1.07,-0.89,1.46,79,218,2.022254705429077,1.3946012258529663
43,-0.06223437190055847,-2.4692435264587402,0.0024164908099919558,36.7146785,3.181606,36.91,-1.07,-0.89,1.47,78,218,2.0290091037750244,1.393699049949646
44,-0.03898365795612335,-2.469493865966797,-0.023876622319221497,36.7146615,3.1815888,34.28,-1.07,-0.89,1.47,78,218,2.0306077003479004,1.3948918581008911
45,-0.03589123487472534,-2.469438076019287,0.027255307883024216,36.7146469,3.1815741,32.03,-1.06,-0.88,1.46,78,218,2.0181374549865723,1.383433222770691
46,-0.033723387867212296,-2.4697937965393066,-0.02247135527431965,36.7146323,3.1815594,29.78,-1.07,-0.88,1.47,77,218,2.0261294841766357,1.3916451930999756
47,-0.010538479313254356,-2.4693961143493652,0.007825970649719238,36.7146153,3.1815422,27.16,-1.06,-0.88,1.48,77,218,2.0248444080352783,1.381598711013794
48,-0.06373129785060883,-2.4693996906280518,-0.0030684825032949448,36.7146008,3.1815276,24.9,-1.06,-0.88,1.47,77,218,2.0198957920074463,1.380550503730774
49,-0.009744182229042053,-2.4693527221679688,0.010299114510416985,36.7145862,3.1815128,22.65,-1.07,-0.88,1.47,76,218,2.0232532024383545,1.3895295858383179
50,-0.15448227524757385,3.1167726516723633,-0.08277726173400879,36.7145644,3.1815,20.19,-1.95,-0.05,1.03,76,178,2.217355966567993,1.959411382675171
51,-0.21849951148033142,2.6755690574645996,-0.041226550936698914,36.7145268,3.1815153,19.6,-3.53,1.72,-0.05,75,153,3.9362781047821045,3.935945987701416
52,-0.1376461684703827,2.679889678955078,0.02330428548157215,36.7144645,3.1815537,19.69,-4.06,2.04,0.04,75,153,4.553025722503662,4.552836894989014
53,-0.0503375343978405,3.028362274169922,0.186983123421669,36.7144118,3.1815787,19.64,-3.52,0.37,0.04,75,173,3.5414440631866455,3.541102170944214
54,-0.3832090497016907,-2.1890623569488525,0.07882905751466751,36.7143627,3.1815434,19.62,-3.06,-4.15,0.01,74,234,5.164945602416992,5.164920330047607
55,-0.5187089443206787,-2.1510837078094482,0.00864317361265421,36.7143136,3.1814489,19.62,-4.3,-6.83,0.0,74,236,8.075450897216797,8.075445175170898
56,-0.4471982717514038,-2.149125814437866,0.03073052503168583,36.7142501,3.181324,19.63,-4.91,-7.69,0.0,73,236,9.134791374206543,9.134790420532227
57,-0.34588170051574707,-2.1527233123779297,-0.008397492580115795,36.714173,3.181175,19.66,-4.59,-7.08,0.0,73,236,8.44424819946289,8.444249153137207
58,-0.2289551943540573,-2.1429686546325684,0.04259900003671646,36.7141164,3.1810651,19.65,-3.73,-5.93,0.03,73,237,7.014320373535156,7.014227867126465
59,-0.30004939436912537,-2.111607313156128,0.007722050417214632,36.7140616,3.1809525,19.63,-3.31,-5.66,0.01,72,239,6.566783905029297,6.566765785217285
60,-0.2610517144203186,-2.098862409591675,0.031055258587002754,36.7140176,3.1808573,19.63,-3.22,-5.65,0.01,72,239,6.513521194458008,6.5135111808776855
61,-0.15495699644088745,-2.0999343395233154,0.007100705057382584,36.7139679,3.1807488,19.63,-2.89,-5.07,0.0,71,239,5.84807825088501,5.848076820373535
62,0.18907153606414795,-2.101041078567505,-0.008517603389918804,36.7139367,3.1806811,19.6,-1.48,-2.58,0.03,71,239,2.9859371185302734,2.9857699871063232
63,0.07829834520816803,-2.1006088256835938,0.00820134300738573,36.7139267,3.1806591,19.61,-0.13,-0.26,-0.01,71,239,0.29834941029548645,0.2977858781814575
64,-0.015079915523529053,-2.101411819458008,0.04702843353152275,36.7139281,3.1806608,19.58,0.26,0.0,0.03,70,239,0.26269078254699707,0.2606024444103241
