timestamp,pitch,yaw,roll,lat,lon,alt,velocity_x,velocity_y,velocity_z,battery,heading,airspeed,groundspeed
0,-0.02520771510899067,-0.04290425404906273,0.005239016376435757,36.7156066,3.1846299,20.49,-0.01,0.02,0.02,96,357,0.03679048269987106,0.030819326639175415
1,-0.04521659389138222,-0.02517334371805191,0.1017497330904007,36.715608,3.1846327,20.46,0.38,0.62,0.0,95,358,0.7310348153114319,0.7309678196907043
2,-0.22841882705688477,1.469793438911438,-0.09728141874074936,36.7156216,3.1846581,20.44,1.72,2.53,-0.02,95,84,3.069674253463745,3.069563627243042
3,-0.1893356889486313,0.9111431837081909,0.010861840099096298,36.7156564,3.1847209,20.47,2.45,3.56,-0.03,95,52,4.32943868637085,4.329319953918457
4,0.059898942708969116,0.9430854916572571,0.0016563473036512733,36.715689,3.1847791,20.49,2.07,2.99,-0.01,94,54,3.6492016315460205,3.649167776107788
5,0.3493974506855011,0.7897915244102478,-0.030026502907276154,36.7157025,3.1848015,20.47,-0.83,-1.25,0.0,94,45,1.5106841325759888,1.5106830596923828
6,-0.07181672751903534,-0.9530629515647888,-0.18090517818927765,36.7156797,3.1847598,20.52,-2.21,-3.2,-0.02,93,305,3.8903300762176514,3.8902502059936523
7,-0.05258622020483017,-2.4282376766204834,0.0411238819360733,36.7156445,3.1846951,20.51,-2.06,-3.27,0.01,93,220,3.8727355003356934,3.872714042663574
8,-0.07268599420785904,-1.4918396472930908,0.2801515460014343,36.7156298,3.1846422,20.49,0.28,-2.83,0.01,93,274,2.848128080368042,2.848100185394287
9,-0.4016735553741455,-0.6524757742881775,0.04567616805434227,36.7156596,3.1845941,20.49,4.06,-3.15,0.0,92,322,5.146367073059082,5.146366596221924
10,-0.4936100244522095,-0.6254101991653442,0.0400705449283123,36.7157494,3.1845152,20.49,7.02,-4.82,-0.01,92,324,8.526352882385254,8.52634048461914
11,-0.4694879651069641,-0.6181674003601074,-0.027184845879673958,36.7158518,3.1844268,20.51,7.85,-5.5,0.0,91,324,9.597000122070312,9.596999168395996
12,-0.37117642164230347,-0.6209095120429993,0.032578300684690475,36.7159747,3.1843185,20.54,7.42,-5.26,-0.01,91,324,9.09979248046875,9.099770545959473
13,-0.023211877793073654,-0.6260757446289062,-0.04576835036277771,36.7160632,3.1842406,20.56,5.25,-3.77,0.04,91,324,6.472453594207764,6.472277641296387
14,0.008915732614696026,-1.1350512504577637,-0.24268686771392822,36.71611,3.1841867,20.67,1.29,-2.87,-0.23,90,294,3.167241334915161,3.158350944519043
15,-0.4208141565322876,-2.1321346759796143,-0.09413258731365204,36.7160928,3.1841182,21.74,-3.14,-4.59,-0.95,90,237,5.646099090576172,5.564275741577148
16,-0.49432429671287537,-2.1612298488616943,0.042162951081991196,36.7160365,3.1840196,23.63,-4.94,-7.05,-1.45,89,236,8.73785400390625,8.61617660522461
17,-0.4349396526813507,-2.164194107055664,-0.03271668031811714,36.7159514,3.1838667,26.43,-5.53,-8.01,-1.6,89,236,9.871177673339844,9.739786148071289
18,-0.4900928735733032,-2.1664204597473145,0.015182927250862122,36.715876,3.1837288,28.89,-5.52,-8.19,-1.58,88,235,10.004861831665039,9.879274368286133
19,-0.4515187442302704,-2.163097620010376,0.04078180715441704,36.7158012,3.1835894,31.36,-5.52,-8.24,-1.59,88,236,10.052617073059082,9.925838470458984
20,-0.46918851137161255,-2.1653919219970703,-0.02865494415163994,36.7157139,3.1834269,34.25,-5.55,-8.27,-1.59,88,235,10.094687461853027,9.96734619140625
21,-0.48794621229171753,-2.163893461227417,0.009306157007813454,36.7156389,3.1832873,36.73,-5.5,-8.25,-1.6,87,236,10.050317764282227,9.920655250549316
22,-0.4361973702907562,-2.1639673709869385,-0.015277295373380184,36.7155519,3.1831245,39.65,-5.51,-8.29,-1.61,87,236,10.087377548217773,9.956768989562988
23,-0.44037434458732605,-2.1632015705108643,-0.02658926695585251,36.7154896,3.1830079,41.73,-5.53,-8.29,-1.62,86,236,10.103724479675293,9.972843170166016
24,-0.47360286116600037,-2.168219804763794,0.03947208449244499,36.7154021,3.182845,44.64,-5.52,-8.28,-1.63,86,235,10.087240219116211,9.9537992477417
25,-0.448835551738739,-2.1642069816589355,-0.02468806691467762,36.7153153,3.1826821,47.57,-5.49,-8.29,-1.62,85,236,10.084754943847656,9.952552795410156
26,-0.49443817138671875,-2.1640307903289795,-0.005902192555367947,36.7152406,3.182542,50.07,-5.53,-8.3,-1.62,85,236,10.109619140625,9.977594375610352
27,-0.41796404123306274,-2.1651878356933594,0.0073958830907940865,36.715153,3.1823786,52.98,-5.51,-8.28,-1.64,84,235,10.09237289428711,9.957651138305664
28,-0.45189782977104187,-2.1657769680023193,-0.027379600331187248,36.7150784,3.1822392,55.49,-5.49,-8.27,-1.63,84,235,10.063453674316406,9.92969036102295
29,-0.2891182601451874,-2.168853998184204,0.02156163938343525,36.7150074,3.1821071,57.89,-4.81,-7.15,-1.42,84,235,8.747578620910645,8.630117416381836
30,-0.05352877452969551,-2.1606314182281494,-0.012284459546208382,36.7149462,3.1819925,59.82,-2.93,-4.47,-0.67,83,236,5.399284362792969,5.357213497161865
31,-0.14695966243743896,-2.1194677352905273,0.041937075555324554,36.714913,3.1819264,60.41,-2.2,-3.68,-0.16,83,238,4.296352386474609,4.2931108474731445
32,-0.18185806274414062,-2.102027177810669,-0.01264205202460289,36.7148799,3.181855,60.47,-2.07,-3.68,-0.01,82,239,4.2247514724731445,4.22473669052124
33,0.01488128025084734,-2.103963851928711,0.016472794115543365,36.7148531,3.1817966,60.46,-1.73,-3.03,0.04,82,239,3.498558759689331,3.49820876121521
34,0.008972534909844398,-2.2966561317443848,-0.0714917778968811,36.7148337,3.1817592,59.72,-1.21,-1.47,1.06,82,228,2.1871612071990967,1.9082280397415161
35,-0.011796446517109871,-2.474599599838257,-0.016771875321865082,36.7148162,3.1817398,57.16,-1.03,-0.79,1.44,81,218,1.9475404024124146,1.304233431816101
36,-0.06282589584589005,-2.471997022628784,0.017331795766949654,36.7148022,3.1817266,54.92,-1.04,-0.82,1.42,81,218,1.9492424726486206,1.3295365571975708
37,-0.04673884063959122,-2.4701766967773438,-0.021545181050896645,36.7147855,3.1817103,52.31,-1.06,-0.88,1.44,81,218,2.0003247261047363,1.3829044103622437
38,-0.024571143090724945,-2.4700052738189697,0.027008056640625,36.714771,3.1816958,50.06,-1.06,-0.87,1.44,80,218,1.9954311847686768,1.3762027025222778
39,-0.06290287524461746,-2.469571590423584,0.004767208825796843,36.714754,3.1816787,47.45,-1.06,-0.89,1.45,80,218,2.0109925270080566,1.392342209815979
40,-0.03265842795372009,-2.470039129257202,0.027453022077679634,36.7147419,3.1816665,45.58,-1.07,-0.88,1.46,79,218,2.0181987285614014,1.3917194604873657
41,-0.06220511347055435,-2.47012996673584,0.003337173257023096,36.7147248,3.1816493,42.97,-1.06,-0.88,1.47,79,218,2.0223238468170166,1.3868763446807861
42,-0.035181738436222076,-2.4701504707336426,-0.024612709879875183,36.7147079,3.1816322,40.34,-1.07,-0.89,1.47,79,218,2.029533624649048,1.3991215229034424
43,-0.04343203455209732,-2.4696404933929443,0.025741111487150192,36.7146933,3.1816175,38.1,-1.05,-0.88,1.47,78,218,2.0209898948669434,1.3794223070144653
44,-0.06356921792030334,-2.469743251800537,-0.0016342011513188481,36.7146763,3.1816004,35.47,-1.06,-0.88,1.47,78,218,2.0263068675994873,1.384392261505127
45,-0.010382294654846191,-2.4696600437164307,0.010675603523850441,36.7146617,3.1815857,33.22,-1.06,-0.88,1.47,78,218,2.025280475616455,1.3862491846084595
46,-0.05975157395005226,-2.469991683959961,-0.010390335693955421,36.7146471,3.1815709,30.98,-1.06,-0.89,1.47,77,218,2.0291073322296143,1.3897567987442017
47,-0.017672017216682434,-2.4699180126190186,-0.019223399460315704,36.71463,3.1815538,28.35,-1.06,-0.88,1.47,77,218,2.026499032974243,1.3868532180786133
48,-0.04841601848602295,-2.470261573791504,0.02717481553554535,36.7146155,3.1815391,26.09,-1.05,-0.88,1.47,77,218,2.0187699794769287,1.3786911964416504
49,-0.01853514090180397,-2.4701216220855713,-0.014074972830712795,36.7146009,3.1815244,23.85,-1.06,-0.88,1.47,76,218,2.0220046043395996,1.3863954544067383
50,-0.09734971076250076,-3.0413920879364014,-0.08746818453073502,36.7145806,3.18151,21.31,-1.78,-0.25,1.18,76,185,2.157857656478882,1.8013566732406616
51,-0.2556664049625397,2.6696455478668213,-0.04735757037997246,36.714546,3.1815216,20.48,-3.34,1.59,0.0,75,152,3.707981824874878,3.707977771759033
52,-0.14051619172096252,2.672351360321045,-0.017410308122634888,36.7144853,3.1815593,20.58,-4.0,2.04,0.01,75,153,4.50200891494751,4.5019850730896
53,-0.04745284840464592,2.942167282104492,0.1919119656085968,36.7144325,3.1815869,20.53,-3.57,0.7,0.05,75,168,3.641124725341797,3.6407506465911865
54,-0.4007425904273987,-2.200709819793701,0.08582386374473572,36.714383,3.1815595,20.51,-2.99,-3.76,0.01,74,233,4.812107086181641,4.812077522277832
55,-0.4962826669216156,-2.145228862762451,0.03703571483492851,36.7143356,3.1814702,20.51,-4.17,-6.63,0.0,74,237,7.8430495262146,7.843045711517334
56,-0.44682398438453674,-2.149956226348877,-0.02671063132584095,36.714262,3.1813253,20.52,-4.93,-7.71,0.0,73,236,9.125014305114746,9.12501335144043
57,-0.35176411271095276,-2.1526269912719727,0.022261926904320717,36.7141957,3.1811971,20.54,-4.66,-7.19,0.0,73,236,8.581347465515137,8.58134651184082
58,-0.21484678983688354,-2.1465413570404053,0.010852591134607792,36.7141378,3.1810851,20.54,-3.85,-6.03,0.03,73,237,7.168025970458984,7.167961597442627
59,-0.28606879711151123,-2.1203885078430176,0.03792326897382736,36.7140816,3.1809716,20.51,-3.38,-5.67,0.01,72,238,6.606948375701904,6.606935501098633
60,-0.25897523760795593,-2.108159303665161,-0.01170603558421135,36.7140368,3.1808764,20.52,-3.28,-5.63,0.01,72,239,6.522875785827637,6.522867202758789
61,-0.15376505255699158,-2.108290910720825,0.03225020319223404,36.7139856,3.1807671,20.52,-3.01,-5.2,0.0,71,239,6.0201520919799805,6.0201520919799805
62,0.12437023222446442,-2.1091129779815674,0.007720168214291334,36.7139563,3.1807045,20.5,-2.0,-3.43,0.04,71,239,3.9799540042877197,3.979746103286743
63,0.11303122341632843,-2.1094038486480713,0.028781196102499962,36.7139399,3.1806692,20.5,-0.23,-0.42,-0.01,71,239,0.4889412820339203,0.48855194449424744
64,-0.034204740077257156,-2.110978364944458,0.047645602375268936,36.7139405,3.1806699,20.48,0.2,0.06,0.03,70,239,0.2225979119539261,0.21906784176826477
