timestamp,pitch,yaw,roll,lat,lon,alt,velocity_x,velocity_y,velocity_z,battery,heading,airspeed,groundspeed
0,-0.005733242258429527,0.035620734095573425,0.028001630678772926,36.7156067,3.1846299,19.39,-0.03,0.03,0.05,96,2,0.07479199767112732,0.05051645264029503
1,-0.06072307005524635,0.03504660725593567,0.06532344967126846,36.7156079,3.1846325,19.36,0.3,0.56,0.0,95,2,0.643155038356781,0.6431508660316467
2,-0.19803687930107117,1.4454071521759033,-0.06860131025314331,36.7156193,3.1846555,19.32,1.45,2.37,-0.02,95,82,2.7853856086730957,2.785287857055664
3,-0.17211316525936127,0.9641740918159485,0.028762275353074074,36.7156495,3.1847167,19.38,2.18,3.54,-0.04,95,55,4.161092281341553,4.160890579223633
4,0.022280680015683174,0.9902149438858032,-0.015169660560786724,36.7156791,3.1847753,19.41,1.99,3.15,-0.02,94,56,3.7359695434570312,3.7358927726745605
5,0.3557620048522949,1.3140206336975098,0.131792351603508,36.7156934,3.1848035,19.4,-0.66,-0.94,0.0,94,75,1.1506909132003784,1.1506843566894531
6,-0.08919713646173477,2.929286003112793,0.1577197015285492,36.715672,3.1847648,19.45,-2.19,-3.11,-0.02,93,167,3.809440851211548,3.8093371391296387
7,-0.09523652493953705,-1.9378228187561035,0.004109209403395653,36.7156419,3.1847097,19.44,-2.23,-3.27,0.0,93,248,3.9650559425354004,3.9650442600250244
8,-0.046600185334682465,-1.5615198612213135,0.25666168332099915,36.71562,3.1846468,19.42,0.0,-2.9,0.0,93,270,2.9075162410736084,2.90751051902771
9,-0.38038384914398193,-0.6553058624267578,0.056582480669021606,36.7156457,3.1845984,19.41,3.78,-3.07,0.0,92,322,4.877547740936279,4.8775434494018555
10,-0.5364251732826233,-0.6210798025131226,0.021651046350598335,36.7157169,3.1845348,19.42,6.54,-4.55,0.0,92,324,7.977968215942383,7.977967262268066
11,-0.4705910086631775,-0.6214787364006042,-0.022238420322537422,36.7158329,3.1844341,19.44,7.87,-5.51,0.0,91,324,9.611618995666504,9.611615180969238
12,-0.43167904019355774,-0.6218203902244568,-0.01627439819276333,36.7159394,3.1843404,19.45,7.63,-5.44,-0.02,91,324,9.378639221191406,9.37861156463623
13,-0.0333288349211216,-0.6270353198051453,-0.019798090681433678,36.7160462,3.1842455,19.48,5.39,-3.89,0.03,91,324,6.653590202331543,6.653492450714111
14,0.01941862888634205,-1.0639845132827759,-0.24342553317546844,36.7160958,3.1841906,19.57,1.58,-2.88,-0.21,90,299,3.2987680435180664,3.2917842864990234
15,-0.3894018828868866,-2.1301567554473877,-0.10130990296602249,36.7160823,3.1841233,20.58,-2.98,-4.46,-0.92,90,237,5.453006267547607,5.373330593109131
16,-0.5071173906326294,-2.16111159324646,0.02158793807029724,36.7160273,3.1840268,22.43,-4.83,-6.92,-1.44,89,236,8.572240829467773,8.450396537780762
17,-0.429992139339447,-2.164949655532837,-0.01280473917722702,36.7159432,3.1838761,25.22,-5.57,-8.04,-1.6,89,236,9.868120193481445,9.735209465026855
18,-0.4828859567642212,-2.164844274520874,-0.01774837262928486,36.7158677,3.1837379,27.68,-5.54,-8.23,-1.57,88,235,10.048884391784668,9.923951148986816
19,-0.4797980487346649,-2.1624557971954346,0.025074901059269905,36.7157926,3.183598,30.14,-5.52,-8.24,-1.59,88,236,10.05617904663086,9.928581237792969
20,-0.4379439949989319,-2.1666646003723145,-0.02082006260752678,36.7157054,3.1834359,33.02,-5.53,-8.23,-1.61,88,235,10.054267883300781,9.924046516418457
21,-0.48933088779449463,-2.1656546592712402,-0.011242789216339588,36.7156305,3.1832965,35.51,-5.52,-8.28,-1.61,87,235,10.085892677307129,9.955653190612793
22,-0.4353678226470947,-2.1634793281555176,0.03061469830572605,36.7155433,3.1831332,38.43,-5.5,-8.26,-1.62,87,236,10.060596466064453,9.928776741027832
23,-0.44721242785453796,-2.164356231689453,-0.028185920789837837,36.715469,3.1829938,40.92,-5.51,-8.27,-1.62,86,236,10.076099395751953,9.94398307800293
24,-0.49491098523139954,-2.166757106781006,-0.0019512567669153214,36.7153941,3.1828544,43.41,-5.54,-8.3,-1.63,86,235,10.116868019104004,9.983280181884766
25,-0.4232533276081085,-2.165248394012451,0.020177099853754044,36.7153066,3.1826909,46.34,-5.51,-8.3,-1.63,85,235,10.101486206054688,9.967729568481445
26,-0.4446832239627838,-2.1641945838928223,-0.02194700576364994,36.715232,3.1825509,48.85,-5.5,-8.28,-1.62,85,236,10.075664520263672,9.942996978759766
27,-0.47239553928375244,-2.164302110671997,0.035932913422584534,36.7151453,3.1823883,51.76,-5.53,-8.28,-1.64,84,236,10.101212501525879,9.966373443603516
28,-0.4230617880821228,-2.164189338684082,0.011216716840863228,36.7150701,3.1822483,54.26,-5.54,-8.3,-1.65,84,236,10.11806869506836,9.982490539550781
29,-0.28684568405151367,-2.167766571044922,-0.023778395727276802,36.7149981,3.1821146,56.68,-4.86,-7.25,-1.45,84,235,8.852182388305664,8.73110294342041
30,-0.04314681142568588,-2.160404682159424,0.02206387184560299,36.7149361,3.1819983,58.68,-3.0,-4.57,-0.71,83,236,5.5165181159973145,5.469871520996094
31,-0.15845777094364166,-2.110576868057251,-0.002439353382214904,36.7149025,3.1819311,59.33,-2.18,-3.72,-0.18,83,239,4.325348854064941,4.321300029754639
32,-0.12295568734407425,-2.085644006729126,-0.0048691146075725555,36.7148702,3.1818591,59.4,-1.99,-3.66,0.0,82,240,4.172590732574463,4.17258358001709
33,-0.042866963893175125,-2.087400436401367,-0.0002394319453742355,36.7148442,3.1818002,59.4,-1.7,-3.11,0.03,82,240,3.5519134998321533,3.5517022609710693
34,0.046742033213377,-2.2716240882873535,-0.04821564629673958,36.714825,3.1817614,58.73,-1.22,-1.54,1.0,82,229,2.2099087238311768,1.96809720993042
35,-0.041871327906847,-2.4778151512145996,0.023017318919301033,36.7148073,3.1817412,56.2,-1.03,-0.8,1.45,81,218,1.9593693017959595,1.3123972415924072
36,-0.028978439047932625,-2.4720113277435303,-0.02572610415518284,36.7147933,3.181728,53.97,-1.04,-0.82,1.42,81,218,1.953751564025879,1.331600308418274
37,-0.052748989313840866,-2.4705851078033447,0.025407135486602783,36.714779,3.1817141,51.73,-1.05,-0.87,1.44,81,218,1.9928066730499268,1.3706144094467163
38,-0.057265594601631165,-2.4698550701141357,-0.019196834415197372,36.7147621,3.1816972,49.11,-1.06,-0.88,1.44,80,218,2.004697799682617,1.3876632452011108
39,-0.02118760533630848,-2.4691500663757324,0.025900620967149734,36.7147475,3.1816825,46.86,-1.06,-0.87,1.45,80,218,2.003694772720337,1.3797712326049805
40,-0.06013835221529007,-2.4699487686157227,0.01693357154726982,36.7147305,3.1816655,44.25,-1.07,-0.89,1.46,79,218,2.0246732234954834,1.395672082901001
41,-0.008449574932456017,-2.4696168899536133,-0.004735806956887245,36.714716,3.1816507,42.01,-1.06,-0.88,1.47,79,218,2.024508476257324,1.3884141445159912
42,-0.032096777111291885,-2.4697115421295166,0.028478164225816727,36.7146989,3.1816336,39.38,-1.06,-0.89,1.47,79,218,2.0236575603485107,1.3875030279159546
43,-0.02617904543876648,-2.469187021255493,-0.02384800836443901,36.7146844,3.1816189,37.14,-1.06,-0.88,1.47,78,218,2.024563789367676,1.3824628591537476
44,-0.04194003716111183,-2.469428300857544,0.028122762218117714,36.7146698,3.1816042,34.89,-1.05,-0.89,1.48,78,218,2.0271379947662354,1.3824650049209595
45,-0.05765281245112419,-2.4691998958587646,-0.0177045539021492,36.7146527,3.181587,32.26,-1.06,-0.88,1.47,78,218,2.02286958694458,1.381117343902588
46,-0.013142431154847145,-2.469411611557007,0.017874224111437798,36.7146382,3.1815723,30.02,-1.06,-0.88,1.48,77,218,2.025961399078369,1.3833779096603394
47,-0.0603741779923439,-2.4696528911590576,0.015421533025801182,36.7146212,3.1815552,27.39,-1.06,-0.88,1.48,77,218,2.031078577041626,1.3902027606964111
48,-0.012764494866132736,-2.4696385860443115,-0.012483883649110794,36.7146066,3.1815404,25.14,-1.06,-0.88,1.47,77,218,2.02125883102417,1.3796344995498657
49,-0.06461839377880096,-2.469593048095703,0.011874825693666935,36.714592,3.1815257,22.89,-1.05,-0.88,1.47,76,218,2.0196874141693115,1.381472110748291
50,-0.12062471359968185,-2.9834625720977783,-0.1315963864326477,36.7145721,3.1815109,20.33,-1.73,-0.34,1.23,76,189,2.156463146209717,1.7668342590332031
51,-0.22734668850898743,2.675710439682007,0.0006180631462484598,36.7145383,3.1815209,19.41,-3.29,1.5,0.02,75,153,3.6260037422180176,3.6259264945983887
52,-0.20011761784553528,2.6796765327453613,-0.01118495874106884,36.7144777,3.1815577,19.51,-4.07,2.02,0.0,75,153,4.553285121917725,4.553277492523193
53,-0.009931802749633789,2.901820421218872,0.1648610234260559,36.7144242,3.1815866,19.46,-3.7,0.9,0.05,75,166,3.8098113536834717,3.809403896331787
54,-0.3953408896923065,-2.221768617630005,0.14740386605262756,36.7143734,3.1815648,19.44,-2.98,-3.44,0.02,74,232,4.561131477355957,4.561087608337402
55,-0.4505448043346405,-2.1420412063598633,-0.0025110221467912197,36.7143268,3.1814793,19.44,-4.07,-6.47,0.01,74,237,7.650416374206543,7.650404930114746
56,-0.4943910539150238,-2.1469359397888184,-0.029939958825707436,36.7142655,3.1813584,19.45,-4.86,-7.68,0.0,73,236,9.09478759765625,9.094785690307617
57,-0.31832894682884216,-2.15175461769104,0.00960489921271801,36.7141881,3.1812079,19.47,-4.74,-7.32,-0.01,73,236,8.726363182067871,8.726356506347656
58,-0.23722641170024872,-2.1464438438415527,-0.01820162497460842,36.7141292,3.181094,19.47,-3.91,-6.12,0.02,73,237,7.267459869384766,7.267409324645996
59,-0.24240873754024506,-2.1149661540985107,0.02567456103861332,36.7140729,3.1809801,19.44,-3.35,-5.67,0.0,72,238,6.589918613433838,6.589911937713623
60,-0.2928421199321747,-2.0996761322021484,-0.022137409076094627,36.7140288,3.1808848,19.44,-3.21,-5.63,0.0,72,239,6.486663818359375,6.486659049987793
61,-0.19941888749599457,-2.1002845764160156,0.03169720619916916,36.7139852,3.1807899,19.44,-3.11,-5.47,0.0,71,239,6.296772003173828,6.2967705726623535
62,0.09119568020105362,-2.100513458251953,-0.008233822882175446,36.7139442,3.1807006,19.42,-1.8,-3.16,0.03,71,239,3.6470212936401367,3.6468145847320557
63,0.14891016483306885,-2.1003074645996094,0.013576648198068142,36.7139307,3.180671,19.42,-0.32,-0.57,-0.02,71,239,0.6622710227966309,0.661845862865448
64,-0.016924379393458366,-2.101642608642578,0.06655609607696533,36.7139307,3.1806704,19.41,0.15,0.11,0.04,70,239,0.19921040534973145,0.19480963051319122
