timestamp,pitch,yaw,roll,lat,lon,alt,velocity_x,velocity_y,velocity_z,battery,heading,airspeed,groundspeed
0,0.013810514472424984,0.03435654565691948,-0.02339973673224449,36.7156067,3.18463,22.5,-0.02,0.01,-0.1,96,1,0.10672108083963394,0.03101893700659275
1,-0.05942116305232048,0.024693593382835388,0.10948439687490463,36.7156076,3.1846317,22.5,0.24,0.45,-0.03,95,1,0.5172666311264038,0.5159707069396973
2,-0.23105180263519287,1.4706147909164429,-0.08073528110980988,36.7156209,3.1846574,22.54,1.48,2.42,-0.03,95,84,2.8441429138183594,2.8438704013824463
3,-0.1553037166595459,0.9052670001983643,-0.0176809411495924,36.7156461,3.1847084,22.54,2.13,3.47,-0.01,95,51,4.07512903213501,4.075109958648682
4,0.03341499716043472,0.9899787306785583,0.02651219442486763,36.7156804,3.1847754,22.53,1.93,3.0,0.0,94,56,3.577409029006958,3.577408790588379
5,0.34382399916648865,1.1507922410964966,0.03681500256061554,36.7156943,3.1848017,22.54,-0.32,-0.43,-0.03,94,65,0.545476496219635,0.5443791747093201
6,-0.03329326584935188,2.7241227626800537,0.22791391611099243,36.7156757,3.1847678,22.53,-2.09,-3.01,0.06,93,156,3.6728594303131104,3.6723668575286865
7,-0.1473422348499298,-1.9303624629974365,0.020408008247613907,36.7156407,3.1847041,22.56,-2.21,-3.28,-0.02,93,249,3.9630379676818848,3.962944746017456
8,0.0024935686960816383,-1.735766053199768,0.16827957332134247,36.7156202,3.1846497,22.52,-0.41,-3.0,0.02,93,260,3.030092477798462,3.029977321624756
9,-0.38129663467407227,-0.6533991098403931,0.10211919993162155,36.7156477,3.1845929,22.51,3.91,-3.1,0.0,92,322,5.001526832580566,5.001523971557617
10,-0.5072975754737854,-0.6239500045776367,-0.020001988857984543,36.7157204,3.1845283,22.51,6.64,-4.62,0.0,92,324,8.093523025512695,8.093522071838379
11,-0.5292254686355591,-0.621587872505188,0.01554251927882433,36.7158196,3.1844422,22.52,7.82,-5.46,0.0,91,324,9.546774864196777,9.546772003173828
12,-0.3733893632888794,-0.6230553984642029,-0.014654369093477726,36.7159436,3.1843332,22.55,7.61,-5.42,-0.02,91,324,9.3447904586792,9.344759941101074
13,-0.12887246906757355,-0.6244991421699524,-0.011154955253005028,36.7160365,3.1842507,22.57,5.77,-4.13,0.02,91,324,7.101755619049072,7.101701736450195
14,0.047455739229917526,-1.124118685722351,-0.2902974486351013,36.7160967,3.1841851,22.67,1.39,-2.89,-0.23,90,295,3.224740743637085,3.216261148452759
15,-0.3932938873767853,-2.1260368824005127,-0.06256214529275894,36.7160871,3.184129,23.5,-2.61,-4.17,-0.84,90,238,5.002195358276367,4.930139541625977
16,-0.44406038522720337,-2.166696548461914,0.0063352277502417564,36.7160356,3.1840382,25.24,-4.69,-6.69,-1.39,89,235,8.291254997253418,8.172282218933105
17,-0.4906964600086212,-2.162071943283081,-0.01232774369418621,36.7159526,3.1838894,28.0,-5.51,-8.03,-1.6,89,236,9.879226684570312,9.747209548950195
18,-0.4545723795890808,-2.1638879776000977,0.036500751972198486,36.7158773,3.1837518,30.46,-5.53,-8.17,-1.58,88,236,9.998093605041504,9.871846199035645
19,-0.4606088101863861,-2.1631052494049072,-0.031670842319726944,36.7157894,3.183589,33.33,-5.53,-8.25,-1.59,88,236,10.065229415893555,9.93880844116211
20,-0.49202778935432434,-2.1650307178497314,0.013973291032016277,36.7157147,3.18345,35.8,-5.52,-8.27,-1.61,88,235,10.080561637878418,9.951146125793457
21,-0.42307019233703613,-2.1627492904663086,0.00011953611829085276,36.7156276,3.183287,38.71,-5.49,-8.26,-1.61,87,236,10.059199333190918,9.92845630645752
22,-0.4619831144809723,-2.1629257202148438,-0.027307121083140373,36.7155529,3.1831474,41.2,-5.52,-8.25,-1.61,87,236,10.065876960754395,9.935004234313965
23,-0.4961741864681244,-2.1647427082061768,0.018777603283524513,36.7154782,3.1830082,43.69,-5.51,-8.27,-1.63,86,235,10.077948570251465,9.945029258728027
24,-0.4224216043949127,-2.164445161819458,-0.00593270268291235,36.7153908,3.1828448,46.61,-5.52,-8.3,-1.64,86,235,10.111111640930176,9.976104736328125
25,-0.4702194333076477,-2.1635100841522217,-0.028852736577391624,36.7153161,3.182705,49.12,-5.48,-8.28,-1.63,85,236,10.073952674865723,9.940893173217773
26,-0.49150824546813965,-2.1627004146575928,0.01964178867638111,36.7152417,3.1825653,51.62,-5.51,-8.29,-1.63,85,236,10.091217041015625,9.958208084106445
27,-0.4293290674686432,-2.165700674057007,-0.00758027657866478,36.7151543,3.1824023,54.53,-5.55,-8.29,-1.64,84,235,10.119943618774414,9.985060691833496
28,-0.47315964102745056,-2.165053367614746,-0.022304825484752655,36.7150793,3.1822622,57.04,-5.51,-8.3,-1.64,84,235,10.100615501403809,9.966536521911621
29,-0.2453290969133377,-2.1675033569335938,0.025137418881058693,36.7149956,3.1821064,59.86,-4.81,-7.18,-1.44,83,235,8.768786430358887,8.648478507995605
30,-0.06082795932888985,-2.1639480590820312,-0.012719765305519104,36.7149412,3.1820048,61.63,-3.19,-4.81,-0.79,83,236,5.836386680603027,5.78144645690918
31,-0.15098287165164948,-2.1182408332824707,0.04415476322174072,36.7149062,3.1819355,62.38,-2.21,-3.71,-0.23,83,238,4.326488494873047,4.320193767547607
32,-0.174289733171463,-2.0860280990600586,-0.014150689356029034,36.7148736,3.1818635,62.5,-1.99,-3.67,0.0,82,240,4.18067741394043,4.180675029754639
33,-0.022163517773151398,-2.087458610534668,0.02442164346575737,36.7148472,3.1818036,62.49,-1.79,-3.28,0.0,82,240,3.7398645877838135,3.7398574352264404
34,-0.008109218440949917,-2.284902334213257,-0.04576587677001953,36.7148242,3.1817571,61.75,-1.2,-1.5,1.05,82,229,2.197028875350952,1.9264765977859497
35,-0.0065549020655453205,-2.4851324558258057,-0.0017184929456561804,36.7148091,3.1817395,59.58,-1.02,-0.8,1.46,81,217,1.9645471572875977,1.3054864406585693
36,-0.06366293132305145,-2.472327709197998,-0.0030511459335684776,36.7147951,3.1817263,57.34,-1.03,-0.82,1.42,81,218,1.946928858757019,1.321950078010559
37,-0.02491053380072117,-2.4704554080963135,-0.02117476798593998,36.7147784,3.1817102,54.73,-1.06,-0.86,1.44,81,218,1.9970171451568604,1.3756046295166016
38,-0.054896045476198196,-2.469694137573242,0.025487715378403664,36.7147639,3.1816957,52.48,-1.06,-0.88,1.44,80,218,2.0048325061798096,1.3847063779830933
39,-0.044573184102773666,-2.4692044258117676,-0.024850327521562576,36.714747,3.1816786,49.87,-1.06,-0.88,1.45,80,218,2.0159482955932617,1.3911117315292358
40,-0.02347341924905777,-2.4694888591766357,0.025449160486459732,36.7147324,3.1816639,47.63,-1.07,-0.88,1.46,79,218,2.0211946964263916,1.3882559537887573
41,-0.06316596269607544,-2.46950101852417,0.0021109185181558132,36.7147153,3.1816468,45.0,-1.06,-0.89,1.47,79,218,2.02333402633667,1.3894294500350952
42,-0.008149394765496254,-2.469951629638672,0.00399472052231431,36.7147008,3.1816322,42.76,-1.07,-0.88,1.47,79,218,2.0295090675354004,1.3930970430374146
43,-0.060508813709020615,-2.469146728515625,-0.00853708479553461,36.7146862,3.1816174,40.51,-1.06,-0.9,1.47,78,218,2.0347554683685303,1.3971689939498901
44,-0.02380456030368805,-2.469606637954712,-0.024052413180470467,36.7146692,3.1816002,37.89,-1.07,-0.88,1.47,78,218,2.029914617538452,1.3918935060501099
45,-0.05779412388801575,-2.4696297645568848,0.02278614230453968,36.7146546,3.1815854,35.63,-1.06,-0.88,1.47,78,218,2.023818016052246,1.3879942893981934
46,-0.0527535155415535,-2.4697957038879395,-0.020893901586532593,36.7146377,3.1815683,33.02,-1.07,-0.88,1.48,77,218,2.0359041690826416,1.3954178094863892
47,-0.026401467621326447,-2.4693734645843506,0.025200752541422844,36.714623,3.1815536,30.76,-1.06,-0.88,1.47,77,218,2.0229299068450928,1.3811554908752441
48,-0.042996786534786224,-2.469583749771118,-0.023070458322763443,36.7146084,3.1815389,28.51,-1.06,-0.88,1.47,77,218,2.022916555404663,1.3841534852981567
49,-0.008951539173722267,-2.4694571495056152,0.00022250281472224742,36.7145915,3.1815217,25.89,-1.05,-0.88,1.47,76,218,2.0207862854003906,1.3771125078201294
50,-0.1209709644317627,-2.8518548011779785,-0.09831880033016205,36.714575,3.1815083,23.67,-1.58,-0.51,1.34,76,196,2.1388566493988037,1.666441798210144
51,-0.23094648122787476,2.6733932495117188,-0.05280735343694687,36.7145366,3.1815184,22.5,-3.36,1.57,0.0,75,153,3.711444139480591,3.7114412784576416
52,-0.19467906653881073,2.6792943477630615,0.016137778759002686,36.7144848,3.1815499,22.6,-4.07,2.02,-0.01,75,153,4.549004554748535,4.5489654541015625
53,-0.025726020336151123,2.8281543254852295,0.10991473495960236,36.7144305,3.1815808,22.56,-3.78,1.22,0.06,75,162,3.980330228805542,3.9798731803894043
54,-0.3333677053451538,-2.2733564376831055,0.17894721031188965,36.7143784,3.1815682,22.53,-2.94,-2.95,0.02,74,229,4.17098331451416,4.170930862426758
55,-0.4784441888332367,-2.1411921977996826,-0.02766641043126583,36.7143337,3.1814895,22.53,-3.9,-6.21,0.01,74,237,7.344390869140625,7.34436559677124
56,-0.4718171954154968,-2.1472105979919434,0.025299837812781334,36.7142627,3.1813496,22.54,-4.87,-7.67,0.0,73,236,9.092494010925293,9.092493057250977
57,-0.341297447681427,-2.1508073806762695,-0.0227982010692358,36.714196,3.1812198,22.55,-4.8,-7.45,-0.01,73,236,8.866849899291992,8.866842269897461
58,-0.27118849754333496,-2.148583173751831,0.0018653561128303409,36.7141358,3.1811036,22.56,-4.01,-6.26,0.02,73,236,7.440219879150391,7.440174102783203
59,-0.25232359766960144,-2.1188976764678955,-0.0008194883121177554,36.7140788,3.1809889,22.53,-3.38,-5.67,0.01,72,238,6.6125335693359375,6.612512111663818
60,-0.3086910545825958,-2.1013741493225098,0.007023605518043041,36.7140342,3.1808934,22.53,-3.22,-5.66,0.0,72,239,6.518064498901367,6.518060684204102
61,-0.17319010198116302,-2.0999088287353516,-0.01600905880331993,36.7139836,3.1807825,22.53,-3.1,-5.43,0.0,71,239,6.254524230957031,6.254523754119873
62,0.05528370663523674,-2.1008777618408203,0.015422917902469635,36.7139474,3.1807042,22.52,-2.03,-3.53,0.03,71,239,4.07836389541626,4.0782012939453125
63,0.15854206681251526,-2.100619077682495,-0.009785129688680172,36.7139314,3.180669,22.51,-0.46,-0.8,-0.02,71,239,0.9235743284225464,0.9232913255691528
64,0.00836750864982605,-2.1005442142486572,0.04531295225024223,36.7139304,3.1806666,22.51,0.12,0.14,0.03,70,239,0.19427216053009033,0.19073142111301422
