timestamp,pitch,yaw,roll,lat,lon,alt,velocity_x,velocity_y,velocity_z,battery,heading,airspeed,groundspeed
0,-0.014071173034608364,0.042443085461854935,-0.018096832558512688,36.7156067,3.18463,21.27,-0.02,0.02,-0.02,96,2,0.04284898564219475,0.035053800791502
1,-0.03367632254958153,0.03715790808200836,0.10367754101753235,36.7156078,3.1846321,21.21,0.29,0.48,-0.02,95,2,0.5668390989303589,0.566320538520813
2,-0.2084212750196457,1.3896297216415405,-0.057094231247901917,36.7156228,3.1846586,21.25,1.67,2.43,-0.04,95,79,2.955436944961548,2.955164909362793
3,-0.18574009835720062,0.9268563389778137,-0.022151507437229156,36.7156506,3.1847091,21.26,2.32,3.34,-0.02,95,53,4.069810390472412,4.069756031036377
4,-0.009724520146846771,0.9385442733764648,0.026547672227025032,36.7156824,3.184765,21.27,2.18,3.05,0.0,94,53,3.756413459777832,3.7564027309417725
5,0.3320297598838806,0.7931416034698486,-0.03856249153614044,36.7157001,3.1847942,21.29,-0.47,-0.76,-0.02,94,45,0.8960806131362915,0.8955979347229004
6,-0.02049064077436924,-0.8520119190216064,-0.20457637310028076,36.7156801,3.1847571,21.28,-2.13,-3.1,0.06,93,311,3.770124673843384,3.7696335315704346
7,-0.0661868155002594,-2.4229276180267334,0.06993556022644043,36.715645,3.184693,21.32,-2.18,-3.27,0.0,93,221,3.9344112873077393,3.934408664703369
8,-0.059941284358501434,-1.6376893520355225,0.20401893556118011,36.7156266,3.1846394,21.27,-0.19,-2.93,0.03,93,266,2.9382965564727783,2.9381396770477295
9,-0.35094043612480164,-0.6462491750717163,0.08443009853363037,36.7156498,3.1845913,21.26,3.6,-3.02,0.0,92,322,4.7099151611328125,4.70991325378418
10,-0.5263718366622925,-0.6265111565589905,0.04147862270474434,36.7157341,3.1845159,21.26,6.77,-4.67,0.0,92,324,8.234573364257812,8.234570503234863
11,-0.470020592212677,-0.6173044443130493,0.014584017917513847,36.7158344,3.1844295,21.28,7.88,-5.45,0.0,91,324,9.591808319091797,9.591808319091797
12,-0.41628533601760864,-0.6205764412879944,0.0013214036589488387,36.7159585,3.184321,21.3,7.58,-5.37,-0.01,91,324,9.295870780944824,9.295852661132812
13,-0.06626487523317337,-0.6224256753921509,0.011334017850458622,36.7160504,3.1842399,21.32,5.62,-4.0,0.03,91,324,6.908448696136475,6.908356189727783
14,0.04408029839396477,-0.9871329665184021,-0.25207188725471497,36.7161038,3.1841839,21.39,1.89,-2.89,-0.17,90,303,3.4630072116851807,3.458333969116211
15,-0.3549380898475647,-2.128953695297241,-0.1043485775589943,36.7160949,3.1841185,22.32,-2.77,-4.31,-0.88,90,238,5.202237606048584,5.126498222351074
16,-0.5122796297073364,-2.164728879928589,0.0046697454527020454,36.7160417,3.184025,24.11,-4.78,-6.77,-1.4,89,235,8.411456108093262,8.292545318603516
17,-0.4241141676902771,-2.163235902786255,0.012988032773137093,36.7159578,3.1838752,26.89,-5.54,-8.01,-1.6,89,236,9.874500274658203,9.742569923400879
18,-0.47055166959762573,-2.1648974418640137,-0.025143787264823914,36.7158827,3.1837379,29.34,-5.53,-8.22,-1.58,88,235,10.039700508117676,9.914278030395508
19,-0.48921462893486023,-2.163914918899536,0.013069978915154934,36.7158076,3.1835981,31.81,-5.54,-8.26,-1.59,88,236,10.083537101745605,9.956862449645996
20,-0.4260452389717102,-2.165130853652954,-0.00896664522588253,36.71572,3.1834352,34.7,-5.53,-8.26,-1.6,88,235,10.078146934509277,9.949721336364746
21,-0.4691929817199707,-2.163471221923828,-0.03137069568037987,36.7156454,3.1832959,37.17,-5.5,-8.26,-1.61,87,236,10.063233375549316,9.932774543762207
22,-0.4381254017353058,-2.163648843765259,0.02762041799724102,36.7155581,3.183133,40.09,-5.52,-8.26,-1.63,87,236,10.073603630065918,9.94028377532959
23,-0.43300431966781616,-2.1640138626098633,-0.01865316554903984,36.7154832,3.1829931,42.6,-5.51,-8.28,-1.62,86,236,10.089556694030762,9.957369804382324
24,-0.4899674654006958,-2.1631717681884766,-0.01531762070953846,36.715409,3.1828539,45.09,-5.5,-8.29,-1.62,86,236,10.089674949645996,9.95751953125
25,-0.43125882744789124,-2.1659560203552246,0.02940211445093155,36.7153216,3.1826907,48.0,-5.56,-8.32,-1.64,85,235,10.142093658447266,10.008369445800781
26,-0.44194266200065613,-2.1656880378723145,-0.02108730748295784,36.7152465,3.1825503,50.52,-5.51,-8.28,-1.63,85,235,10.08248519897461,9.948408126831055
27,-0.47411251068115234,-2.164341926574707,0.03560313209891319,36.7151597,3.1823878,53.44,-5.5,-8.28,-1.63,84,236,10.080841064453125,9.947245597839355
28,-0.4251653552055359,-2.163649559020996,0.00880665984004736,36.715085,3.1822479,55.94,-5.54,-8.32,-1.64,84,236,10.138986587524414,10.004768371582031
29,-0.2782084047794342,-2.168748378753662,0.007835899479687214,36.7150014,3.1820926,58.74,-4.74,-7.04,-1.41,83,235,8.614587783813477,8.49793815612793
30,-0.053424786776304245,-2.1630399227142334,0.028714047744870186,36.7149483,3.1819934,60.45,-3.1,-4.68,-0.75,83,236,5.674015045166016,5.623070240020752
31,-0.16201485693454742,-2.124208927154541,-0.004815201740711927,36.7149137,3.1819252,61.15,-2.23,-3.72,-0.21,83,238,4.347227096557617,4.341970920562744
32,-0.129111185669899,-2.1023406982421875,-0.008126453496515751,36.7148801,3.1818535,61.24,-2.08,-3.67,0.0,82,239,4.22067403793335,4.220667362213135
33,-0.04963183030486107,-2.1029837131500244,0.006218069698661566,36.7148529,3.1817939,61.24,-1.79,-3.2,0.0,82,239,3.669044256210327,3.6690378189086914
34,0.013704797253012657,-2.3118550777435303,-0.0683969259262085,36.7148299,3.1817493,60.42,-1.22,-1.43,1.11,82,227,2.1946399211883545,1.8882137537002563
35,-0.030786434188485146,-2.4822165966033936,0.025918254628777504,36.7148148,3.1817323,58.22,-1.03,-0.81,1.46,81,217,1.9688141345977783,1.3143399953842163
36,-0.03444572910666466,-2.4723525047302246,-0.023415086790919304,36.7148007,3.1817191,55.98,-1.04,-0.82,1.42,81,218,1.953018307685852,1.3314316272735596
37,-0.011788186617195606,-2.4699158668518066,0.010004750452935696,36.7147842,3.181703,53.37,-1.06,-0.86,1.44,81,218,1.9933276176452637,1.3728437423706055
38,-0.06243668496608734,-2.469653367996216,-0.0075598666444420815,36.7147697,3.1816884,51.13,-1.07,-0.89,1.45,80,218,2.0161280632019043,1.399398922920227
39,-0.016943367198109627,-2.46948504447937,-0.020384084433317184,36.7147527,3.1816712,48.5,-1.07,-0.88,1.45,80,218,2.014186382293701,1.3938509225845337
40,-0.04788186028599739,-2.469817876815796,0.024554908275604248,36.7147381,3.1816566,46.26,-1.06,-0.88,1.46,79,218,2.0152430534362793,1.385939359664917
41,-0.01959015429019928,-2.469759702682495,-0.019367720931768417,36.7147235,3.181642,44.02,-1.08,-0.89,1.47,79,218,2.034212112426758,1.4033010005950928
42,-0.014477483928203583,-2.4695637226104736,0.018180707469582558,36.7147065,3.1816248,41.4,-1.06,-0.88,1.46,79,218,2.019893169403076,1.3856227397918701
43,-0.04936974495649338,-2.469020366668701,-0.02267095260322094,36.7146919,3.1816101,39.15,-1.07,-0.88,1.47,78,218,2.02602219581604,1.3926068544387817
44,-0.014258181676268578,-2.4696240425109863,-0.014899298548698425,36.714675,3.1815929,36.53,-1.08,-0.89,1.48,78,218,2.038280725479126,1.4010618925094604
45,-0.0626574233174324,-2.469683885574341,0.011652317829430103,36.7146603,3.1815781,34.28,-1.07,-0.89,1.48,78,218,2.0339856147766113,1.3941510915756226
46,-0.012627625837922096,-2.470081090927124,-0.007126517128199339,36.7146457,3.1815634,32.03,-1.06,-0.87,1.47,77,218,2.021170139312744,1.3793690204620361
47,-0.02840641513466835,-2.469290018081665,0.026443375274538994,36.7146288,3.1815463,29.41,-1.06,-0.88,1.48,77,218,2.024150848388672,1.3783369064331055
48,-0.03959998860955238,-2.4695494174957275,-0.02429354190826416,36.7146142,3.1815315,27.16,-1.06,-0.89,1.48,77,218,2.0332577228546143,1.3918817043304443
49,-0.03996290639042854,-2.469531774520874,0.03248696029186249,36.7145996,3.1815167,24.9,-1.06,-0.88,1.47,76,218,2.021946668624878,1.3789935111999512
50,-0.12754113972187042,-2.904881715774536,-0.1011679619550705,36.7145803,3.1815014,22.32,-1.63,-0.44,1.3,76,193,2.138287305831909,1.6961863040924072
51,-0.20694012939929962,2.6730430126190186,-0.0276471097022295,36.7145483,3.1815092,21.26,-3.17,1.43,0.07,75,153,3.482316017150879,3.4814021587371826
52,-0.17794668674468994,2.6721158027648926,0.0251363106071949,36.714489,3.1815456,21.35,-4.0,2.03,0.0,75,153,4.496160984039307,4.496151447296143
53,-0.029924534261226654,2.864197015762329,0.12117472290992737,36.7144358,3.1815755,21.31,-3.68,1.04,0.05,75,164,3.830369710922241,3.829927444458008
54,-0.34155234694480896,-2.233039379119873,0.15349410474300385,36.7143848,3.1815575,21.28,-2.98,-3.25,0.01,74,232,4.413941383361816,4.4139018058776855
55,-0.4921180307865143,-2.14514422416687,-0.024837860837578773,36.7143384,3.1814745,21.28,-4.04,-6.36,0.01,74,237,7.540940761566162,7.54092264175415
56,-0.4979299008846283,-2.152026891708374,0.015162860043346882,36.714277,3.1813544,21.29,-4.88,-7.62,0.0,73,236,9.05443286895752,9.054431915283203
57,-0.3515004515647888,-2.1561405658721924,-0.03032231703400612,36.714199,3.1812044,21.31,-4.83,-7.37,0.0,73,236,8.820684432983398,8.820680618286133
58,-0.2627626061439514,-2.1524033546447754,0.026511553674936295,36.7141388,3.1810895,21.31,-3.99,-6.19,0.02,73,236,7.371864318847656,7.371824264526367
59,-0.26950085163116455,-2.1184306144714355,-0.0117619214579463,36.7140817,3.180975,21.28,-3.36,-5.66,0.01,72,238,6.591762065887451,6.591745853424072
60,-0.3039326071739197,-2.101137161254883,0.03189975395798683,36.7140375,3.1808801,21.28,-3.21,-5.64,0.0,72,239,6.49832820892334,6.498324394226074
61,-0.18426120281219482,-2.0998191833496094,-0.025807809084653854,36.7139869,3.1807696,21.29,-3.06,-5.37,0.0,71,239,6.18322229385376,6.183221817016602
62,0.1131766214966774,-2.100861072540283,0.026100773364305496,36.7139518,3.1806933,21.27,-1.9,-3.32,0.03,71,239,3.829545259475708,3.829338788986206
63,0.12669062614440918,-2.1008050441741943,-0.029099026694893837,36.7139373,3.1806615,21.26,-0.37,-0.66,-0.02,71,239,0.7630949020385742,0.7627343535423279
64,0.030168186873197556,-2.099473476409912,0.036409005522727966,36.713937,3.1806603,21.26,0.15,0.12,0.03,70,239,0.20094770193099976,0.19714562594890594
