timestamp,pitch,yaw,roll,lat,lon,alt,velocity_x,velocity_y,velocity_z,battery,heading,airspeed,groundspeed
0,0.008148305118083954,-0.048487771302461624,0.029002558439970016,36.7156066,3.1846299,19.67,-0.02,0.02,0.05,96,357,0.06744518876075745,0.03792757913470268
1,-0.08808449655771255,-0.028891129419207573,0.08825836330652237,36.7156082,3.1846328,19.63,0.4,0.62,0.0,95,358,0.7501016855239868,0.750096321105957
2,-0.17127694189548492,1.4500881433486938,-0.1052202358841896,36.7156222,3.1846584,19.6,1.75,2.51,-0.02,95,83,3.067991018295288,3.0678563117980957
3,-0.1465272307395935,0.9143311381340027,0.029772885143756866,36.7156569,3.1847194,19.65,2.41,3.41,-0.03,95,52,4.178812503814697,4.178638458251953
4,0.07791408896446228,0.9315158128738403,-0.0316375270485878,36.7156885,3.1847742,19.68,1.93,2.7,-0.01,94,53,3.324342727661133,3.3242862224578857
5,0.32699263095855713,0.49040961265563965,-0.1507900506258011,36.7156978,3.1847882,19.68,-1.09,-1.64,-0.01,94,28,1.9798885583877563,1.979860782623291
6,-0.10236955434083939,-1.1799843311309814,-0.11999139934778214,36.715673,3.1847431,19.72,-2.23,-3.24,-0.01,93,292,3.942411184310913,3.9423820972442627
7,-0.0746053159236908,-2.326371431350708,0.055122386664152145,36.7156384,3.1846782,19.71,-1.91,-3.24,0.01,93,226,3.7730679512023926,3.7730329036712646
8,-0.08711669594049454,-1.3598862886428833,0.2807863652706146,36.7156274,3.1846263,19.69,0.67,-2.78,0.01,93,282,2.868680715560913,2.868657350540161
9,-0.4378999173641205,-0.6605971455574036,0.04767119511961937,36.7156628,3.184577,19.69,4.43,-3.28,0.0,92,322,5.518158435821533,5.518157482147217
10,-0.48347774147987366,-0.6252177357673645,0.024194499477744102,36.715757,3.1844949,19.7,7.16,-4.95,-0.01,92,324,8.708881378173828,8.708873748779297
11,-0.4858928620815277,-0.6167418360710144,-0.03324763476848602,36.7158604,3.1844057,19.71,7.9,-5.51,0.0,91,324,9.640878677368164,9.640878677368164
12,-0.32816556096076965,-0.6195623278617859,0.027586884796619415,36.7159829,3.1842981,19.74,7.27,-5.15,-0.02,91,324,8.916304588317871,8.916274070739746
13,0.0022016013972461224,-0.6339224576950073,-0.07195838540792465,36.7160678,3.1842228,19.75,4.88,-3.59,0.04,91,323,6.063683032989502,6.063542366027832
14,-0.04258979111909866,-1.2913329601287842,-0.2561860680580139,36.7161084,3.1841705,19.91,0.78,-2.87,-0.3,90,286,2.996631383895874,2.981457471847534
15,-0.44087252020835876,-2.140652894973755,-0.07143796235322952,36.7160845,3.1840983,21.11,-3.43,-4.86,-1.02,90,237,6.049180507659912,5.961177825927734
16,-0.4926687479019165,-2.161064624786377,0.04117589071393013,36.7160255,3.183995,23.08,-5.04,-7.2,-1.49,89,236,8.922780990600586,8.796113967895508
17,-0.4456271827220917,-2.1660664081573486,-0.015908075496554375,36.7159521,3.1838637,25.51,-5.54,-8.05,-1.6,89,236,9.907608985900879,9.776049613952637
18,-0.49742069840431213,-2.1628222465515137,-0.003899957984685898,36.7158646,3.1837026,28.38,-5.54,-8.23,-1.56,88,236,10.051239967346191,9.92819595336914
19,-0.4573208689689636,-2.1642723083496094,0.031939100474119186,36.7157894,3.183563,30.83,-5.55,-8.24,-1.59,88,236,10.066362380981445,9.939190864562988
20,-0.45016881823539734,-2.1656932830810547,-0.024760665372014046,36.7157017,3.1833999,33.72,-5.51,-8.26,-1.61,87,235,10.061797142028809,9.93181324005127
21,-0.48893842101097107,-2.164214849472046,0.009452720172703266,36.7156274,3.183261,36.22,-5.47,-8.27,-1.6,87,236,10.055559158325195,9.925959587097168
22,-0.4506087601184845,-2.162609338760376,0.03292617201805115,36.7155528,3.1831212,38.71,-5.52,-8.28,-1.62,87,236,10.08513069152832,9.953895568847656
23,-0.46295806765556335,-2.164571762084961,-0.02374199777841568,36.7154652,3.1829581,41.62,-5.52,-8.27,-1.62,86,235,10.084588050842285,9.952288627624512
24,-0.48810628056526184,-2.164205551147461,0.01826300099492073,36.7153907,3.1828184,44.12,-5.49,-8.29,-1.63,86,236,10.078585624694824,9.945491790771484
25,-0.42656442523002625,-2.163170337677002,-0.007570749614387751,36.7153037,3.1826555,47.04,-5.52,-8.3,-1.63,85,236,10.10424518585205,9.970359802246094
26,-0.4638846218585968,-2.163710355758667,-0.03194303438067436,36.7152287,3.1825155,49.55,-5.52,-8.28,-1.63,85,236,10.087684631347656,9.954724311828613
27,-0.4883125126361847,-2.165200710296631,0.02993849478662014,36.7151539,3.1823758,52.06,-5.51,-8.3,-1.63,84,235,10.099498748779297,9.966270446777344
28,-0.4045634865760803,-2.1636061668395996,-0.011949648149311543,36.7150669,3.1822126,54.97,-5.51,-8.25,-1.62,84,236,10.059974670410156,9.927155494689941
29,-0.2539110779762268,-2.16827654838562,-0.007583581376820803,36.7149967,3.1820826,57.32,-4.65,-6.9,-1.39,84,235,8.441190719604492,8.325843811035156
30,-0.040937233716249466,-2.1568703651428223,0.01357152871787548,36.7149387,3.1819739,59.14,-2.78,-4.28,-0.6,83,236,5.1498894691467285,5.114807605743408
31,-0.16884338855743408,-2.1154375076293945,0.01114596426486969,36.7149066,3.181909,59.64,-2.18,-3.69,-0.12,83,238,4.295891284942627,4.294066429138184
32,-0.1416682004928589,-2.1024913787841797,-0.021864866837859154,36.7148735,3.1818373,59.67,-2.09,-3.69,-0.01,82,239,4.244766712188721,4.2447404861450195
33,-0.008256811648607254,-2.106515407562256,0.010491186752915382,36.7148472,3.1817802,59.64,-1.63,-2.86,0.1,82,239,3.3004353046417236,3.29866361618042
34,0.03274095430970192,-2.339280843734741,-0.05547657981514931,36.7148288,3.1817462,58.72,-1.21,-1.34,1.2,82,225,2.1728262901306152,1.8112245798110962
35,-0.02503575012087822,-2.46728253364563,0.028728842735290527,36.7148114,3.1817278,56.11,-1.03,-0.8,1.43,81,218,1.9466066360473633,1.3121150732040405
36,-0.04568476974964142,-2.4702396392822266,-0.02569073624908924,36.7147974,3.1817144,53.87,-1.04,-0.82,1.43,81,218,1.9615561962127686,1.3364872932434082
37,-0.011214213445782661,-2.4694278240203857,0.004093692172318697,36.7147807,3.181698,51.26,-1.05,-0.87,1.44,81,218,1.9945203065872192,1.3758505582809448
38,-0.06429172307252884,-2.469822883605957,-0.0005954771186225116,36.7147662,3.1816834,49.02,-1.08,-0.88,1.45,80,218,2.0163567066192627,1.3993065357208252
39,-0.0109103973954916,-2.4691531658172607,0.011959289200603962,36.7147516,3.1816687,46.77,-1.06,-0.88,1.46,80,218,2.012608051300049,1.3848626613616943
40,-0.04740120843052864,-2.4698948860168457,0.026604266837239265,36.7147346,3.1816517,44.15,-1.06,-0.88,1.46,79,218,2.0151124000549316,1.3838883638381958
41,-0.018283044919371605,-2.469557523727417,-0.01876523718237877,36.71472,3.181637,41.91,-1.06,-0.88,1.46,79,218,2.019178628921509,1.3894284963607788
42,-0.017322901636362076,-2.46939754486084,0.024583322927355766,36.714703,3.1816198,39.29,-1.06,-0.88,1.47,79,218,2.0236198902130127,1.382225513458252
43,-0.04154634475708008,-2.4691243171691895,-0.023034704849123955,36.7146884,3.1816051,37.04,-1.06,-0.88,1.47,78,218,2.0227675437927246,1.3843467235565186
44,-0.02584761008620262,-2.469285726547241,0.028912723064422607,36.7146738,3.1815904,34.79,-1.06,-0.88,1.47,78,218,2.0238428115844727,1.3866697549819946
45,-0.06487391889095306,-2.4694530963897705,0.0018330016173422337,36.7146568,3.1815732,32.17,-1.06,-0.88,1.47,78,218,2.027968645095825,1.3872960805892944
46,-0.005666318349540234,-2.4699811935424805,0.0032614399679005146,36.7146422,3.1815584,29.93,-1.06,-0.88,1.48,77,218,2.0292389392852783,1.3837358951568604
47,-0.04687904939055443,-2.469691514968872,0.027903275564312935,36.7146252,3.1815414,27.3,-1.06,-0.89,1.47,77,218,2.0291590690612793,1.3906375169754028
48,-0.021520761772990227,-2.4695537090301514,-0.022307205945253372,36.7146106,3.1815266,25.05,-1.05,-0.88,1.47,77,218,2.0234785079956055,1.3801677227020264
49,-0.055839043110609055,-2.4696907997131348,0.021948976442217827,36.714596,3.1815119,22.8,-1.05,-0.88,1.48,76,218,2.0235917568206787,1.376934289932251
50,-0.16348759829998016,3.132546901702881,-0.1309184432029724,36.7145745,3.181499,20.32,-1.93,-0.06,1.06,76,179,2.208549976348877,1.9362120628356934
51,-0.2089000940322876,2.6680283546447754,0.010416559875011444,36.7145375,3.1815141,19.69,-3.48,1.69,-0.04,75,152,3.873896360397339,3.8736379146575928
52,-0.1834821254014969,2.6719589233398438,0.005452333949506283,36.714476,3.1815524,19.78,-3.99,2.04,0.03,75,153,4.491130828857422,4.490979194641113
53,-0.0035371261183172464,3.0412867069244385,0.19950759410858154,36.7144241,3.1815772,19.73,-3.49,0.37,0.04,75,174,3.5143699645996094,3.5140223503112793
54,-0.40767601132392883,-2.2177350521087646,0.11568272858858109,36.7143819,3.1815521,19.71,-3.01,-3.54,0.02,74,232,4.651697158813477,4.651643753051758
55,-0.4604569971561432,-2.1562070846557617,-0.004562017507851124,36.714325,3.1814467,19.71,-4.32,-6.81,0.0,74,236,8.072139739990234,8.072134971618652
56,-0.47719353437423706,-2.1535286903381348,-0.023171352222561836,36.7142612,3.1813225,19.72,-4.96,-7.7,0.0,73,236,9.16121768951416,9.16121768951416
57,-0.29462239146232605,-2.156721353530884,0.008760614320635796,36.7141835,3.1811738,19.74,-4.65,-7.1,0.0,73,236,8.494104385375977,8.494099617004395
58,-0.25170692801475525,-2.1468265056610107,-0.008757324889302254,36.7141263,3.1810636,19.73,-3.77,-5.92,0.02,73,237,7.020059108734131,7.01999568939209
59,-0.2686567008495331,-2.1169724464416504,0.045854825526475906,36.7140786,3.1809669,19.71,-3.35,-5.64,0.01,72,238,6.565016269683838,6.565007209777832
60,-0.3023166060447693,-2.0991852283477783,-0.016139203682541847,36.7140273,3.1808564,19.71,-3.2,-5.65,0.0,72,239,6.505490779876709,6.505486965179443
61,-0.15571223199367523,-2.1001904010772705,0.028318248689174652,36.7139841,3.180762,19.71,-3.01,-5.29,0.0,71,239,6.093446731567383,6.093445301055908
62,0.13031525909900665,-2.1009137630462646,-0.031621210277080536,36.7139501,3.1806881,19.69,-1.78,-3.11,0.03,71,239,3.58943510055542,3.5892293453216553
63,0.1317165493965149,-2.1005303859710693,0.0032818326726555824,36.7139364,3.1806581,19.7,-0.14,-0.28,-0.01,71,239,0.3242698907852173,0.3237506151199341
64,-0.01682874746620655,-2.1019723415374756,0.10397122800350189,36.7139376,3.1806593,19.67,0.28,0.01,0.03,70,239,0.28994354605674744,0.2880852222442627
