timestamp,pitch,yaw,roll,lat,lon,alt,velocity_x,velocity_y,velocity_z,battery,heading,airspeed,groundspeed
0,0.007998203858733177,-0.052838023751974106,-0.023910565301775932,36.7156067,3.1846299,19.93,-0.03,0.02,0.04,96,356,0.05951913446187973,0.042062073945999146
1,-0.05393853411078453,-0.05459316447377205,0.1408621370792389,36.7156077,3.1846321,19.89,0.29,0.54,0.0,95,356,0.6215217113494873,0.6215177774429321
2,-0.22026021778583527,1.5537669658660889,-0.09358225762844086,36.7156228,3.1846629,19.86,1.7,2.74,-0.03,95,89,3.2252039909362793,3.2250120639801025
3,-0.1568925827741623,0.877390444278717,-0.016499653458595276,36.7156504,3.184718,19.9,2.23,3.58,-0.03,95,50,4.2248454093933105,4.224660873413086
4,0.1209288164973259,0.9914637804031372,0.018236370757222176,36.7156846,3.1847847,19.93,1.72,2.71,-0.01,94,56,3.2121121883392334,3.2120745182037354
5,0.30121397972106934,1.328663945198059,0.10191505402326584,36.7156928,3.1848011,19.93,-0.82,-1.15,0.0,94,76,1.4154601097106934,1.4154597520828247
6,-0.04744943231344223,2.9892354011535645,0.17986056208610535,36.7156704,3.1847604,19.97,-2.21,-3.15,-0.02,93,171,3.8590848445892334,3.85901141166687
7,-0.10926114767789841,-1.9499666690826416,0.06639368087053299,36.7156353,3.1846955,19.96,-2.08,-3.24,0.0,93,248,3.8568179607391357,3.8568098545074463
8,-0.05893642082810402,-1.4826666116714478,0.2076171636581421,36.71562,3.1846426,19.94,0.21,-2.86,0.0,93,275,2.875917434692383,2.8759076595306396
9,-0.40254682302474976,-0.6480685472488403,0.07731076329946518,36.7156583,3.1845849,19.94,4.53,-3.34,0.0,92,322,5.6392502784729,5.639249801635742
10,-0.5187652707099915,-0.6275627017021179,-0.01797323487699032,36.7157378,3.1845154,19.94,6.96,-4.83,0.0,92,324,8.475030899047852,8.475027084350586
11,-0.5151793956756592,-0.6192359328269958,0.012780510820448399,36.7158398,3.1844268,19.96,7.84,-5.51,0.0,91,324,9.591019630432129,9.591017723083496
12,-0.34387579560279846,-0.6224148273468018,-0.023161739110946655,36.7159625,3.1843184,19.99,7.42,-5.27,-0.02,91,324,9.106548309326172,9.106511116027832
13,-0.06955859065055847,-0.6278623342514038,-0.025218253955245018,36.7160507,3.18424,20.0,5.23,-3.79,0.04,91,324,6.4686408042907715,6.4685139656066895
14,-0.0744163990020752,-1.3804678916931152,-0.3170325756072998,36.7160994,3.1841778,20.19,0.51,-2.92,-0.33,90,280,2.9878809452056885,2.969228506088257
15,-0.40690910816192627,-2.1344377994537354,-0.029978934675455093,36.7160797,3.1841173,21.19,-3.14,-4.59,-0.96,90,237,5.654010772705078,5.570919990539551
16,-0.4929431080818176,-2.1622328758239746,-0.030623164027929306,36.7160233,3.1840183,23.08,-4.92,-7.04,-1.46,89,236,8.719109535217285,8.595380783081055
17,-0.4852408170700073,-2.164876699447632,0.016784513369202614,36.7159383,3.1838656,25.89,-5.52,-8.06,-1.6,89,235,9.903813362121582,9.772921562194824
18,-0.4417858421802521,-2.1637189388275146,0.02914540283381939,36.7158632,3.1837276,28.36,-5.53,-8.2,-1.58,88,236,10.017335891723633,9.89150619506836
19,-0.4801539182662964,-2.163198947906494,-0.02791443280875683,36.7157755,3.183565,31.23,-5.56,-8.26,-1.58,88,236,10.091758728027344,9.96584415435791
20,-0.4810226857662201,-2.166628360748291,0.029635591432452202,36.7157003,3.1834252,33.7,-5.52,-8.26,-1.61,88,235,10.074703216552734,9.944408416748047
21,-0.43024834990501404,-2.1633546352386475,-0.015101708471775055,36.7156134,3.1832628,36.61,-5.47,-8.27,-1.61,87,236,10.053973197937012,9.923347473144531
22,-0.4789426922798157,-2.1617515087127686,-0.023706067353487015,36.7155389,3.1831231,39.11,-5.53,-8.28,-1.61,87,236,10.096936225891113,9.966550827026367
23,-0.4808605909347534,-2.164537191390991,0.029994072392582893,36.7154638,3.1829834,41.6,-5.53,-8.27,-1.63,86,235,10.086738586425781,9.953641891479492
24,-0.42955055832862854,-2.1642396450042725,-0.020108696073293686,36.7153764,3.18282,44.51,-5.49,-8.29,-1.64,86,236,10.080729484558105,9.9459810256958
25,-0.48882967233657837,-2.1626346111297607,-0.01992916688323021,36.7153022,3.1826808,47.03,-5.48,-8.29,-1.63,85,236,10.08170223236084,9.949009895324707
26,-0.47691506147384644,-2.163501501083374,0.03288464993238449,36.7152275,3.1825408,49.53,-5.53,-8.3,-1.63,85,236,10.119060516357422,9.986129760742188
27,-0.4369722604751587,-2.1652698516845703,-0.022890761494636536,36.7151399,3.1823774,52.45,-5.52,-8.27,-1.64,84,235,10.088119506835938,9.953706741333008
28,-0.4762595295906067,-2.1645121574401855,-0.013106923550367355,36.7150652,3.1822378,54.95,-5.49,-8.28,-1.63,84,235,10.07327651977539,9.939743041992188
29,-0.1849314272403717,-2.167649507522583,0.00675671873614192,36.7149835,3.1820859,57.7,-4.55,-6.78,-1.36,83,235,8.289346694946289,8.176804542541504
30,-0.07313157618045807,-2.1587231159210205,-0.016034791246056557,36.7149333,3.1819917,59.28,-2.9,-4.45,-0.66,83,236,5.365833759307861,5.324027061462402
31,-0.11435230821371078,-2.1000828742980957,0.008388228714466095,36.7148959,3.1819155,59.9,-2.1,-3.68,-0.11,83,239,4.243033409118652,4.241601943969727
32,-0.1846250742673874,-2.0857365131378174,-0.0016631897306069732,36.7148686,3.181854,59.92,-2.0,-3.69,0.0,82,240,4.204178333282471,4.204171180725098
33,0.02269422635436058,-2.088470458984375,0.0030172953847795725,36.7148426,3.1817954,59.91,-1.66,-3.02,0.06,82,240,3.457151412963867,3.456590175628662
34,0.004312778823077679,-2.3572463989257812,-0.021398644894361496,36.7148212,3.1817546,58.84,-1.17,-1.27,1.27,82,224,2.1485891342163086,1.7326982021331787
35,-0.014967440627515316,-2.4733777046203613,-0.020095013082027435,36.7148065,3.181739,56.58,-1.03,-0.8,1.44,81,218,1.9537042379379272,1.3145142793655396
36,-0.021614644676446915,-2.469233512878418,0.023431288078427315,36.7147901,3.1817235,53.97,-1.05,-0.84,1.43,81,218,1.9675464630126953,1.3465336561203003
37,-0.04846024513244629,-2.4697747230529785,-0.021252335980534554,36.7147756,3.1817094,51.73,-1.06,-0.87,1.44,81,218,1.9991194009780884,1.3807460069656372
38,-0.03233598172664642,-2.469650983810425,0.030651280656456947,36.7147612,3.1816949,49.48,-1.06,-0.88,1.44,80,218,2.0023844242095947,1.3833439350128174
39,-0.06051584705710411,-2.469245195388794,-0.005393216386437416,36.7147441,3.1816778,46.87,-1.06,-0.89,1.45,80,218,2.0134036540985107,1.3893306255340576
40,-0.008402818813920021,-2.4693498611450195,0.006116998381912708,36.7147296,3.1816631,44.63,-1.06,-0.87,1.46,79,218,2.0137109756469727,1.3790643215179443
41,-0.04667897894978523,-2.4695518016815186,0.02436400018632412,36.7147126,3.181646,42.0,-1.06,-0.89,1.46,79,218,2.020573139190674,1.3873895406723022
42,-0.021331483498215675,-2.4699437618255615,-0.018250226974487305,36.714698,3.1816313,39.76,-1.08,-0.88,1.47,79,218,2.0335707664489746,1.3996447324752808
43,-0.05677874758839607,-2.4694504737854004,0.02013632468879223,36.7146834,3.1816166,37.51,-1.05,-0.89,1.47,78,218,2.0260636806488037,1.3860664367675781
44,-0.05360257998108864,-2.469426155090332,-0.019990291446447372,36.7146664,3.1815994,34.89,-1.06,-0.89,1.47,78,218,2.028475522994995,1.3915290832519531
45,-0.026331206783652306,-2.469208240509033,0.030188895761966705,36.7146519,3.1815847,32.63,-1.06,-0.88,1.47,78,218,2.0222370624542236,1.3869823217391968
46,-0.06138969957828522,-2.4695637226104736,0.006976569537073374,36.7146348,3.1815675,30.02,-1.06,-0.88,1.48,77,218,2.029205083847046,1.3861808776855469
47,-0.010509495623409748,-2.46936297416687,0.005907934159040451,36.7146203,3.1815528,27.77,-1.06,-0.87,1.47,77,218,2.024155855178833,1.3833725452423096
48,-0.06062810495495796,-2.469578742980957,-0.0027672729920595884,36.7146056,3.1815381,25.51,-1.06,-0.89,1.47,77,218,2.027738332748413,1.3914461135864258
49,-0.022816522046923637,-2.4697253704071045,-0.023265646770596504,36.7145886,3.1815209,22.89,-1.06,-0.87,1.47,76,218,2.0227549076080322,1.3805958032608032
50,-0.13757476210594177,-3.048304796218872,-0.08225767314434052,36.7145706,3.1815091,20.74,-1.79,-0.25,1.17,76,185,2.163532257080078,1.8156317472457886
51,-0.25446563959121704,2.676513910293579,-0.02813858352601528,36.7145279,3.1815256,19.94,-3.6,1.74,-0.05,75,153,4.00242280960083,4.001981735229492
52,-0.1602822244167328,2.6795074939727783,0.024959778413176537,36.7144742,3.1815585,20.03,-4.07,2.03,0.01,75,153,4.559770584106445,4.559728145599365
53,-0.03790916129946709,2.9382622241973877,0.1442929208278656,36.7144209,3.1815862,19.98,-3.62,0.73,0.05,75,168,3.702230930328369,3.701860189437866
54,-0.35707026720046997,-2.1990623474121094,0.11028119921684265,36.7143709,3.1815598,19.96,-3.0,-3.69,0.01,74,234,4.7608819007873535,4.760849952697754
55,-0.5104411840438843,-2.143091917037964,-0.012804037891328335,36.7143234,3.1814711,19.96,-4.15,-6.6,0.01,74,237,7.802170276641846,7.802160263061523
56,-0.43097296357154846,-2.1487369537353516,0.010020110756158829,36.7142502,3.1813268,19.97,-4.92,-7.69,0.0,73,236,9.13853645324707,9.138532638549805
57,-0.3428466022014618,-2.151158094406128,-0.0273093581199646,36.714184,3.1811986,19.99,-4.68,-7.23,0.0,73,236,8.62397575378418,8.623973846435547
58,-0.2516995966434479,-2.145540475845337,0.033994223922491074,36.7141259,3.1810861,19.98,-3.85,-6.06,0.02,73,237,7.184839248657227,7.184791564941406
59,-0.27545785903930664,-2.1144869327545166,-0.013179772533476353,36.7140699,3.1809724,19.96,-3.33,-5.66,0.01,72,238,6.578535079956055,6.578524589538574
60,-0.29328128695487976,-2.1000871658325195,0.029568661004304886,36.7140259,3.1808774,19.96,-3.2,-5.65,0.0,72,239,6.493605136871338,6.493600368499756
61,-0.1639605015516281,-2.0998761653900146,-0.027283817529678345,36.7139758,3.1807677,19.96,-2.98,-5.24,0.0,71,239,6.036317348480225,6.036316871643066
62,0.14567047357559204,-2.1006624698638916,0.027204250916838646,36.7139425,3.1806955,19.94,-1.69,-2.95,0.03,71,239,3.4116406440734863,3.4114410877227783
63,0.06994304060935974,-2.10036301612854,-0.0012360642431303859,36.71393,3.1806679,19.95,-0.1,-0.21,-0.01,71,239,0.23606738448143005,0.23539026081562042
64,0.022210340946912766,-2.09926176071167,0.06205812841653824,36.7139308,3.1806691,19.93,0.19,0.08,0.04,70,239,0.21987617015838623,0.21593308448791504
