timestamp,pitch,yaw,roll,lat,lon,alt,velocity_x,velocity_y,velocity_z,battery,heading,airspeed,groundspeed
0,0.012137525714933872,0.028435589745640755,-0.02219519205391407,36.7156067,3.18463,18.99,-0.02,0.02,0.04,96,1,0.0608920119702816,0.034894250333309174
1,-0.059705059975385666,0.025499381124973297,0.1240852028131485,36.7156077,3.1846323,18.97,0.29,0.54,0.0,95,1,0.6187517642974854,0.618751049041748
2,-0.2214263528585434,1.5255078077316284,-0.08998342603445053,36.7156218,3.1846619,18.94,1.57,2.63,-0.03,95,84,2.733179807662964,2.7330992221832275
3,-0.14548955857753754,0.9378169178962708,-0.02230021543800831,36.7156477,3.1847147,18.99,2.08,3.43,-0.04,95,53,4.0225043296813965,4.022284030914307
4,0.020590661093592644,0.9961100816726685,0.03002924472093582,36.7156757,3.1847713,19.02,1.79,2.93,-0.02,94,57,3.4370243549346924,3.4369401931762695
5,0.2645334005355835,1.5087672472000122,0.1652057021856308,36.7156861,3.1847929,19.02,-0.93,-1.29,0.0,94,86,1.5939956903457642,1.5939903259277344
6,-0.06197194382548332,-3.1409130096435547,0.15695004165172577,36.7156628,3.1847511,19.06,-2.24,-3.18,-0.02,93,180,3.891728639602661,3.891672134399414
7,-0.14189915359020233,-1.9305447340011597,0.016474690288305283,36.7156324,3.1846952,19.05,-2.18,-3.26,0.0,93,249,3.925290822982788,3.925286293029785
8,-0.08832330256700516,-1.433991551399231,0.22187772393226624,36.7156137,3.1846333,19.03,0.36,-2.85,0.0,93,277,2.881215810775757,2.8812079429626465
9,-0.4041478633880615,-0.6520766615867615,0.10126171261072159,36.7156446,3.1845845,19.03,4.13,-3.19,0.0,92,322,5.227673530578613,5.227672100067139
10,-0.5342655777931213,-0.6277833580970764,-0.01066893432289362,36.7157353,3.1845045,19.03,7.05,-4.88,0.0,92,324,8.579322814941406,8.57931900024414
11,-0.5012867450714111,-0.6197463274002075,0.022388648241758347,36.7158379,3.1844154,19.05,7.85,-5.52,0.0,91,324,9.604083061218262,9.60407829284668
12,-0.3481912910938263,-0.6224650740623474,-0.02935393713414669,36.7159604,3.1843072,19.08,7.35,-5.24,-0.02,91,324,9.038640022277832,9.038613319396973
13,-0.047689758241176605,-0.6303842663764954,-0.020835615694522858,36.7160475,3.1842298,19.09,5.09,-3.72,0.04,91,323,6.305978298187256,6.3058271408081055
14,0.020396171137690544,-1.2091386318206787,-0.30415841937065125,36.7160917,3.1841764,19.22,1.06,-2.89,-0.26,90,290,3.092055559158325,3.080723524093628
15,-0.397586464881897,-2.1383936405181885,-0.02259979210793972,36.7160714,3.1841066,20.34,-3.26,-4.71,-0.99,90,237,5.820066928863525,5.7345290184021
16,-0.4715571105480194,-2.1585748195648193,-0.03159501403570175,36.7160138,3.1840057,22.26,-4.94,-7.14,-1.48,89,236,8.814135551452637,8.688861846923828
17,-0.4705783426761627,-2.16524600982666,0.043735355138778687,36.7159286,3.1838522,25.1,-5.53,-8.05,-1.59,89,235,9.904373168945312,9.774378776550293
18,-0.42843490839004517,-2.1642870903015137,-0.0010122545063495636,36.7158534,3.1837142,27.55,-5.54,-8.21,-1.57,88,236,10.03155517578125,9.90677261352539
19,-0.45856985449790955,-2.164323091506958,-0.03414849936962128,36.7157783,3.1835747,30.01,-5.55,-8.26,-1.59,88,236,10.087506294250488,9.960620880126953
20,-0.44562456011772156,-2.1626570224761963,0.034144748002290726,36.7156909,3.1834117,32.9,-5.51,-8.26,-1.61,88,236,10.061376571655273,9.931108474731445
21,-0.4292077422142029,-2.1635429859161377,-0.0062287044711411,36.7156162,3.1832726,35.39,-5.53,-8.24,-1.61,87,236,10.060903549194336,9.930656433105469
22,-0.4913342595100403,-2.1647636890411377,0.018022501841187477,36.7155289,3.1831097,38.3,-5.5,-8.29,-1.62,87,235,10.088912010192871,9.957676887512207
23,-0.4358411729335785,-2.1635019779205322,0.02948666922748089,36.7154543,3.1829698,40.8,-5.51,-8.28,-1.63,86,236,10.08588695526123,9.952884674072266
24,-0.4332888126373291,-2.1666276454925537,-0.020378239452838898,36.7153793,3.1828299,43.31,-5.52,-8.27,-1.62,86,235,10.084882736206055,9.952493667602539
25,-0.486213743686676,-2.163975238800049,0.029648374766111374,36.7152925,3.1826673,46.22,-5.5,-8.3,-1.64,85,236,10.097908973693848,9.963665008544922
26,-0.4267474114894867,-2.163381576538086,0.017102878540754318,36.7152176,3.1825271,48.73,-5.52,-8.29,-1.63,85,236,10.098287582397461,9.964266777038574
27,-0.48627403378486633,-2.1642744541168213,-0.008137408643960953,36.7151302,3.1823638,51.66,-5.5,-8.28,-1.62,84,236,10.078861236572266,9.94680404663086
28,-0.45568275451660156,-2.164048433303833,0.03326534107327461,36.7150558,3.1822244,54.15,-5.5,-8.25,-1.63,84,236,10.057547569274902,9.924148559570312
29,-0.2163362056016922,-2.1679468154907227,0.0006278498331084847,36.7149849,3.182093,56.52,-4.75,-7.07,-1.42,84,235,8.640243530273438,8.521895408630371
30,-0.08022850751876831,-2.1578598022460938,0.03126563876867294,36.714925,3.181981,58.41,-2.84,-4.37,-0.63,83,236,5.255526542663574,5.21659517288208
31,-0.12068628519773483,-2.104982614517212,-0.004659447818994522,36.7148929,3.1819157,58.96,-2.12,-3.69,-0.14,83,239,4.268500328063965,4.265904903411865
32,-0.14056599140167236,-2.085998058319092,0.027513548731803894,36.714861,3.181844,59.01,-2.01,-3.7,-0.01,82,240,4.215395450592041,4.215369701385498
33,-0.009578535333275795,-2.0894808769226074,-0.03518019989132881,36.7148353,3.1817858,58.99,-1.63,-2.97,0.08,82,240,3.395341157913208,3.394334554672241
34,0.01552980113774538,-2.317171096801758,-0.021934213116765022,36.7148167,3.1817498,58.15,-1.21,-1.4,1.14,82,227,2.179872512817383,1.8576384782791138
35,-0.0570395365357399,-2.4765732288360596,0.006285983137786388,36.7147991,3.181731,55.56,-1.05,-0.8,1.44,81,218,1.957308053970337,1.3235774040222168
36,-0.012291008606553078,-2.4769351482391357,0.004382140003144741,36.7147849,3.1817179,53.32,-1.06,-0.83,1.42,81,218,1.9634859561920166,1.3482320308685303
37,-0.041177473962306976,-2.476022958755493,0.028502652421593666,36.714768,3.1817013,50.71,-1.07,-0.87,1.43,81,218,1.9924532175064087,1.3836513757705688
38,-0.02712302841246128,-2.475673198699951,-0.02821206860244274,36.7147534,3.1816867,48.47,-1.09,-0.88,1.44,80,218,2.0204951763153076,1.4075239896774292
39,-0.01069264579564333,-2.474926710128784,0.01754414290189743,36.7147385,3.181672,46.22,-1.08,-0.88,1.45,80,218,2.0156171321868896,1.3954871892929077
40,-0.05828999727964401,-2.4754598140716553,-0.007083696313202381,36.7147213,3.181655,43.6,-1.07,-0.88,1.45,79,218,2.0171797275543213,1.3950797319412231
41,-0.013520559296011925,-2.475425958633423,0.01717483624815941,36.7147066,3.1816404,41.36,-1.08,-0.87,1.46,79,218,2.021768808364868,1.3937886953353882
42,-0.05081290379166603,-2.4762418270111084,0.02335320971906185,36.7146894,3.1816232,38.75,-1.08,-0.89,1.47,79,218,2.039691925048828,1.4072502851486206
43,-0.011199072003364563,-2.4753103256225586,-0.013314394280314445,36.7146746,3.1816085,36.49,-1.08,-0.88,1.47,78,218,2.0290329456329346,1.3961098194122314
44,-0.01826394908130169,-2.4751272201538086,0.022378940135240555,36.7146573,3.1815913,33.88,-1.07,-0.87,1.47,78,218,2.0276787281036377,1.3919843435287476
45,-0.05030002072453499,-2.475314140319824,-0.02486507222056389,36.7146426,3.1815766,31.63,-1.08,-0.88,1.48,78,218,2.039241075515747,1.4017709493637085
46,-0.022776300087571144,-2.475553035736084,0.023668503388762474,36.7146278,3.1815618,29.38,-1.06,-0.88,1.48,77,218,2.0273211002349854,1.3853726387023926
47,-0.06092701107263565,-2.4755914211273193,0.010368287563323975,36.7146106,3.1815447,26.75,-1.07,-0.88,1.47,77,218,2.029162645339966,1.3926862478256226
48,-0.009063845500349998,-2.4755234718322754,-0.005304194986820221,36.7145958,3.1815299,24.5,-1.08,-0.87,1.48,77,218,2.0353035926818848,1.3962559700012207
49,-0.06464143097400665,-2.4757819175720215,0.004577552899718285,36.714581,3.1815152,22.25,-1.07,-0.88,1.47,76,218,2.0303826332092285,1.3941746950149536
50,-0.13135388493537903,-3.100693941116333,-0.14010243117809296,36.7145598,3.1815016,19.74,-1.87,-0.16,1.11,76,182,2.186210870742798,1.8820075988769531
51,-0.2282840758562088,2.6678571701049805,0.012418873608112335,36.7145241,3.181515,19.02,-3.41,1.65,-0.02,75,152,3.796154260635376,3.7960431575775146
52,-0.1854090690612793,2.6723084449768066,-0.011216985993087292,36.7144629,3.1815532,19.13,-4.01,2.04,0.02,75,153,4.5112714767456055,4.511173725128174
53,0.00041918703936971724,2.9936978816986084,0.19383259117603302,36.7144105,3.1815795,19.07,-3.52,0.53,0.05,75,171,3.56358003616333,3.563159465789795
54,-0.41961273550987244,-2.196570634841919,0.13017570972442627,36.7143615,3.1815481,19.05,-3.02,-3.96,0.01,74,234,4.990114212036133,4.990077495574951
55,-0.453510046005249,-2.1486642360687256,-0.0018496537813916802,36.7143131,3.1814557,19.05,-4.24,-6.74,0.0,74,236,7.969603538513184,7.96959924697876
56,-0.47638386487960815,-2.1483922004699707,-0.022700496017932892,36.7142501,3.1813318,19.06,-4.89,-7.69,0.0,73,236,9.122961044311523,9.12296199798584
57,-0.30167901515960693,-2.1522982120513916,0.010686030611395836,36.7141731,3.1811826,19.08,-4.63,-7.14,0.0,73,236,8.521281242370605,8.521279335021973
58,-0.25191202759742737,-2.1457271575927734,-0.012324386276304722,36.7141157,3.1810715,19.08,-3.8,-6.0,0.03,73,237,7.108713150024414,7.10863733291626
59,-0.2435174286365509,-2.1184022426605225,0.012835820205509663,36.7140599,3.1809583,19.05,-3.36,-5.65,0.01,72,238,6.581943511962891,6.5819315910339355
60,-0.3107900321483612,-2.1074085235595703,-0.016946785151958466,36.7140153,3.1808635,19.06,-3.28,-5.64,0.01,72,239,6.531503677368164,6.531495094299316
61,-0.16158443689346313,-2.1083998680114746,0.027853375300765038,36.7139711,3.1807691,19.06,-3.11,-5.34,0.0,71,239,6.1870317459106445,6.187032222747803
62,0.12249869853258133,-2.1095101833343506,0.008873574435710907,36.7139316,3.1806849,19.03,-1.6,-2.73,0.03,71,239,3.1722254753112793,3.1720499992370605
63,0.13832250237464905,-2.109102249145508,-0.0027491997461766005,36.7139205,3.1806609,19.04,-0.19,-0.34,-0.01,71,239,0.3922954201698303,0.39181026816368103
64,-0.008439579047262669,-2.1097171306610107,0.09364097565412521,36.7139214,3.1806619,19.01,0.24,0.04,0.03,70,239,0.24954617023468018,0.24633553624153137
