timestamp,pitch,yaw,roll,lat,lon,alt,velocity_x,velocity_y,velocity_z,battery,heading,airspeed,groundspeed
0,-0.00237523065879941,-0.036621760576963425,-0.02228105254471302,36.7156066,3.1846299,22.54,-0.01,0.02,-0.09,96,357,0.10080120712518692,0.034177958965301514
1,-0.042549580335617065,-0.03158716484904289,0.12933754920959473,36.715608,3.1846325,22.53,0.35,0.58,-0.04,95,358,0.6830024123191833,0.6812940835952759
2,-0.2434159368276596,1.4430644512176514,-0.10900600254535675,36.7156207,3.1846556,22.57,1.61,2.39,-0.04,95,82,2.8877201080322266,2.887324094772339
3,-0.18292292952537537,0.9008567929267883,-0.02076837420463562,36.7156541,3.1847166,22.57,2.4,3.51,-0.01,95,51,4.263603687286377,4.263567924499512
4,0.01289368700236082,0.9401425123214722,0.027818476781249046,36.7156867,3.1847748,22.56,2.16,3.1,0.0,94,53,3.7840769290924072,3.784074306488037
5,0.3417135179042816,0.832079291343689,-0.018072348088026047,36.7157036,3.1848033,22.58,-0.6,-0.94,-0.02,94,47,1.1214838027954102,1.1212507486343384
6,-0.03225643187761307,-0.8643749356269836,-0.20316122472286224,36.7156824,3.1847642,22.56,-2.17,-3.15,0.04,93,310,3.836017370223999,3.8357226848602295
7,-0.11075009405612946,-2.344360828399658,0.06338004767894745,36.7156519,3.1847086,22.6,-2.23,-3.25,-0.03,93,225,3.9472908973693848,3.9471421241760254
8,-0.07150319218635559,-1.5962907075881958,0.24010123312473297,36.7156296,3.184646,22.56,-0.06,-2.88,0.02,93,268,2.886944532394409,2.886805772781372
9,-0.3709784150123596,-0.6446018815040588,0.05943155288696289,36.7156547,3.1845982,22.55,3.74,-3.03,0.0,92,323,4.825766563415527,4.82576322555542
10,-0.5360381603240967,-0.6148887872695923,0.0019649858586490154,36.7157259,3.1845353,22.55,6.52,-4.55,0.0,92,324,7.953640937805176,7.953639030456543
11,-0.46492844820022583,-0.6157575249671936,-0.01654723286628723,36.7158422,3.1844347,22.57,7.84,-5.49,0.0,91,324,9.575547218322754,9.575546264648438
12,-0.4384336471557617,-0.6190699338912964,-0.022438233718276024,36.7159486,3.184341,22.59,7.67,-5.46,0.0,91,324,9.42013931274414,9.420135498046875
13,-0.04131010174751282,-0.6231138110160828,-0.015492910519242287,36.7160566,3.1842456,22.63,5.51,-3.92,0.05,91,324,6.769377708435059,6.769172668457031
14,0.035621460527181625,-1.0291624069213867,-0.2283199429512024,36.7161081,3.1841907,22.7,1.71,-2.87,-0.18,90,301,3.3551363945007324,3.3500843048095703
15,-0.4026150703430176,-2.1274688243865967,-0.107695072889328,36.7160965,3.1841247,23.68,-2.9,-4.42,-0.9,90,238,5.373342990875244,5.297136306762695
16,-0.4948277175426483,-2.1622564792633057,0.03998471051454544,36.7160421,3.1840295,25.49,-4.8,-6.87,-1.42,89,236,8.511297225952148,8.391032218933105
17,-0.4239812195301056,-2.163344144821167,0.005816145334392786,36.7159704,3.1839008,27.86,-5.49,-7.99,-1.61,89,236,9.829132080078125,9.696028709411621
18,-0.4903571903705597,-2.1638948917388916,0.009095346555113792,36.7158828,3.1837403,30.74,-5.52,-8.18,-1.57,88,236,10.00157356262207,9.877532958984375
19,-0.4470455050468445,-2.1642115116119385,0.037457335740327835,36.7158078,3.1836009,33.21,-5.55,-8.25,-1.58,88,236,10.069355010986328,9.943944931030273
20,-0.4728398323059082,-2.1635029315948486,-0.027601296082139015,36.7157204,3.1834383,36.1,-5.52,-8.25,-1.58,87,236,10.057578086853027,9.93152904510498
21,-0.48567017912864685,-2.164731025695801,0.03333510085940361,36.7156456,3.183299,38.59,-5.51,-8.28,-1.6,87,235,10.081132888793945,9.953277587890625
22,-0.4269873797893524,-2.1639602184295654,0.013197939842939377,36.7155709,3.1831596,41.08,-5.52,-8.29,-1.6,87,236,10.095376014709473,9.966533660888672
23,-0.4943666160106659,-2.164033889770508,0.00013478090113494545,36.7154837,3.1829965,44.0,-5.51,-8.3,-1.6,86,236,10.100837707519531,9.971735954284668
24,-0.454226553440094,-2.1668193340301514,0.04200585186481476,36.7154087,3.1828566,46.49,-5.52,-8.29,-1.62,86,235,10.095728874206543,9.964062690734863
25,-0.46465006470680237,-2.166330337524414,-0.02356044389307499,36.7153216,3.1826936,49.41,-5.5,-8.27,-1.62,85,235,10.069235801696777,9.937825202941895
26,-0.4847661554813385,-2.164090394973755,0.024208270013332367,36.715247,3.1825537,51.91,-5.5,-8.29,-1.63,85,236,10.091354370117188,9.958191871643066
27,-0.4297525882720947,-2.1638236045837402,0.027769284322857857,36.7151722,3.1824138,54.41,-5.52,-8.3,-1.63,84,236,10.1103515625,9.976512908935547
28,-0.48069536685943604,-2.163494348526001,-0.018250172957777977,36.7150851,3.1822507,57.34,-5.52,-8.29,-1.62,84,236,10.097728729248047,9.965418815612793
29,-0.28360632061958313,-2.1684999465942383,0.03519202396273613,36.7150129,3.1821168,59.75,-4.92,-7.29,-1.46,83,235,8.921972274780273,8.801572799682617
30,-0.07941477745771408,-2.162569999694824,-0.008246449753642082,36.7149495,3.1819987,61.8,-3.03,-4.62,-0.72,83,236,5.580315113067627,5.533222198486328
31,-0.12701021134853363,-2.12180233001709,0.034511927515268326,36.7149157,3.1819316,62.46,-2.21,-3.71,-0.18,83,238,4.329106330871582,4.325029373168945
32,-0.162882998585701,-2.1019845008850098,-0.022330017760396004,36.7148872,3.1818701,62.54,-2.08,-3.69,0.0,82,239,4.243980407714844,4.243974685668945
33,0.012445741333067417,-2.103299140930176,-0.009563843719661236,36.7148551,3.1818004,62.52,-1.8,-3.16,0.01,82,239,3.641352891921997,3.6413166522979736
34,0.0009977946756407619,-2.263282299041748,-0.0477743074297905,36.7148351,3.1817606,61.92,-1.22,-1.56,0.94,82,230,2.205061912536621,1.9899468421936035
35,-0.04176584631204605,-2.47982120513916,-0.022948646917939186,36.7148174,3.1817405,59.42,-1.03,-0.8,1.45,81,217,1.9561147689819336,1.3069136142730713
36,-0.0301680788397789,-2.4720263481140137,0.03326553478837013,36.7148035,3.1817274,57.17,-1.04,-0.83,1.41,81,218,1.9462430477142334,1.3328697681427002
37,-0.04017386958003044,-2.4704439640045166,-0.025292789563536644,36.7147892,3.1817132,54.93,-1.06,-0.88,1.42,81,218,1.990343689918518,1.3856070041656494
38,-0.005401782225817442,-2.4697506427764893,-0.0007013979484327137,36.7147723,3.1816963,52.31,-1.07,-0.87,1.43,80,218,1.9950326681137085,1.3842507600784302
39,-0.06004166603088379,-2.4696855545043945,0.009210428223013878,36.7147577,3.1816817,50.07,-1.06,-0.88,1.44,80,218,1.999284267425537,1.3822932243347168
40,-0.04240799322724342,-2.4696619510650635,-0.019975697621703148,36.7147407,3.1816646,47.45,-1.07,-0.88,1.45,79,218,2.0130906105041504,1.3944627046585083
41,-0.03321925923228264,-2.4696099758148193,0.03038991242647171,36.7147262,3.1816499,45.21,-1.06,-0.88,1.45,79,218,2.01070499420166,1.385430097579956
42,-0.05951876938343048,-2.470085859298706,0.0035736507270485163,36.7147092,3.1816327,42.59,-1.06,-0.89,1.46,79,218,2.0188794136047363,1.3889904022216797
43,-0.006022085435688496,-2.4689064025878906,0.007984738796949387,36.7146945,3.1816181,40.35,-1.07,-0.88,1.47,78,218,2.0282351970672607,1.3912982940673828
44,-0.057364776730537415,-2.4694576263427734,0.007191214710474014,36.7146799,3.1816033,38.1,-1.05,-0.89,1.47,78,218,2.024956464767456,1.384240746498108
45,-0.037764135748147964,-2.4696147441864014,-0.02715139463543892,36.7146629,3.1815862,35.48,-1.07,-0.88,1.47,78,218,2.0277581214904785,1.3905209302902222
46,-0.03663716837763786,-2.469756603240967,0.030039627104997635,36.7146484,3.1815715,33.23,-1.05,-0.87,1.47,77,218,2.0175623893737793,1.3765689134597778
47,-0.027440223842859268,-2.4693470001220703,-0.022500867024064064,36.7146338,3.1815568,30.98,-1.06,-0.89,1.47,77,218,2.026775360107422,1.392235517501831
48,-0.007605035323649645,-2.4695348739624023,-0.0009490354568697512,36.7146168,3.1815395,28.35,-1.06,-0.88,1.46,76,218,2.0200247764587402,1.3858251571655273
49,-0.06076597794890404,-2.4696097373962402,0.002557785017415881,36.7146022,3.1815248,26.1,-1.06,-0.88,1.47,76,218,2.0203006267547607,1.3856889009475708
50,-0.10487066954374313,-2.949615240097046,-0.13084514439105988,36.7145826,3.1815097,23.53,-1.69,-0.37,1.26,76,191,2.1435647010803223,1.7321668863296509
51,-0.2326444685459137,2.671060085296631,-0.003379257395863533,36.7145499,3.1815185,22.54,-3.22,1.49,0.04,75,153,3.5519979000091553,3.551764488220215
52,-0.1948186308145523,2.672402858734131,-0.008212842047214508,36.71449,3.1815556,22.64,-4.0,2.04,0.0,75,153,4.497915267944336,4.497913360595703
53,-0.0032244441099464893,2.8889706134796143,0.1563747376203537,36.7144368,3.1815851,22.6,-3.62,0.94,0.06,75,165,3.746530532836914,3.746009111404419
54,-0.36879682540893555,-2.316957712173462,0.16963958740234375,36.7143932,3.1815731,22.57,-2.9,-2.78,0.02,74,227,4.024936676025391,4.024842262268066
55,-0.46249526739120483,-2.142019510269165,-0.02121959626674652,36.7143406,3.1814793,22.57,-4.06,-6.47,0.01,74,237,7.649472236633301,7.649464130401611
56,-0.5019250512123108,-2.1469266414642334,-0.012940486893057823,36.7142792,3.181358,22.58,-4.88,-7.64,0.0,73,237,9.07160758972168,9.07160472869873
57,-0.32177022099494934,-2.1521573066711426,-0.014900590293109417,36.7142016,3.1812079,22.6,-4.75,-7.32,0.0,73,236,8.736372947692871,8.736371040344238
58,-0.26311418414115906,-2.1484525203704834,0.005320257041603327,36.7141424,3.1810936,22.6,-3.93,-6.15,0.03,73,236,7.310455322265625,7.310374736785889
59,-0.24756111204624176,-2.1252622604370117,0.03319283202290535,36.7140934,3.1809955,22.58,-3.43,-5.67,0.02,72,238,6.635827541351318,6.635775089263916
60,-0.3138118386268616,-2.109123706817627,0.019455410540103912,36.7140409,3.1808847,22.58,-3.28,-5.65,0.01,72,239,6.540444374084473,6.540426731109619
61,-0.1794542372226715,-2.108698844909668,-0.00018167683447245508,36.7139966,3.1807897,22.58,-3.19,-5.49,0.0,71,239,6.357776165008545,6.357774257659912
62,0.12435178458690643,-2.1093966960906982,0.028618281707167625,36.7139542,3.1806995,22.56,-1.87,-3.19,0.04,71,239,3.702331304550171,3.7020745277404785
63,0.13255654275417328,-2.1092073917388916,-0.028447385877370834,36.7139402,3.1806694,22.56,-0.32,-0.55,-0.01,71,239,0.6482720971107483,0.6479877233505249
64,-0.01105388905853033,-2.1087005138397217,0.03732732683420181,36.7139401,3.1806688,22.55,0.11,0.14,0.02,70,239,0.19268280267715454,0.1905539631843567
