timestamp,pitch,yaw,roll,lat,lon,alt,velocity_x,velocity_y,velocity_z,battery,heading,airspeed,groundspeed
0,0.02436492033302784,0.03793385997414589,-0.014730279333889484,36.7156067,3.1846299,19.36,-0.03,0.02,0.05,96,2,0.07033714652061462,0.040384966880083084
1,-0.08501143008470535,0.03705765679478645,0.11636363714933395,36.715608,3.1846324,19.33,0.34,0.55,0.0,95,2,0.6573477983474731,0.6573440432548523
2,-0.23367099463939667,1.3588885068893433,-0.08214830607175827,36.7156246,3.1846615,19.29,1.84,2.57,-0.03,95,77,3.166379690170288,3.1661441326141357
3,-0.1380823403596878,0.9426011443138123,-0.022005997598171234,36.7156545,3.1847133,19.34,2.43,3.36,-0.04,95,54,4.152817249298096,4.152566432952881
4,-0.011240800842642784,0.9293293952941895,0.0028859255835413933,36.7156873,3.184769,19.37,2.15,2.93,-0.02,94,53,3.6421141624450684,3.6420023441314697
5,0.31434789299964905,0.5861623883247375,-0.13881716132164001,36.7157029,3.1847929,19.37,-0.7,-1.11,0.0,94,33,1.320360779762268,1.3203591108322144
6,-0.0538024865090847,-1.0495213270187378,-0.13973994553089142,36.715681,3.1847524,19.42,-2.2,-3.18,-0.02,93,299,3.879162311553955,3.8790695667266846
7,-0.09137841314077377,-2.3951003551483154,0.0921827107667923,36.7156456,3.1846878,19.41,-2.09,-3.28,0.01,93,222,3.893298387527466,3.8932812213897705
8,-0.026591388508677483,-1.5593713521957397,0.2165176123380661,36.7156298,3.1846346,19.39,0.13,-2.87,0.01,93,270,2.8815619945526123,2.8815393447875977
9,-0.4091816842556,-0.6597043871879578,0.11097583174705505,36.7156574,3.1845864,19.39,3.94,-3.1,0.0,92,322,5.017457485198975,5.017457485198975
10,-0.5184060335159302,-0.6267450451850891,-0.01780962012708187,36.7157458,3.1845086,19.39,6.95,-4.79,0.0,92,324,8.44438362121582,8.444379806518555
11,-0.5165724754333496,-0.6178364753723145,0.01740250550210476,36.7158477,3.1844207,19.41,7.87,-5.49,0.0,91,324,9.59858226776123,9.598580360412598
12,-0.3733487129211426,-0.61878502368927,0.017043638974428177,36.7159541,3.1843273,19.43,7.62,-5.39,-0.02,91,324,9.342769622802734,9.342743873596191
13,-0.08060196042060852,-0.6232610940933228,-0.016769221052527428,36.7160605,3.1842336,19.46,5.36,-3.83,0.04,91,324,6.59039306640625,6.590249538421631
14,0.07174080610275269,-1.1029216051101685,-0.27334192395210266,36.7161092,3.1841791,19.55,1.47,-2.88,-0.21,90,296,3.2507524490356445,3.2433149814605713
15,-0.3933848440647125,-2.1330463886260986,-0.03109382651746273,36.7160942,3.1841116,20.58,-3.04,-4.5,-0.93,90,237,5.517999649047852,5.437602996826172
16,-0.4559759497642517,-2.1591546535491943,-0.02747579663991928,36.7160388,3.1840142,22.45,-4.86,-6.95,-1.44,89,236,8.610645294189453,8.488283157348633
17,-0.4797383248806,-2.163254499435425,0.02818845398724079,36.7159545,3.1838628,25.24,-5.54,-8.07,-1.6,89,236,9.930474281311035,9.799271583557129
18,-0.4296388030052185,-2.164167642593384,0.01628655567765236,36.7158791,3.1837246,27.7,-5.56,-8.2,-1.58,88,236,10.036701202392578,9.910850524902344
19,-0.44182175397872925,-2.164541006088257,-0.028777236118912697,36.7158037,3.1835851,30.16,-5.54,-8.24,-1.59,88,235,10.062946319580078,9.935935020446777
20,-0.4616681933403015,-2.163417100906372,0.03557026386260986,36.7157165,3.1834223,33.05,-5.5,-8.24,-1.6,88,236,10.039268493652344,9.909727096557617
21,-0.4271358251571655,-2.163142204284668,0.012040171772241592,36.7156418,3.1832832,35.54,-5.52,-8.23,-1.61,87,236,10.048604011535645,9.918183326721191
22,-0.49246180057525635,-2.164360523223877,0.0011100686388090253,36.7155546,3.1831204,38.46,-5.5,-8.29,-1.61,87,236,10.079421997070312,9.94970989227295
23,-0.4534771740436554,-2.16373348236084,0.03849644213914871,36.7154801,3.1829807,40.95,-5.51,-8.28,-1.62,86,236,10.081524848937988,9.949702262878418
24,-0.42632225155830383,-2.166388511657715,-0.0067219301126897335,36.7154052,3.182841,43.44,-5.53,-8.29,-1.63,86,235,10.1087064743042,9.97575569152832
25,-0.4923722445964813,-2.1638503074645996,0.017289184033870697,36.715318,3.1826778,46.36,-5.48,-8.28,-1.63,85,236,10.068510055541992,9.935429573059082
26,-0.4440828561782837,-2.162943124771118,0.02873934991657734,36.7152436,3.1825384,48.86,-5.52,-8.31,-1.64,85,236,10.114395141601562,9.980058670043945
27,-0.4778708517551422,-2.1651735305786133,-0.01756317727267742,36.715156,3.1823748,51.79,-5.53,-8.31,-1.63,84,235,10.123040199279785,9.98957347869873
28,-0.47586390376091003,-2.164055347442627,0.025574374943971634,36.7150814,3.1822349,54.29,-5.5,-8.27,-1.63,84,236,10.070209503173828,9.936098098754883
29,-0.24158082902431488,-2.1681933403015137,0.018996110185980797,36.7150097,3.1821019,56.7,-4.86,-7.22,-1.45,84,235,8.830438613891602,8.710186004638672
30,-0.08875580877065659,-2.1618454456329346,0.016399679705500603,36.7149477,3.1819862,58.68,-2.96,-4.53,-0.69,83,236,5.465022087097168,5.420849323272705
31,-0.11660511046648026,-2.120039463043213,0.009914149530231953,36.7149142,3.1819197,59.31,-2.21,-3.7,-0.17,83,238,4.322301387786865,4.318811416625977
32,-0.1593451052904129,-2.1021955013275146,0.035393718630075455,36.714881,3.181848,59.37,-2.06,-3.68,0.0,82,239,4.220829486846924,4.220822811126709
33,-0.002306498121470213,-2.103515863418579,-0.028740109875798225,36.714854,3.1817891,59.36,-1.76,-3.09,0.03,82,239,3.5621585845947266,3.561959743499756
34,0.038556985557079315,-2.3451037406921387,-0.029118094593286514,36.7148316,3.1817469,58.39,-1.2,-1.33,1.21,82,225,2.1706342697143555,1.799471378326416
35,-0.05600862577557564,-2.476619243621826,-0.01495431549847126,36.7148168,3.1817309,56.15,-1.03,-0.8,1.45,81,218,1.9588252305984497,1.311509609222412
36,-0.012471862137317657,-2.4715137481689453,0.023839276283979416,36.7148027,3.1817177,53.91,-1.03,-0.81,1.43,81,218,1.9439843893051147,1.314365029335022
37,-0.05821642279624939,-2.4703528881073,0.020767180249094963,36.7147861,3.1817013,51.3,-1.06,-0.87,1.44,81,218,1.9935261011123657,1.3780343532562256
38,-0.01541093923151493,-2.469682216644287,-0.010281012393534184,36.7147715,3.1816868,49.05,-1.07,-0.88,1.44,80,218,2.0100133419036865,1.394468903541565
39,-0.05952790752053261,-2.4695706367492676,0.016037674620747566,36.714757,3.1816722,46.81,-1.06,-0.87,1.45,80,218,2.004040479660034,1.3792498111724854
40,-0.007181392051279545,-2.4696404933929443,-0.00845134723931551,36.7147424,3.1816576,44.56,-1.07,-0.87,1.45,79,218,2.0135059356689453,1.3869556188583374
41,-0.03273720294237137,-2.469576358795166,0.02883175201714039,36.7147255,3.1816404,41.95,-1.06,-0.88,1.46,79,218,2.0158376693725586,1.3856382369995117
42,-0.06287546455860138,-2.469900131225586,0.0005361323710530996,36.7147084,3.1816232,39.33,-1.06,-0.89,1.47,79,218,2.0231330394744873,1.3885080814361572
43,-0.011155813932418823,-2.469071865081787,0.01025273185223341,36.7146938,3.1816085,37.09,-1.07,-0.87,1.48,78,218,2.0289628505706787,1.3869284391403198
44,-0.0387861505150795,-2.46976637840271,0.030212799087166786,36.7146767,3.1815913,34.46,-1.06,-0.88,1.48,78,218,2.0278499126434326,1.384386420249939
45,-0.023992978036403656,-2.469578742980957,-0.023948386311531067,36.7146622,3.1815767,32.21,-1.06,-0.88,1.47,78,218,2.025296449661255,1.3833314180374146
46,-0.04742914065718651,-2.470168352127075,0.027012154459953308,36.7146476,3.1815619,29.96,-1.05,-0.88,1.47,77,218,2.0204319953918457,1.377639889717102
47,-0.05527431145310402,-2.46903657913208,-0.015787264332175255,36.7146306,3.1815447,27.34,-1.06,-0.88,1.47,77,218,2.0240488052368164,1.3860576152801514
48,-0.013329941779375076,-2.469179153442383,0.019747057929635048,36.714616,3.18153,25.08,-1.06,-0.87,1.47,77,218,2.018332004547119,1.3805387020111084
49,-0.05339493602514267,-2.469825267791748,0.02023313008248806,36.714599,3.1815129,22.46,-1.06,-0.88,1.47,76,218,2.0179800987243652,1.3809382915496826
50,-0.09046810865402222,-3.001986503601074,-0.12342195212841034,36.7145814,3.1815007,20.28,-1.73,-0.31,1.21,76,188,2.147137403488159,1.7670502662658691
51,-0.25159379839897156,2.6692304611206055,-0.009374761953949928,36.7145476,3.1815111,19.38,-3.28,1.53,0.01,75,152,3.624164342880249,3.624112606048584
52,-0.17644403874874115,2.67230486869812,-0.027308642864227295,36.7144876,3.1815482,19.48,-4.02,2.05,0.01,75,153,4.517210960388184,4.5171990394592285
53,-0.01887836866080761,2.916691780090332,0.19045764207839966,36.7144346,3.1815769,19.43,-3.61,0.83,0.05,75,167,3.7130260467529297,3.7126011848449707
54,-0.4137347936630249,-2.2121517658233643,0.11869931221008301,36.7143847,3.1815529,19.41,-2.97,-3.6,0.01,74,233,4.674988746643066,4.674954891204834
55,-0.4561644494533539,-2.1420295238494873,0.023424578830599785,36.7143379,3.1814654,19.41,-4.11,-6.54,0.01,74,237,7.734924793243408,7.734917640686035
56,-0.48532581329345703,-2.1484806537628174,-0.019647199660539627,36.714265,3.1813219,19.42,-4.91,-7.69,0.0,73,236,9.132233619689941,9.132231712341309
57,-0.3241449296474457,-2.1518125534057617,0.02822871133685112,36.7141986,3.1811932,19.44,-4.71,-7.27,-0.01,73,236,8.665292739868164,8.665285110473633
58,-0.21673858165740967,-2.1473801136016846,-0.011668847873806953,36.7141401,3.1810802,19.44,-3.89,-6.08,0.03,73,236,7.225345611572266,7.225279331207275
59,-0.258002907037735,-2.1201841831207275,0.035465773195028305,36.7140838,3.1809665,19.41,-3.38,-5.66,0.01,72,238,6.602421283721924,6.602407932281494
60,-0.2826150357723236,-2.108332395553589,-0.023877207189798355,36.7140389,3.1808714,19.42,-3.29,-5.63,0.01,72,239,6.5272088050842285,6.5271992683410645
61,-0.21374352276325226,-2.1092774868011475,0.03123234212398529,36.7139946,3.1807769,19.42,-3.17,-5.44,0.0,71,239,6.304946422576904,6.304945945739746
62,0.1126800999045372,-2.1089141368865967,-0.01998514123260975,36.7139532,3.1806885,19.4,-1.77,-3.05,0.03,71,239,3.5394070148468018,3.5391812324523926
63,0.14134500920772552,-2.109142541885376,0.022862406447529793,36.7139401,3.1806602,19.4,-0.28,-0.5,-0.02,71,239,0.5761602520942688,0.5757541656494141
64,-0.0279813501983881,-2.1102895736694336,0.06423233449459076,36.7139403,3.1806603,19.38,0.18,0.08,0.04,70,239,0.2038453072309494,0.19924761354923248
