timestamp,pitch,yaw,roll,lat,lon,alt,velocity_x,velocity_y,velocity_z,battery,heading,airspeed,groundspeed
0,-0.0012710151495411992,0.03707804158329964,-0.02194298431277275,36.7156067,3.18463,19.19,-0.03,0.03,0.05,96,2,0.06891675293445587,0.042887333780527115
1,-0.04473721608519554,0.033191926777362823,0.114110566675663,36.7156079,3.1846322,19.16,0.3,0.51,0.0,95,1,0.6005396842956543,0.6005392074584961
2,-0.23811446130275726,1.380135416984558,-0.08698265999555588,36.7156196,3.1846535,19.12,1.51,2.23,-0.02,95,79,2.701632022857666,2.701554298400879
3,-0.17326676845550537,0.9328078627586365,-0.026999805122613907,36.7156511,3.184711,19.17,2.29,3.34,-0.04,95,53,4.053939342498779,4.053719520568848
4,0.02642146684229374,0.9438058733940125,0.023044390603899956,36.7156822,3.1847663,19.21,2.04,2.89,-0.02,94,54,3.547499895095825,3.5474042892456055
5,0.3130350410938263,0.7775585651397705,-0.03860040381550789,36.7156962,3.1847893,19.21,-0.77,-1.15,0.0,94,44,1.3927639722824097,1.3927607536315918
6,-0.040529824793338776,-0.9415091276168823,-0.19183450937271118,36.7156739,3.1847486,19.25,-2.19,-3.18,-0.02,93,306,3.874455213546753,3.8743786811828613
7,-0.10912314802408218,-2.3906025886535645,0.07665985077619553,36.7156435,3.1846931,19.25,-2.21,-3.28,0.01,93,223,3.96130633354187,3.9612812995910645
8,-0.09000041335821152,-1.5240604877471924,0.24686774611473083,36.7156234,3.1846305,19.22,0.19,-2.86,0.01,93,272,2.8669517040252686,2.866926670074463
9,-0.3754802346229553,-0.6493515372276306,0.06919801980257034,36.7156521,3.1845824,19.22,3.99,-3.13,0.0,92,322,5.075459957122803,5.075459003448486
10,-0.5322454571723938,-0.62160325050354,-0.002361047314479947,36.7157258,3.1845174,19.22,6.67,-4.63,0.0,92,324,8.12804126739502,8.128039360046387
11,-0.4591934382915497,-0.6157894730567932,-0.0036976069677621126,36.7158434,3.1844159,19.24,7.87,-5.49,0.0,91,324,9.599235534667969,9.599231719970703
12,-0.39461830258369446,-0.6209042072296143,0.014402016997337341,36.7159664,3.1843077,19.27,7.43,-5.29,-0.01,91,324,9.128417015075684,9.128402709960938
13,-0.02589069865643978,-0.625040590763092,-0.015147121623158455,36.7160553,3.1842291,19.29,5.31,-3.8,0.04,91,324,6.540849685668945,6.54069709777832
14,0.005108634475618601,-1.1089779138565063,-0.26670917868614197,36.7161033,3.184175,19.39,1.38,-2.87,-0.22,90,296,3.200399398803711,3.192265272140503
15,-0.3922130763530731,-2.1326684951782227,-0.09483770281076431,36.7160872,3.184107,20.44,-3.09,-4.56,-0.94,90,237,5.593936920166016,5.512887477874756
16,-0.5114597678184509,-2.16094708442688,0.02243802510201931,36.7160313,3.184009,22.31,-4.9,-7.02,-1.45,89,236,8.692336082458496,8.569913864135742
17,-0.4163939356803894,-2.164222478866577,-0.0024323214311152697,36.7159463,3.1838564,25.12,-5.54,-8.03,-1.6,89,236,9.89693832397461,9.765594482421875
18,-0.4858882427215576,-2.163961172103882,-0.016539297997951508,36.7158709,3.1837183,27.58,-5.53,-8.18,-1.57,88,236,10.008227348327637,9.88392448425293
19,-0.4727194905281067,-2.1647844314575195,0.033618465065956116,36.7157959,3.1835794,30.05,-5.52,-8.23,-1.58,88,235,10.047310829162598,9.921191215515137
20,-0.44893866777420044,-2.16591215133667,-0.02965814620256424,36.7157088,3.1834168,32.94,-5.53,-8.27,-1.6,87,235,10.087411880493164,9.95920181274414
21,-0.4884546399116516,-2.1636455059051514,-0.0037486108485609293,36.7156339,3.1832769,35.43,-5.51,-8.28,-1.6,87,236,10.075769424438477,9.947111129760742
22,-0.4291778802871704,-2.1634206771850586,0.0007540128426626325,36.7155467,3.1831142,38.33,-5.52,-8.28,-1.62,87,236,10.088932991027832,9.957291603088379
23,-0.47148391604423523,-2.163780927658081,-0.028219591826200485,36.7154718,3.1829742,40.83,-5.52,-8.3,-1.62,86,236,10.104968070983887,9.972912788391113
24,-0.4865266978740692,-2.168454647064209,0.030128054320812225,36.715397,3.1828347,43.33,-5.51,-8.27,-1.62,86,235,10.077970504760742,9.94534683227539
25,-0.4373205304145813,-2.163767099380493,-0.014943614602088928,36.7153103,3.1826719,46.25,-5.51,-8.29,-1.63,85,236,10.094468116760254,9.96183967590332
26,-0.4873591661453247,-2.163203716278076,-0.01690777763724327,36.7152354,3.1825316,48.75,-5.54,-8.3,-1.63,85,236,10.116162300109863,9.983086585998535
27,-0.4256375730037689,-2.164752721786499,0.01594136655330658,36.7151479,3.1823683,51.68,-5.52,-8.27,-1.64,84,235,10.08399772644043,9.949685096740723
28,-0.44363176822662354,-2.1639275550842285,-0.030379611998796463,36.7150732,3.1822287,54.19,-5.49,-8.26,-1.62,84,236,10.062437057495117,9.930163383483887
29,-0.29341816902160645,-2.1685972213745117,0.016934560611844063,36.715002,3.1820964,56.57,-4.84,-7.19,-1.44,83,235,8.794356346130371,8.675329208374023
30,-0.04843468219041824,-2.160966396331787,-0.014325953088700771,36.7149405,3.1819813,58.54,-2.95,-4.49,-0.67,83,236,5.427412509918213,5.3847551345825195
31,-0.15012559294700623,-2.119788646697998,0.04125766456127167,36.7149071,3.1819148,59.14,-2.2,-3.69,-0.16,83,238,4.308155536651611,4.304881572723389
32,-0.1788148432970047,-2.1021947860717773,-0.01555007603019476,36.714874,3.1818434,59.2,-2.08,-3.68,-0.01,82,239,4.231009483337402,4.230995178222656
33,0.008107692934572697,-2.1038334369659424,0.020426977425813675,36.714847,3.1817848,59.19,-1.74,-3.06,0.04,82,239,3.5210366249084473,3.5207269191741943
34,-0.0034171007573604584,-2.3515512943267822,-0.027932485565543175,36.7148248,3.1817431,58.18,-1.18,-1.3,1.23,82,225,2.152472496032715,1.759615421295166
35,-0.012370920740067959,-2.475306749343872,-0.016734182834625244,36.7148101,3.1817274,55.93,-1.02,-0.8,1.44,81,218,1.948822259902954,1.3043935298919678
36,-0.06426896154880524,-2.4717512130737305,0.01835845224559307,36.714796,3.1817142,53.69,-1.04,-0.83,1.43,81,218,1.9581962823867798,1.3371833562850952
37,-0.04670510068535805,-2.469888925552368,-0.02164411172270775,36.7147793,3.1816978,51.07,-1.06,-0.87,1.44,80,218,1.9954153299331665,1.379301905632019
38,-0.02392388880252838,-2.469698667526245,0.027395153418183327,36.7147648,3.1816834,48.83,-1.06,-0.87,1.44,80,218,1.996248483657837,1.3750911951065063
39,-0.061081357300281525,-2.4695324897766113,0.008209580555558205,36.7147478,3.1816663,46.22,-1.06,-0.89,1.45,80,218,2.0167975425720215,1.3945016860961914
40,-0.008678290992975235,-2.4696977138519287,-0.008822414092719555,36.7147333,3.1816515,43.97,-1.06,-0.89,1.46,79,218,2.019693374633789,1.3938153982162476
41,-0.061875808984041214,-2.469789505004883,0.006529942620545626,36.7147187,3.1816368,41.72,-1.06,-0.88,1.46,79,218,2.015160083770752,1.3870095014572144
42,-0.04220648109912872,-2.4697394371032715,-0.024366844445466995,36.7147017,3.1816198,39.11,-1.07,-0.89,1.47,79,218,2.0305700302124023,1.3943698406219482
43,-0.03933838754892349,-2.4693033695220947,0.03202873840928078,36.714687,3.1816051,36.86,-1.06,-0.88,1.47,78,218,2.0221800804138184,1.3850586414337158
44,-0.06216466426849365,-2.46954607963562,0.007072194013744593,36.7146701,3.1815879,34.23,-1.05,-0.89,1.47,78,218,2.021602153778076,1.3854427337646484
45,-0.008884552866220474,-2.469430446624756,0.005293886177241802,36.7146555,3.1815731,31.99,-1.06,-0.88,1.47,78,218,2.024751901626587,1.386375069618225
46,-0.05921692028641701,-2.470045566558838,0.0018496420234441757,36.7146409,3.1815583,29.74,-1.06,-0.89,1.48,77,218,2.034897565841675,1.3943144083023071
47,-0.03075430542230606,-2.4694769382476807,-0.02097400091588497,36.7146238,3.1815412,27.11,-1.06,-0.88,1.47,77,218,2.023540735244751,1.3858778476715088
48,-0.035083409398794174,-2.4696810245513916,0.031269676983356476,36.7146093,3.1815266,24.86,-1.05,-0.88,1.47,77,218,2.0195109844207764,1.3770849704742432
49,-0.029725294560194016,-2.4696044921875,-0.024977458640933037,36.7145947,3.1815119,22.62,-1.06,-0.88,1.47,76,218,2.0268821716308594,1.3854392766952515
50,-0.0874767154455185,-3.021739959716797,-0.09897688031196594,36.7145745,3.1814973,20.07,-1.76,-0.28,1.2,76,186,2.1545560359954834,1.7888391017913818
51,-0.23283089697360992,2.675281286239624,0.014973169192671776,36.7145325,3.1815126,19.22,-3.55,1.72,-0.05,75,153,3.947955369949341,3.947539806365967
52,-0.15877117216587067,2.679311513900757,-0.027817215770483017,36.714479,3.1815454,19.31,-4.06,2.04,0.01,75,153,4.54986572265625,4.549838066101074
53,-0.03965315967798233,2.915398359298706,0.19534894824028015,36.7144254,3.1815739,19.26,-3.63,0.81,0.05,75,167,3.726557731628418,3.726156711578369
54,-0.409801185131073,-2.213285446166992,0.10489567369222641,36.7143753,3.18155,19.24,-2.97,-3.59,0.01,74,233,4.66387939453125,4.6638383865356445
55,-0.4696181118488312,-2.1425161361694336,0.03403038531541824,36.7143286,3.1814628,19.24,-4.11,-6.55,0.0,74,237,7.738585472106934,7.738579273223877
56,-0.44459086656570435,-2.1477854251861572,-0.03186444565653801,36.7142666,3.1813405,19.25,-4.89,-7.66,0.0,73,236,9.090887069702148,9.090886116027832
57,-0.33228906989097595,-2.152517318725586,0.03096321038901806,36.714189,3.1811903,19.27,-4.7,-7.25,0.0,73,236,8.647588729858398,8.647583961486816
58,-0.21433021128177643,-2.1465959548950195,-0.004987515974789858,36.7141307,3.1810775,19.27,-3.87,-6.08,0.03,73,237,7.215232849121094,7.215166091918945
59,-0.2614234685897827,-2.114565372467041,0.04205391928553581,36.7140749,3.1809637,19.24,-3.35,-5.68,0.01,72,238,6.603950023651123,6.603936672210693
60,-0.2748577296733856,-2.10010027885437,-0.025957847014069557,36.7140306,3.1808683,19.25,-3.22,-5.64,0.01,72,239,6.505599498748779,6.505589962005615
61,-0.2112109363079071,-2.100670099258423,0.03150139003992081,36.7139871,3.1807735,19.24,-3.1,-5.44,0.0,71,239,6.267046928405762,6.267046928405762
62,0.10686240345239639,-2.1008481979370117,-0.01907346025109291,36.7139465,3.1806852,19.22,-1.74,-3.06,0.03,71,239,3.5303115844726562,3.5301060676574707
63,0.14247120916843414,-2.10058331489563,0.02075297012925148,36.7139337,3.1806569,19.23,-0.27,-0.49,-0.02,71,239,0.5640842318534851,0.5636156797409058
64,-0.024828869849443436,-2.1018455028533936,0.06617406755685806,36.7139339,3.1806572,19.21,0.18,0.09,0.04,70,239,0.21331258118152618,0.2094670534133911
