timestamp,pitch,yaw,roll,lat,lon,alt,velocity_x,velocity_y,velocity_z,battery,heading,airspeed,groundspeed
0,0.03265172243118286,-0.006449653301388025,0.00383473071269691,36.7156066,3.1846299,21.42,-0.03,0.03,-0.04,96,359,0.06038394942879677,0.04415510222315788
1,-0.07987314462661743,-0.01518222875893116,0.08970902115106583,36.7156076,3.1846319,21.37,0.27,0.48,-0.02,95,359,0.5543437600135803,0.5537413358688354
2,-0.2089964896440506,1.4933583736419678,-0.12472903728485107,36.7156213,3.1846587,21.4,1.59,2.44,-0.04,95,85,2.917771100997925,2.917457342147827
3,-0.12071587890386581,0.8725700378417969,0.012054210528731346,36.715648,3.1847085,21.41,2.17,3.27,-0.02,95,49,3.9318108558654785,3.931743860244751
4,0.07558047026395798,0.9673782587051392,0.024132797494530678,36.7156815,3.1847702,21.41,1.68,2.52,0.0,94,55,3.036205291748047,3.036195755004883
5,0.3443710207939148,1.075717806816101,0.00846329890191555,36.7156896,3.1847844,21.44,-0.84,-1.23,-0.01,94,61,1.4924217462539673,1.4922951459884644
6,-0.053636420518159866,2.8674731254577637,0.19856193661689758,36.7156669,3.1847432,21.41,-2.21,-3.15,0.04,93,164,3.8540375232696533,3.8537538051605225
7,-0.13022442162036896,-1.8996942043304443,0.043598197400569916,36.7156318,3.1846781,21.46,-2.07,-3.24,0.0,93,251,3.853300094604492,3.8532936573028564
8,-0.038284897804260254,-1.4752534627914429,0.2295176088809967,36.7156168,3.1846253,21.41,0.26,-2.86,0.01,93,275,2.8799245357513428,2.8798725605010986
9,-0.4289114773273468,-0.6460776925086975,0.08062663674354553,36.7156561,3.1845675,21.41,4.6,-3.37,0.0,92,322,5.706665992736816,5.706664085388184
10,-0.49553725123405457,-0.6275741457939148,-0.0163103137165308,36.7157363,3.1844975,21.41,6.99,-4.87,-0.01,92,324,8.526447296142578,8.526436805725098
11,-0.5225615501403809,-0.6226387619972229,-0.0030390857718884945,36.7158382,3.1844087,21.43,7.87,-5.54,0.0,91,324,9.632987976074219,9.632987022399902
12,-0.32511135935783386,-0.6234107613563538,-0.0006847343756817281,36.7159614,3.1843,21.46,7.38,-5.26,-0.02,91,324,9.067852973937988,9.067817687988281
13,-0.05747678503394127,-0.6285966634750366,-0.05151267349720001,36.716049,3.1842223,21.47,5.15,-3.74,0.04,91,323,6.370934009552002,6.370777130126953
14,-0.07084556668996811,-1.4146056175231934,-0.31351616978645325,36.7160963,3.1841607,21.67,0.43,-2.93,-0.34,90,278,2.9909443855285645,2.9712305068969727
15,-0.43498969078063965,-2.133937358856201,-0.0354594886302948,36.7160758,3.1840997,22.69,-3.2,-4.67,-0.97,90,237,5.752285003662109,5.669198989868164
16,-0.44172197580337524,-2.1593668460845947,0.007735174149274826,36.7160186,3.1839993,24.59,-4.92,-7.08,-1.47,89,236,8.755058288574219,8.629852294921875
17,-0.49289897084236145,-2.1640827655792236,-0.016609791666269302,36.7159336,3.1838467,27.41,-5.55,-8.04,-1.59,89,236,9.904153823852539,9.774287223815918
18,-0.4624367654323578,-2.164276123046875,0.04250185191631317,36.7158584,3.1837087,29.88,-5.54,-8.24,-1.57,88,236,10.05674934387207,9.932021141052246
19,-0.4516874849796295,-2.163179636001587,-0.03251655399799347,36.7157708,3.1835455,32.74,-5.54,-8.25,-1.59,88,236,10.070199012756348,9.942506790161133
20,-0.4915609657764435,-2.1676833629608154,0.008004389703273773,36.7156957,3.1834063,35.23,-5.52,-8.23,-1.6,88,235,10.047961235046387,9.919095039367676
21,-0.46368640661239624,-2.164646625518799,0.04649926349520683,36.7156212,3.1832672,37.72,-5.51,-8.29,-1.6,87,235,10.09206485748291,9.962885856628418
22,-0.46236079931259155,-2.1627187728881836,-0.028952358290553093,36.7155341,3.1831038,40.63,-5.51,-8.28,-1.61,87,236,10.084112167358398,9.953957557678223
23,-0.4918431341648102,-2.16458797454834,0.01533462293446064,36.7154592,3.1829642,43.12,-5.52,-8.27,-1.63,86,235,10.083722114562988,9.9506196975708
24,-0.42533040046691895,-2.164578437805176,-0.005369447637349367,36.715372,3.1828014,46.04,-5.51,-8.3,-1.63,86,235,10.104179382324219,9.971230506896973
25,-0.4750206768512726,-2.1625912189483643,-0.028788108378648758,36.7152974,3.1826615,48.54,-5.48,-8.29,-1.62,85,236,10.07953929901123,9.94722843170166
26,-0.48286744952201843,-2.1641273498535156,0.022218558937311172,36.7152227,3.1825214,51.04,-5.52,-8.28,-1.64,85,236,10.091241836547852,9.956710815429688
27,-0.4299725592136383,-2.1650032997131348,-0.013596036471426487,36.7151352,3.1823583,53.96,-5.51,-8.28,-1.64,84,235,10.0899019241333,9.955318450927734
28,-0.47139930725097656,-2.1622376441955566,-0.02658006176352501,36.7150608,3.1822189,56.47,-5.5,-8.3,-1.63,84,236,10.096369743347168,9.963550567626953
29,-0.17881815135478973,-2.168485641479492,0.022428691387176514,36.7149789,3.1820671,59.21,-4.54,-6.72,-1.35,83,235,8.228011131286621,8.11596393585205
30,-0.06824184209108353,-2.1582510471343994,-0.011170584708452225,36.7149293,3.1819739,60.77,-2.87,-4.41,-0.65,83,236,5.314090728759766,5.27311897277832
31,-0.11308956891298294,-2.0992047786712646,0.01331031508743763,36.7148922,3.1818979,61.37,-2.1,-3.69,-0.1,83,239,4.254275798797607,4.2529826164245605
32,-0.18176239728927612,-2.0856096744537354,-0.005061579402536154,36.7148648,3.1818363,61.39,-2.0,-3.7,0.0,82,240,4.209525108337402,4.2095160484313965
33,0.02069677971303463,-2.088623523712158,0.006437019445002079,36.714839,3.1817779,61.38,-1.64,-3.0,0.06,82,240,3.4235143661499023,3.422858953475952
34,-0.002425581682473421,-2.3633170127868652,-0.02127929776906967,36.7148177,3.1817376,60.27,-1.17,-1.25,1.28,82,224,2.1490883827209473,1.7212339639663696
35,-0.011764044873416424,-2.472644329071045,-0.015544486232101917,36.714803,3.1817222,58.01,-1.04,-0.8,1.44,81,218,1.9519816637039185,1.3140517473220825
36,-0.022122832015156746,-2.469576358795166,0.027806967496871948,36.7147866,3.1817067,55.4,-1.04,-0.82,1.43,81,218,1.960936427116394,1.3344248533248901
37,-0.04530170187354088,-2.4701807498931885,-0.02411426417529583,36.7147722,3.1816926,53.15,-1.06,-0.88,1.43,81,218,1.9987682104110718,1.3877837657928467
38,-0.0328238308429718,-2.4698688983917236,0.02661292254924774,36.7147577,3.1816781,50.91,-1.06,-0.88,1.44,80,218,2.0026721954345703,1.3853129148483276
39,-0.059388238936662674,-2.4694700241088867,-0.006997391115874052,36.7147408,3.1816609,48.3,-1.06,-0.88,1.46,80,218,2.0139269828796387,1.3864232301712036
40,-0.010660221800208092,-2.469979763031006,0.007967351004481316,36.7147262,3.1816463,46.05,-1.07,-0.87,1.46,79,218,2.01619553565979,1.3851031064987183
41,-0.047374993562698364,-2.470101833343506,0.02493659220635891,36.7147091,3.1816293,43.43,-1.06,-0.89,1.46,79,218,2.0195987224578857,1.3908987045288086
42,-0.020177535712718964,-2.4703402519226074,-0.01908724009990692,36.7146946,3.1816145,41.19,-1.07,-0.88,1.47,79,218,2.03277850151062,1.398207426071167
43,-0.05908675119280815,-2.4696812629699707,0.01854439079761505,36.71468,3.1815998,38.94,-1.06,-0.88,1.47,78,218,2.025362730026245,1.38633131980896
44,-0.05237821489572525,-2.4694132804870605,-0.020760107785463333,36.714663,3.1815827,36.31,-1.06,-0.9,1.47,78,218,2.0315585136413574,1.3991485834121704
45,-0.027075517922639847,-2.469583511352539,0.02828451432287693,36.7146484,3.1815679,34.07,-1.06,-0.88,1.47,78,218,2.0268161296844482,1.3850153684616089
46,-0.06199133023619652,-2.4700441360473633,0.009138728491961956,36.7146313,3.1815508,31.45,-1.05,-0.88,1.47,77,218,2.0234076976776123,1.380820393562317
47,-0.004776933696120977,-2.4699900150299072,0.0021013356745243073,36.7146168,3.1815361,29.19,-1.06,-0.88,1.47,77,218,2.0207250118255615,1.384047269821167
48,-0.06212199479341507,-2.469860792160034,-0.0010776768904179335,36.7146022,3.1815214,26.94,-1.06,-0.89,1.47,77,218,2.02325439453125,1.3872454166412354
49,-0.016454437747597694,-2.469578981399536,0.013175759464502335,36.7145876,3.1815066,24.7,-1.06,-0.88,1.48,76,218,2.029999256134033,1.385290265083313
50,-0.13767659664154053,-3.0673840045928955,-0.07908451557159424,36.714567,3.1814927,22.17,-1.82,-0.21,1.14,76,184,2.1673738956451416,1.8374342918395996
51,-0.2519671320915222,2.6766157150268555,-0.019920554012060165,36.7145236,3.1815098,21.41,-3.62,1.77,-0.06,75,153,4.031879425048828,4.031418800354004
52,-0.14925384521484375,2.67964506149292,0.018729180097579956,36.7144698,3.1815428,21.51,-4.06,2.03,0.02,75,153,4.542932987213135,4.542864799499512
53,-0.04256906732916832,2.952530860900879,0.1503961980342865,36.7144166,3.18157,21.45,-3.6,0.68,0.05,75,169,3.672980785369873,3.6725683212280273
54,-0.36114928126335144,-2.1959691047668457,0.10401841998100281,36.714367,3.1815422,21.43,-3.02,-3.77,0.01,74,234,4.839826583862305,4.839791297912598
55,-0.5105496644973755,-2.1458232402801514,-0.004375997930765152,36.7143189,3.181452,21.43,-4.17,-6.64,0.01,74,237,7.847743034362793,7.847731590270996
56,-0.4186710715293884,-2.149224281311035,0.0011960919946432114,36.7142456,3.1813076,21.44,-4.91,-7.69,0.0,73,236,9.132814407348633,9.132813453674316
57,-0.34784257411956787,-2.151672601699829,-0.0242251418530941,36.7141795,3.1811796,21.46,-4.68,-7.24,0.0,73,236,8.626922607421875,8.62691879272461
58,-0.24350738525390625,-2.1451539993286133,0.04117511212825775,36.7141215,3.1810672,21.45,-3.82,-6.03,0.02,73,237,7.143738269805908,7.1436872482299805
59,-0.2861935794353485,-2.114636182785034,-0.007678945083171129,36.7140658,3.1809539,21.43,-3.33,-5.65,0.01,72,238,6.565261363983154,6.565251350402832
60,-0.2808849811553955,-2.100170135498047,0.03486710041761398,36.7140219,3.1808591,21.43,-3.2,-5.65,0.0,72,239,6.4961395263671875,6.496133804321289
61,-0.16943344473838806,-2.100100517272949,-0.020022867247462273,36.7139717,3.1807495,21.44,-2.97,-5.21,0.0,71,239,6.005805015563965,6.005805015563965
62,0.16518104076385498,-2.101038932800293,0.023674827069044113,36.7139389,3.1806781,21.41,-1.65,-2.88,0.03,71,239,3.3294568061828613,3.329265594482422
63,0.07069769501686096,-2.1007752418518066,0.012428377754986286,36.7139267,3.1806514,21.42,-0.09,-0.18,-0.01,71,239,0.20808760821819305,0.20746244490146637
64,0.021253684535622597,-2.099508047103882,0.04813583195209503,36.7139277,3.1806529,21.4,0.21,0.07,0.04,70,239,0.23163148760795593,0.22802789509296417
