timestamp,pitch,yaw,roll,lat,lon,alt,velocity_x,velocity_y,velocity_z,battery,heading,airspeed,groundspeed
0,0.008625967428088188,0.04009947553277016,0.029019275680184364,36.7156067,3.18463,19.97,-0.03,0.01,0.05,96,2,0.0667935237288475,0.040402475744485855
1,-0.0941295474767685,0.05641067400574684,0.08166107535362244,36.7156082,3.1846329,19.93,0.39,0.63,0.0,95,3,0.7490792870521545,0.7490789890289307
2,-0.1846836656332016,1.4145927429199219,-0.08268002420663834,36.7156221,3.1846584,19.9,1.69,2.55,-0.03,95,81,3.0686564445495605,3.068505048751831
3,-0.14719705283641815,0.9858336448669434,0.018725957721471786,36.7156553,3.1847209,19.95,2.31,3.46,-0.03,95,56,4.168555736541748,4.168391704559326
4,0.07945418357849121,0.965006947517395,-0.025632042437791824,36.7156857,3.1847766,19.97,1.88,2.73,-0.01,94,55,3.3257803916931152,3.3257334232330322
5,0.3565777838230133,0.7839195132255554,-0.06185448542237282,36.7156946,3.1847912,19.97,-1.07,-1.62,-0.01,94,44,1.9440208673477173,1.9439939260482788
6,-0.08554736524820328,-1.04129159450531,-0.1310541033744812,36.7156699,3.1847463,20.01,-2.23,-3.24,-0.01,93,300,3.9371633529663086,3.9371285438537598
7,-0.05982381850481033,-2.4277431964874268,0.050564493983983994,36.7156397,3.1846909,20.0,-2.11,-3.29,0.01,93,220,3.9152066707611084,3.915178060531616
8,-0.08729127049446106,-1.3415913581848145,0.27594977617263794,36.7156242,3.1846296,19.98,0.66,-2.78,0.01,93,283,2.8617396354675293,2.861721992492676
9,-0.44119271636009216,-0.653561532497406,0.04449794441461563,36.7156594,3.1845803,19.98,4.41,-3.27,0.0,92,322,5.498607158660889,5.498606204986572
10,-0.4828452467918396,-0.6254675388336182,0.02336355857551098,36.7157534,3.1844983,19.98,7.17,-4.95,-0.01,92,324,8.720108032226562,8.720101356506348
11,-0.4892168939113617,-0.6190770268440247,-0.030273234471678734,36.7158565,3.1844091,20.0,7.91,-5.52,0.0,91,324,9.649447441101074,9.649447441101074
12,-0.3251529335975647,-0.6205015182495117,0.02665167860686779,36.7159793,3.1843014,20.03,7.26,-5.15,-0.02,91,324,8.912932395935059,8.9129056930542
13,-0.004883527290076017,-0.6333059072494507,-0.07393836230039597,36.7160644,3.1842261,20.04,4.89,-3.6,0.03,91,323,6.075963973999023,6.075832843780518
14,-0.039589520543813705,-1.2837849855422974,-0.2529233396053314,36.7161051,3.1841739,20.2,0.8,-2.87,-0.3,90,286,3.0020902156829834,2.986994504928589
15,-0.4457288980484009,-2.1405012607574463,-0.06591872125864029,36.7160816,3.1841019,21.39,-3.42,-4.86,-1.02,90,237,6.038466453552246,5.950161457061768
16,-0.48288431763648987,-2.162186861038208,0.041077759116888046,36.7160224,3.1839984,23.36,-5.03,-7.2,-1.49,89,236,8.918134689331055,8.79184627532959
17,-0.4144955575466156,-2.1635217666625977,0.005650639999657869,36.7159493,3.183867,25.79,-5.52,-8.02,-1.6,89,236,9.871329307556152,9.739421844482422
18,-0.4999241828918457,-2.164996385574341,0.012772410176694393,36.7158618,3.1837066,28.65,-5.54,-8.25,-1.57,88,235,10.067089080810547,9.942773818969727
19,-0.4569922685623169,-2.1633739471435547,0.032679326832294464,36.7157865,3.1835665,31.12,-5.55,-8.26,-1.59,88,236,10.089699745178223,9.962224960327148
20,-0.45679304003715515,-2.1628923416137695,-0.0357719287276268,36.7156991,3.1834035,34.0,-5.51,-8.24,-1.6,87,236,10.046205520629883,9.917160034179688
21,-0.49250900745391846,-2.1642746925354004,0.007507110480219126,36.7156245,3.1832646,36.48,-5.51,-8.22,-1.62,87,236,10.036604881286621,9.904940605163574
22,-0.42980098724365234,-2.165346145629883,0.0026879706420004368,36.7155372,3.1831018,39.4,-5.52,-8.29,-1.62,87,235,10.095280647277832,9.963085174560547
23,-0.4680389165878296,-2.163898468017578,-0.02815503254532814,36.7154624,3.1829616,41.91,-5.51,-8.29,-1.62,86,236,10.095239639282227,9.963645935058594
24,-0.4910051226615906,-2.162266969680786,0.016186442226171494,36.7153881,3.1828221,44.4,-5.5,-8.28,-1.63,86,236,10.075355529785156,9.941678047180176
25,-0.4321381449699402,-2.1672160625457764,-0.0034563096705824137,36.7153006,3.1826593,47.32,-5.56,-8.28,-1.64,85,235,10.113594055175781,9.979491233825684
26,-0.4758734405040741,-2.165513277053833,-0.026231102645397186,36.7152256,3.1825191,49.83,-5.5,-8.3,-1.62,85,235,10.09771728515625,9.965404510498047
27,-0.44176143407821655,-2.164008617401123,0.03263592720031738,36.7151389,3.1823561,52.75,-5.5,-8.29,-1.63,84,236,10.093252182006836,9.959237098693848
28,-0.40441766381263733,-2.164111375808716,-0.016600249335169792,36.7150643,3.1822164,55.25,-5.53,-8.25,-1.63,84,236,10.072297096252441,9.938003540039062
29,-0.25239479541778564,-2.168488025665283,-0.0046583060175180435,36.7149936,3.182086,57.61,-4.66,-6.93,-1.38,83,235,8.468482971191406,8.353697776794434
30,-0.03553159907460213,-2.157250165939331,0.002368889283388853,36.7149356,3.181977,59.42,-2.78,-4.28,-0.6,83,236,5.144906997680664,5.109571933746338
31,-0.16828995943069458,-2.115626096725464,0.018132049590349197,36.7149035,3.1819123,59.93,-2.17,-3.71,-0.13,83,238,4.304504871368408,4.302462100982666
32,-0.12705834209918976,-2.101487398147583,0.0183253176510334,36.7148751,3.1818508,59.96,-2.07,-3.67,0.0,82,239,4.219583511352539,4.219576358795166
33,-0.007551053073257208,-2.1065945625305176,0.011737095192074776,36.7148441,3.1817834,59.93,-1.64,-2.86,0.1,82,239,3.303586483001709,3.3017733097076416
34,0.03775768354535103,-2.3384647369384766,-0.058948393911123276,36.7148256,3.1817492,59.02,-1.21,-1.35,1.19,82,226,2.1755659580230713,1.8164825439453125
35,-0.016661101952195168,-2.46732497215271,0.025987625122070312,36.7148083,3.1817308,56.41,-1.03,-0.8,1.44,81,218,1.9483981132507324,1.3112319707870483
36,-0.05171063542366028,-2.4703493118286133,-0.021970681846141815,36.7147942,3.1817175,54.17,-1.05,-0.83,1.43,81,218,1.9651039838790894,1.3453221321105957
37,-0.009618199430406094,-2.4694955348968506,-0.003944238182157278,36.7147775,3.181701,51.56,-1.06,-0.87,1.44,81,218,1.9988001585006714,1.3779436349868774
38,-0.06214100122451782,-2.4699316024780273,0.0047662584111094475,36.714763,3.1816865,49.32,-1.07,-0.89,1.45,80,218,2.0158169269561768,1.395283818244934
39,-0.009977497160434723,-2.4690792560577393,0.01111091859638691,36.7147484,3.1816718,47.07,-1.06,-0.88,1.45,80,218,2.0086050033569336,1.3829725980758667
40,-0.044875580817461014,-2.469620704650879,0.028322452679276466,36.7147315,3.1816548,44.46,-1.06,-0.88,1.46,79,218,2.0148229598999023,1.3818930387496948
41,-0.021360894665122032,-2.4697179794311523,-0.019779542461037636,36.7147169,3.18164,42.21,-1.07,-0.88,1.47,79,218,2.0284810066223145,1.3936593532562256
42,-0.013152622617781162,-2.4695019721984863,0.022372644394636154,36.7146998,3.1816228,39.58,-1.06,-0.88,1.47,79,218,2.020596981048584,1.3847918510437012
43,-0.04260940104722977,-2.469196081161499,-0.022942684590816498,36.7146853,3.1816082,37.34,-1.06,-0.88,1.47,78,218,2.022920608520508,1.38677978515625
44,-0.021064329892396927,-2.4692702293395996,0.025514891371130943,36.7146707,3.1815934,35.1,-1.06,-0.89,1.48,78,218,2.03039288520813,1.3893301486968994
45,-0.06296563148498535,-2.469804048538208,0.010998377576470375,36.7146536,3.1815762,32.47,-1.06,-0.88,1.48,78,218,2.0301172733306885,1.3878649473190308
46,-0.0061425757594406605,-2.469869613647461,-0.0019557359628379345,36.7146391,3.1815615,30.22,-1.05,-0.88,1.47,77,218,2.0187571048736572,1.3757741451263428
47,-0.03940945118665695,-2.4695475101470947,0.030049946159124374,36.714622,3.1815444,27.6,-1.06,-0.88,1.48,77,218,2.0277602672576904,1.3833332061767578
48,-0.025675183162093163,-2.469571590423584,-0.022563869133591652,36.7146074,3.1815296,25.35,-1.06,-0.88,1.48,77,218,2.0238919258117676,1.379165768623352
49,-0.012434616684913635,-2.4701476097106934,0.011061367578804493,36.7145904,3.1815125,22.71,-1.07,-0.88,1.47,76,218,2.0248937606811523,1.387433409690857
50,-0.16426227986812592,3.1410858631134033,-0.1226656436920166,36.7145714,3.181502,20.61,-1.93,-0.08,1.06,76,179,2.2094955444335938,1.9346178770065308
51,-0.20574119687080383,2.6751599311828613,0.0012765324208885431,36.7145343,3.1815167,19.98,-3.49,1.67,-0.04,75,153,3.878085136413574,3.87784743309021
52,-0.1820874661207199,2.679459571838379,0.005335399881005287,36.714472,3.1815548,20.07,-4.05,2.02,0.03,75,153,4.53208589553833,4.531951427459717
53,-0.004246920812875032,3.018024206161499,0.18745359778404236,36.7144195,3.1815801,20.02,-3.54,0.45,0.04,75,172,3.569730520248413,3.56941294670105
54,-0.4007081091403961,-2.1935672760009766,0.13054664433002472,36.7143701,3.1815466,20.0,-3.06,-4.04,0.01,74,234,5.073491096496582,5.073465347290039
55,-0.4617486298084259,-2.1502861976623535,-0.014210442081093788,36.714321,3.181453,20.0,-4.26,-6.77,0.0,74,236,8.005534172058105,8.005531311035156
56,-0.4899604916572571,-2.1489031314849854,-0.017499329522252083,36.7142581,3.181329,20.01,-4.91,-7.7,0.0,73,236,9.139104843139648,9.139103889465332
57,-0.3018764555454254,-2.1529228687286377,-0.001625424949452281,36.7141813,3.1811802,20.03,-4.63,-7.14,0.0,73,236,8.517739295959473,8.517738342285156
58,-0.2598817050457001,-2.1434569358825684,-0.011521751061081886,36.7141241,3.1810693,20.02,-3.78,-5.97,0.02,73,237,7.073819160461426,7.0737624168396
59,-0.2593573331832886,-2.115495204925537,0.04083752632141113,36.7140763,3.180972,20.0,-3.34,-5.66,0.01,72,238,6.582978248596191,6.582968235015869
60,-0.31042391061782837,-2.099205732345581,-0.010412166826426983,36.714025,3.1808611,20.0,-3.21,-5.65,0.0,72,239,6.503952503204346,6.503947734832764
61,-0.1501721888780594,-2.099923849105835,0.02344573847949505,36.7139817,3.1807667,20.0,-3.02,-5.31,0.0,71,239,6.116965293884277,6.116964340209961
62,0.12481296807527542,-2.1007258892059326,0.011491984128952026,36.7139436,3.180684,19.98,-1.5,-2.63,0.02,71,239,3.035845994949341,3.035712718963623
63,0.1354915201663971,-2.1002109050750732,-0.0036795923952013254,36.7139332,3.1806613,19.99,-0.16,-0.32,-0.02,71,239,0.36296287178993225,0.36236831545829773
64,-0.02902013063430786,-2.1013269424438477,0.03537678346037865,36.7139339,3.1806621,19.97,0.16,0.11,0.04,70,239,0.19998586177825928,0.19578664004802704
