timestamp,pitch,yaw,roll,lat,lon,alt,velocity_x,velocity_y,velocity_z,battery,heading,airspeed,groundspeed
0,0.016064684838056564,0.042172662913799286,0.029554657638072968,36.7156067,3.1846299,19.95,-0.03,0.02,0.02,96,2,0.048449303954839706,0.03983636572957039
1,-0.09398656338453293,0.05162009224295616,0.11590629816055298,36.715608,3.1846327,19.9,0.37,0.61,0.0,95,2,0.7148815989494324,0.7148796319961548
2,-0.19178886711597443,1.3948044776916504,-0.11791450530290604,36.7156213,3.1846566,19.87,1.66,2.41,-0.02,95,79,2.9302613735198975,2.9301440715789795
3,-0.11887453496456146,0.9663650393486023,-0.023853415623307228,36.7156544,3.1847159,19.92,2.32,3.33,-0.03,95,55,4.065216541290283,4.065048694610596
4,0.04050604626536369,0.9458707571029663,0.004949340596795082,36.7156852,3.1847698,19.94,1.91,2.67,-0.02,94,54,3.2872934341430664,3.2872283458709717
5,0.2824210226535797,0.5837681293487549,-0.1308242380619049,36.7156947,3.1847845,19.93,-1.06,-1.59,-0.01,94,33,1.9190587997436523,1.9190298318862915
6,-0.04903529956936836,-1.1321583986282349,-0.12099158763885498,36.7156703,3.1847398,19.98,-2.23,-3.25,-0.01,93,295,3.9433863162994385,3.943349838256836
7,-0.11059368401765823,-2.4280471801757812,0.0636054277420044,36.71564,3.1846842,19.97,-2.13,-3.26,0.01,93,220,3.902350902557373,3.9023213386535645
8,-0.10961299389600754,-1.3770496845245361,0.21982097625732422,36.7156242,3.1846226,19.95,0.64,-2.79,0.01,93,281,2.868638515472412,2.868617534637451
9,-0.4073010981082916,-0.6567477583885193,0.09768494218587875,36.7156591,3.1845735,19.95,4.4,-3.26,0.0,92,322,5.4839982986450195,5.483997821807861
10,-0.5430424213409424,-0.6263692378997803,0.002189441816881299,36.715753,3.1844916,19.95,7.17,-4.94,0.0,92,324,8.712087631225586,8.712084770202637
11,-0.4859257936477661,-0.6167739033699036,0.025791291147470474,36.7158564,3.1844022,19.97,7.89,-5.5,0.0,91,324,9.623053550720215,9.62304973602295
12,-0.34697088599205017,-0.6193612217903137,-0.017570864409208298,36.715962,3.1843096,19.99,7.49,-5.32,-0.02,91,324,9.194792747497559,9.194762229919434
13,-0.019737230613827705,-0.632355272769928,-0.01805543340742588,36.7160639,3.1842192,20.01,4.92,-3.6,0.03,91,323,6.104482650756836,6.104363918304443
14,-0.03803131356835365,-1.278955340385437,-0.30968672037124634,36.7161051,3.1841666,20.17,0.82,-2.88,-0.29,90,286,3.0147972106933594,3.0001142024993896
15,-0.38583260774612427,-2.143597364425659,-0.04331962764263153,36.7160818,3.1840949,21.35,-3.42,-4.84,-1.02,90,237,6.019662380218506,5.931272506713867
16,-0.5050007700920105,-2.158564805984497,-0.02717733010649681,36.7160229,3.1839917,23.32,-5.03,-7.2,-1.49,89,236,8.911681175231934,8.785975456237793
17,-0.4695967435836792,-2.163865089416504,0.03561883047223091,36.7159495,3.1838603,25.75,-5.53,-8.03,-1.6,89,236,9.891008377075195,9.759297370910645
18,-0.4544888138771057,-2.1631343364715576,-0.02760271169245243,36.715862,3.1836998,28.61,-5.54,-8.24,-1.57,88,236,10.06125545501709,9.936491966247559
19,-0.49469491839408875,-2.1631531715393066,-0.002631925977766514,36.7157869,3.1835601,31.07,-5.56,-8.27,-1.59,88,236,10.093363761901855,9.96684741973877
20,-0.4185357987880707,-2.163421154022217,0.0030980028677731752,36.7156992,3.1833969,33.97,-5.51,-8.24,-1.6,87,236,10.05308723449707,9.924101829528809
21,-0.4658193588256836,-2.1642677783966064,-0.029497284442186356,36.7156246,3.1832576,36.45,-5.52,-8.24,-1.6,87,236,10.051187515258789,9.921491622924805
22,-0.4835551679134369,-2.165731191635132,0.03161761909723282,36.71555,3.1831185,38.94,-5.5,-8.28,-1.62,87,235,10.074963569641113,9.942368507385254
23,-0.4277355968952179,-2.164106607437134,0.026067610830068588,36.7154751,3.1829786,41.45,-5.5,-8.29,-1.63,86,236,10.089010238647461,9.95533561706543
24,-0.4930635392665863,-2.167017936706543,-0.00903761014342308,36.7153882,3.1828157,44.37,-5.51,-8.28,-1.62,86,235,10.086145401000977,9.954582214355469
25,-0.4295903444290161,-2.1630821228027344,0.015746450051665306,36.7153012,3.1826527,47.27,-5.53,-8.3,-1.64,85,236,10.113567352294922,9.979081153869629
26,-0.4601759612560272,-2.16318678855896,-0.02807006612420082,36.7152262,3.1825123,49.78,-5.53,-8.29,-1.64,85,236,10.107074737548828,9.972572326660156
27,-0.49044933915138245,-2.1656885147094727,0.02639888972043991,36.7151512,3.1823725,52.29,-5.51,-8.28,-1.63,84,235,10.084074020385742,9.950092315673828
28,-0.40473565459251404,-2.163196563720703,-0.015361095778644085,36.7150643,3.1822098,55.21,-5.5,-8.26,-1.63,84,236,10.063943862915039,9.929940223693848
29,-0.2570561170578003,-2.1675524711608887,-0.011147754266858101,36.7149941,3.1820796,57.57,-4.65,-6.92,-1.39,83,235,8.458301544189453,8.343113899230957
30,-0.03878767043352127,-2.1571695804595947,0.007400233764201403,36.7149357,3.1819702,59.39,-2.81,-4.3,-0.6,83,236,5.17244815826416,5.137057781219482
31,-0.16777700185775757,-2.1154863834381104,0.027442684397101402,36.7149036,3.1819053,59.9,-2.17,-3.68,-0.13,83,238,4.284053325653076,4.282042026519775
32,-0.16349083185195923,-2.1019015312194824,-0.025875773280858994,36.7148704,3.1818337,59.93,-2.08,-3.7,-0.01,82,239,4.245993137359619,4.245970249176025
33,0.010048254393041134,-2.1060328483581543,0.017069363966584206,36.7148441,3.1817764,59.91,-1.63,-2.87,0.1,82,239,3.3073348999023438,3.3056488037109375
34,0.021510882303118706,-2.335935115814209,-0.06891075521707535,36.7148256,3.1817421,58.99,-1.2,-1.35,1.18,82,226,2.1663899421691895,1.8112837076187134
35,-0.00798011664301157,-2.468062162399292,-0.0035155448131263256,36.7148083,3.1817237,56.39,-1.03,-0.8,1.44,81,218,1.9462391138076782,1.3077014684677124
36,-0.06265957653522491,-2.471004009246826,0.008885368704795837,36.7147943,3.1817103,54.15,-1.02,-0.83,1.43,81,218,1.954141616821289,1.3255606889724731
37,-0.03843456134200096,-2.470317840576172,-0.024098480120301247,36.7147776,3.181694,51.54,-1.06,-0.87,1.44,81,218,1.999143123626709,1.383617877960205
38,-0.03666772320866585,-2.4699747562408447,0.026703909039497375,36.7147631,3.1816794,49.3,-1.07,-0.88,1.45,80,218,2.0105667114257812,1.38568115234375
39,-0.040581971406936646,-2.469938039779663,-0.022837452590465546,36.7147485,3.1816648,47.06,-1.06,-0.88,1.46,80,218,2.0165741443634033,1.3887393474578857
40,-0.010211802087724209,-2.4698288440704346,-0.0016628885641694069,36.7147315,3.1816477,44.43,-1.06,-0.88,1.46,79,218,2.0189626216888428,1.3892298936843872
41,-0.06177952513098717,-2.4700253009796143,0.0011359257623553276,36.7147169,3.181633,42.19,-1.06,-0.89,1.47,79,218,2.0278375148773193,1.39241623878479
42,-0.03439222276210785,-2.470144748687744,-0.025584537535905838,36.7146999,3.1816158,39.57,-1.07,-0.89,1.47,79,218,2.0327811241149902,1.3962090015411377
43,-0.042755380272865295,-2.469589948654175,0.02641594037413597,36.7146853,3.1816011,37.32,-1.05,-0.87,1.47,78,218,2.0160176753997803,1.3749977350234985
44,-0.04027673974633217,-2.4699254035949707,-0.023495856672525406,36.7146707,3.1815865,35.08,-1.06,-0.88,1.47,78,218,2.0254833698272705,1.3849599361419678
45,-0.008939743041992188,-2.4699270725250244,0.003037805436179042,36.7146537,3.1815694,32.45,-1.07,-0.88,1.48,78,218,2.0324108600616455,1.3893496990203857
46,-0.05763743445277214,-2.470527410507202,-0.0011115629458799958,36.7146391,3.1815545,30.2,-1.06,-0.89,1.47,77,218,2.02921462059021,1.3913003206253052
47,-0.031182175502181053,-2.469761371612549,-0.021770769730210304,36.7146221,3.1815374,27.57,-1.06,-0.88,1.47,77,218,2.0226588249206543,1.383771538734436
48,-0.03424889221787453,-2.469789743423462,0.02974865771830082,36.7146075,3.1815227,25.33,-1.05,-0.88,1.48,77,218,2.024623155593872,1.3796097040176392
49,-0.03273369371891022,-2.4700491428375244,-0.02656061016023159,36.7145929,3.181508,23.07,-1.06,-0.88,1.47,76,218,2.0299766063690186,1.389452576637268
50,-0.11072152107954025,3.1399717330932617,-0.10558322817087173,36.7145715,3.1814949,20.59,-1.91,-0.08,1.06,76,179,2.195584774017334,1.9176558256149292
51,-0.26038843393325806,2.676302194595337,-0.018564295023679733,36.7145346,3.1815094,19.95,-3.49,1.67,-0.03,75,153,3.8788225650787354,3.8786473274230957
52,-0.15045680105686188,2.679274082183838,-0.02363578788936138,36.7144724,3.1815475,20.04,-4.06,2.03,0.03,75,153,4.544693946838379,4.544541835784912
53,-0.029951510950922966,3.005441904067993,0.22383104264736176,36.7144197,3.1815731,19.99,-3.53,0.46,0.05,75,172,3.5680243968963623,3.5676515102386475
54,-0.3613598346710205,-2.2212483882904053,0.09976863861083984,36.7143773,3.1815505,19.97,-2.97,-3.41,0.02,74,232,4.529658794403076,4.529611587524414
55,-0.46897807717323303,-2.148070812225342,0.03375906124711037,36.7143216,3.1814472,19.97,-4.25,-6.74,0.0,74,236,7.971363067626953,7.971358299255371
56,-0.4476456642150879,-2.149071455001831,-0.02686488628387451,36.7142585,3.181323,19.98,-4.91,-7.71,0.0,73,236,9.145015716552734,9.145015716552734
57,-0.31897079944610596,-2.152320623397827,0.028198538348078728,36.7141817,3.181174,20.0,-4.62,-7.13,0.0,73,236,8.506675720214844,8.506673812866211
58,-0.22950243949890137,-2.1441845893859863,-0.012599917128682137,36.7141246,3.1810632,19.99,-3.79,-5.98,0.02,73,237,7.0901947021484375,7.090137481689453
59,-0.28826919198036194,-2.1165735721588135,0.037118714302778244,36.7140768,3.1809657,19.97,-3.33,-5.66,0.01,72,238,6.579948425292969,6.579936981201172
60,-0.2848156690597534,-2.0995123386383057,-0.025161590427160263,36.7140254,3.1808547,19.97,-3.21,-5.64,0.0,72,239,6.494459629058838,6.4944562911987305
61,-0.17459507286548615,-2.0999326705932617,0.030799290165305138,36.7139822,3.1807606,19.97,-3.03,-5.32,0.0,71,239,6.13189172744751,6.131890296936035
62,0.12475372850894928,-2.101015567779541,-0.001703841844573617,36.7139438,3.1806773,19.95,-1.53,-2.68,0.02,71,239,3.098294258117676,3.0981523990631104
63,0.13548408448696136,-2.1007916927337646,0.005175451282411814,36.7139333,3.180654,19.96,-0.16,-0.31,-0.02,71,239,0.3570549786090851,0.35643699765205383
64,-0.024592412635684013,-2.1009750366210938,0.02673829346895218,36.7139338,3.1806546,19.95,0.15,0.11,0.04,70,239,0.20209521055221558,0.1977505087852478
