timestamp,pitch,yaw,roll,lat,lon,alt,velocity_x,velocity_y,velocity_z,battery,heading,airspeed,groundspeed
0,-0.02270141988992691,0.02219720371067524,-0.008001906797289848,36.7156067,3.18463,20.7,-0.02,0.01,-0.01,96,1,0.03380609676241875,0.029556263238191605
1,-0.031561896204948425,0.01792997494339943,0.0915960893034935,36.7156077,3.1846317,20.63,0.28,0.44,-0.01,95,1,0.5282175540924072,0.5278855562210083
2,-0.1916334480047226,1.3818308115005493,-0.07259523123502731,36.7156224,3.1846573,20.66,1.71,2.38,-0.04,95,79,2.943159818649292,2.942811965942383
3,-0.19491034746170044,0.8886186480522156,-0.0118301035836339,36.7156513,3.1847071,20.68,2.39,3.32,-0.02,95,50,4.100696563720703,4.100611686706543
4,0.06750354915857315,0.9304708242416382,-0.015520789660513401,36.7156893,3.1847712,20.69,2.07,2.78,-0.01,94,53,3.476351022720337,3.476331949234009
5,0.3377572298049927,0.6571565270423889,-0.07792029529809952,36.7157039,3.1847935,20.72,-0.41,-0.71,-0.03,94,37,0.8280217051506042,0.8274320960044861
6,-0.03893712908029556,-0.9297916293144226,-0.20493502914905548,36.715684,3.1847567,20.7,-2.14,-3.11,0.05,93,306,3.7871103286743164,3.7866697311401367
7,-0.06576401740312576,-2.4193649291992188,0.06138492748141289,36.7156486,3.184692,20.75,-2.18,-3.27,-0.01,93,221,3.939767599105835,3.939749002456665
8,-0.05431792140007019,-1.6804442405700684,0.20677396655082703,36.7156297,3.1846383,20.7,-0.22,-2.93,0.03,93,263,2.9438278675079346,2.943629026412964
9,-0.4035298824310303,-0.6604640483856201,0.051940809935331345,36.7156609,3.1845819,20.69,4.16,-3.17,0.0,92,322,5.236332893371582,5.236331939697266
10,-0.5172162652015686,-0.6143390536308289,-0.01667923480272293,36.7157214,3.1845286,20.69,6.44,-4.47,0.0,92,324,7.84485387802124,7.844852924346924
11,-0.460422545671463,-0.6166412830352783,-0.027360813692212105,36.7158548,3.1844134,20.71,7.86,-5.52,0.0,91,324,9.610274314880371,9.610272407531738
12,-0.4176256060600281,-0.6195276975631714,-0.0036039212718605995,36.7159608,3.18432,20.74,7.55,-5.35,-0.01,91,324,9.265050888061523,9.265039443969727
13,-0.06811662018299103,-0.6217358708381653,0.02060815691947937,36.7160529,3.1842388,20.77,5.66,-4.01,0.04,91,324,6.941895484924316,6.941756248474121
14,-0.00816281046718359,-1.1682997941970825,-0.257302850484848,36.7161105,3.1841747,20.88,1.16,-2.87,-0.24,90,293,3.116830587387085,3.1069159507751465
15,-0.3538307249546051,-2.131150960922241,-0.0908496230840683,36.7160982,3.1841179,21.74,-2.77,-4.29,-0.87,90,237,5.18141508102417,5.106940269470215
16,-0.5061805248260498,-2.164295196533203,-0.009761419147253036,36.7160453,3.1840248,23.52,-4.72,-6.79,-1.4,89,236,8.391334533691406,8.272518157958984
17,-0.43650543689727783,-2.1621978282928467,0.024212568998336792,36.7159622,3.1838752,26.3,-5.55,-8.04,-1.6,89,236,9.906949996948242,9.776153564453125
18,-0.44817787408828735,-2.166135549545288,-0.021517693996429443,36.7158866,3.1837372,28.76,-5.55,-8.18,-1.56,88,235,10.017818450927734,9.89425277709961
19,-0.4684828221797943,-2.164459705352783,0.03716570883989334,36.715799,3.1835745,31.63,-5.52,-8.24,-1.58,88,235,10.04765796661377,9.921772956848145
20,-0.42327427864074707,-2.166694164276123,0.010332396253943443,36.7157241,3.1834353,34.11,-5.54,-8.24,-1.59,88,235,10.062774658203125,9.935017585754395
21,-0.4926760494709015,-2.16340708732605,-0.001006659702397883,36.7156369,3.1832728,37.0,-5.48,-8.28,-1.61,87,235,10.07161808013916,9.94206714630127
22,-0.4543074369430542,-2.162414789199829,0.031776878982782364,36.7155623,3.183133,39.5,-5.51,-8.28,-1.62,87,236,10.081045150756836,9.949836730957031
23,-0.42229634523391724,-2.164339065551758,-0.0011130166240036488,36.7154874,3.1829935,42.0,-5.52,-8.28,-1.62,86,236,10.091996192932129,9.960565567016602
24,-0.4933640658855438,-2.1630568504333496,0.00785847008228302,36.7154004,3.1828304,44.92,-5.5,-8.29,-1.62,86,236,10.087907791137695,9.956517219543457
25,-0.4481426775455475,-2.165280342102051,0.04254341498017311,36.7153256,3.1826906,47.42,-5.53,-8.26,-1.62,85,235,10.079845428466797,9.947250366210938
26,-0.4665873050689697,-2.1647093296051025,-0.02608749456703663,36.7152385,3.1825278,50.34,-5.53,-8.33,-1.62,85,235,10.134923934936523,10.003950119018555
27,-0.48195821046829224,-2.1652114391326904,0.02675173617899418,36.7151636,3.1823874,52.85,-5.52,-8.31,-1.62,84,235,10.113038063049316,9.981124877929688
28,-0.4343964159488678,-2.1652610301971436,0.0344255231320858,36.7150889,3.1822478,55.35,-5.51,-8.27,-1.63,84,235,10.080242156982422,9.947099685668945
29,-0.27239853143692017,-2.1679136753082275,-0.012636661529541016,36.7150053,3.1820924,58.15,-4.76,-7.09,-1.41,83,235,8.664140701293945,8.54712200164795
30,-0.0595223605632782,-2.163520097732544,0.03762035444378853,36.7149517,3.1819925,59.86,-3.11,-4.7,-0.76,83,236,5.69622802734375,5.644014358520508
31,-0.16875547170639038,-2.117884397506714,0.01569511741399765,36.7149122,3.1819141,60.62,-2.18,-3.7,-0.15,83,238,4.297967433929443,4.295042991638184
32,-0.12674281001091003,-2.1011953353881836,0.01790536195039749,36.7148839,3.1818529,60.67,-2.07,-3.68,-0.01,82,239,4.231209754943848,4.231195449829102
33,-0.04634198173880577,-2.1027286052703857,-0.01425938867032528,36.7148565,3.1817929,60.67,-1.83,-3.24,0.0,82,239,3.7287232875823975,3.728720188140869
34,0.039091672748327255,-2.3079042434692383,-0.06268898397684097,36.7148332,3.1817475,59.87,-1.22,-1.43,1.09,82,227,2.185579299926758,1.889883041381836
35,-0.05267433822154999,-2.4836132526397705,0.01743847317993641,36.7148181,3.1817307,57.67,-1.03,-0.79,1.45,81,217,1.9573991298675537,1.3049980401992798
36,-0.047918982803821564,-2.4717459678649902,-0.02010754682123661,36.7148018,3.1817154,55.05,-1.03,-0.84,1.41,81,218,1.9483482837677002,1.3345540761947632
37,-0.028664469718933105,-2.470454454421997,0.029789529740810394,36.7147876,3.1817013,52.82,-1.05,-0.87,1.43,81,218,1.9824936389923096,1.3695944547653198
38,-0.035764388740062714,-2.4700238704681396,-0.02228575013577938,36.714773,3.1816867,50.58,-1.07,-0.88,1.44,80,218,2.006972551345825,1.388675332069397
39,-0.00996690709143877,-2.469374418258667,0.0115470290184021,36.714756,3.1816697,47.96,-1.07,-0.87,1.45,80,218,2.0062873363494873,1.383087396621704
40,-0.060373518615961075,-2.469796895980835,0.00023370402050204575,36.7147414,3.1816551,45.72,-1.06,-0.88,1.45,79,218,2.0118906497955322,1.3867896795272827
41,-0.022216353565454483,-2.4699437618255615,-0.017874952405691147,36.7147245,3.181638,43.1,-1.07,-0.88,1.46,79,218,2.019428253173828,1.3929860591888428
42,-0.04813944920897484,-2.4703848361968994,0.023050623014569283,36.7147099,3.1816232,40.85,-1.05,-0.88,1.46,79,218,2.015531539916992,1.3828777074813843
43,-0.013690119609236717,-2.469762086868286,-0.014296994544565678,36.7146953,3.1816085,38.6,-1.08,-0.88,1.46,78,218,2.0223231315612793,1.3955104351043701
44,-0.014857382513582706,-2.4697659015655518,0.02331671677529812,36.7146783,3.1815914,35.98,-1.06,-0.88,1.46,78,218,2.018420457839966,1.3839466571807861
45,-0.04616983234882355,-2.4696691036224365,-0.023188693448901176,36.7146637,3.1815767,33.73,-1.06,-0.88,1.47,78,218,2.0234713554382324,1.3882097005844116
46,-0.010203111916780472,-2.4701271057128906,-0.0088923629373312,36.7146467,3.1815595,31.11,-1.06,-0.88,1.47,77,218,2.0220446586608887,1.383012056350708
47,-0.05820227786898613,-2.469961404800415,0.010949279181659222,36.7146321,3.1815448,28.87,-1.06,-0.88,1.48,77,218,2.0277657508850098,1.3833776712417603
48,-0.006569601129740477,-2.4699013233184814,-0.0012528190854936838,36.7146175,3.1815301,26.61,-1.06,-0.88,1.47,77,218,2.0266480445861816,1.3855674266815186
49,-0.03315740451216698,-2.4699883460998535,0.03031984157860279,36.7146005,3.1815129,23.99,-1.06,-0.87,1.47,76,218,2.0170576572418213,1.3742938041687012
50,-0.09376661479473114,-2.8954710960388184,-0.12441544234752655,36.7145838,3.1815,21.77,-1.62,-0.45,1.3,76,194,2.1307544708251953,1.682761311531067
51,-0.20213688910007477,2.6668450832366943,-0.01645333133637905,36.7145448,3.1815112,20.68,-3.36,1.62,-0.02,75,152,3.7348883152008057,3.734834671020508
52,-0.18688572943210602,2.672983169555664,-0.02371150813996792,36.7144931,3.1815433,20.78,-4.01,2.05,-0.01,75,153,4.506977558135986,4.506958484649658
53,-0.0024942131713032722,2.9650752544403076,0.16269515454769135,36.7144313,3.1815764,20.73,-3.54,0.65,0.05,75,169,3.607884168624878,3.6075117588043213
54,-0.3942808508872986,-2.245554208755493,0.15641041100025177,36.7143888,3.1815575,20.71,-2.91,-3.22,0.02,74,231,4.348787784576416,4.348739147186279
55,-0.4488488435745239,-2.1384828090667725,-0.001664875540882349,36.7143438,3.1814752,20.71,-3.98,-6.34,0.01,74,237,7.496731758117676,7.49672269821167
56,-0.4979475140571594,-2.147115468978882,-0.0013057069154456258,36.714272,3.1813337,20.72,-4.92,-7.66,0.0,73,236,9.111392974853516,9.111392974853516
57,-0.33089902997016907,-2.1511688232421875,0.02120255120098591,36.7142051,3.1812045,20.74,-4.78,-7.36,0.0,73,236,8.784102439880371,8.784096717834473
58,-0.2648930251598358,-2.1473963260650635,0.017699427902698517,36.7141367,3.1810722,20.74,-3.81,-6.02,0.03,73,236,7.130784034729004,7.13068962097168
59,-0.24858635663986206,-2.123302459716797,0.030613703653216362,36.7140885,3.1809749,20.72,-3.42,-5.67,0.02,72,238,6.629037857055664,6.629003524780273
60,-0.2884569764137268,-2.109220504760742,-0.024513885378837585,36.7140435,3.1808799,20.72,-3.28,-5.64,0.01,72,239,6.530740261077881,6.53072452545166
61,-0.1655266433954239,-2.1088063716888428,0.014176766388118267,36.7139919,3.1807698,20.72,-3.13,-5.39,0.0,71,239,6.24245023727417,6.242449760437012
62,0.08094656467437744,-2.1091630458831787,-0.012869377620518208,36.7139558,3.1806927,20.7,-1.97,-3.4,0.04,71,239,3.932415246963501,3.9321765899658203
63,0.13470995426177979,-2.109391212463379,-0.021724257618188858,36.7139398,3.1806581,20.7,-0.21,-0.37,-0.01,71,239,0.4370287358760834,0.43662768602371216
64,-0.022191006690263748,-2.1098482608795166,0.04658189043402672,36.7139402,3.1806588,20.69,0.13,0.13,0.03,70,239,0.19682730734348297,0.19354693591594696
