timestamp,pitch,yaw,roll,lat,lon,alt,velocity_x,velocity_y,velocity_z,battery,heading,airspeed,groundspeed
0,0.027294397354125977,-0.027341226115822792,0.010257062502205372,36.7156066,3.1846299,18.54,-0.02,0.02,0.03,96,358,0.04793519899249077,0.034909073263406754
1,-0.08066228777170181,-0.033911023288965225,0.08093862980604172,36.7156076,3.1846319,18.55,0.28,0.47,0.0,95,358,0.5588862895965576,0.5588143467903137
2,-0.21527612209320068,1.4640837907791138,-0.13118550181388855,36.7156221,3.1846587,18.51,1.7,2.48,-0.02,95,83,3.0130832195281982,3.0129659175872803
3,-0.14633476734161377,0.8586459159851074,0.022719839587807655,36.7156508,3.1847102,18.55,2.37,3.42,-0.04,95,49,4.169268608093262,4.169060707092285
4,-0.0040270681492984295,0.9467883110046387,0.027155280113220215,36.7156886,3.1847768,18.58,2.08,2.97,-0.02,94,54,3.6390440464019775,3.6389853954315186
5,0.3849004805088043,0.8602054715156555,-0.05496672913432121,36.715704,3.1848028,18.58,-0.28,-0.47,0.01,94,49,0.5591898560523987,0.5590133666992188
6,-0.02768758311867714,-0.7315528988838196,-0.1700868308544159,36.7156853,3.1847683,18.61,-2.14,-3.06,-0.03,93,318,3.738513231277466,3.73834490776062
7,-0.12715940177440643,-2.394460916519165,0.046123865991830826,36.7156498,3.1847041,18.62,-2.2,-3.25,0.01,93,222,3.929934501647949,3.929903984069824
8,-0.004943691194057465,-1.6626235246658325,0.20430663228034973,36.71563,3.18465,18.6,-0.4,-2.96,0.01,93,264,2.9942076206207275,2.994168996810913
9,-0.39371457695961,-0.6509281396865845,0.10306009650230408,36.7156582,3.1845937,18.59,3.97,-3.1,0.0,92,322,5.04850959777832,5.048507213592529
10,-0.4891798198223114,-0.6197781562805176,-0.017792819067835808,36.7157318,3.184529,18.59,6.64,-4.64,-0.01,92,324,8.111837387084961,8.111828804016113
11,-0.5327273607254028,-0.618414580821991,-0.001659644884057343,36.7158312,3.1844429,18.61,7.82,-5.47,0.0,91,324,9.545228958129883,9.545228958129883
12,-0.3676857650279999,-0.6201190948486328,0.0009613308357074857,36.7159555,3.184334,18.63,7.62,-5.4,-0.01,91,324,9.344819068908691,9.344802856445312
13,-0.1170252114534378,-0.6218393445014954,-0.01895405538380146,36.7160489,3.1842516,18.67,5.78,-4.11,0.04,91,324,7.102945327758789,7.102820873260498
14,0.05848180130124092,-1.1154851913452148,-0.28926917910575867,36.7161096,3.1841866,18.76,1.4,-2.86,-0.21,90,296,3.2016940116882324,3.1942338943481445
15,-0.40235593914985657,-2.1242237091064453,-0.06662972271442413,36.7161002,3.1841311,19.57,-2.6,-4.18,-0.84,90,238,5.001842021942139,4.930569171905518
16,-0.4370739459991455,-2.1657497882843018,0.009440004825592041,36.7160486,3.1840398,21.3,-4.64,-6.68,-1.39,89,235,8.26026725769043,8.141590118408203
17,-0.4983855187892914,-2.1638708114624023,-0.006249668076634407,36.7159658,3.1838914,24.07,-5.52,-8.03,-1.6,89,236,9.88038158416748,9.74980354309082
18,-0.45325690507888794,-2.1642706394195557,0.03636344522237778,36.7158905,3.1837535,26.53,-5.53,-8.19,-1.57,88,236,10.016632080078125,9.892279624938965
19,-0.4564131796360016,-2.1634206771850586,-0.0333629734814167,36.7158028,3.1835908,29.4,-5.54,-8.22,-1.58,88,236,10.043366432189941,9.917071342468262
20,-0.48915067315101624,-2.1663384437561035,0.01461078878492117,36.7157278,3.1834516,31.88,-5.53,-8.25,-1.59,88,235,10.064373970031738,9.93721866607666
21,-0.4247835874557495,-2.162925958633423,-0.0010136673226952553,36.7156409,3.1832892,34.78,-5.51,-8.28,-1.6,87,236,10.079848289489746,9.950860023498535
22,-0.4668617248535156,-2.1645634174346924,-0.030355002731084824,36.7155661,3.1831495,37.28,-5.52,-8.28,-1.61,87,235,10.08603286743164,9.956418991088867
23,-0.48817387223243713,-2.165262460708618,0.026862429454922676,36.7154911,3.1830097,39.78,-5.51,-8.3,-1.61,86,235,10.099844932556152,9.96930980682373
24,-0.4300469756126404,-2.162628412246704,-0.01392457913607359,36.7154043,3.1828467,42.69,-5.51,-8.3,-1.61,86,236,10.100109100341797,9.969667434692383
25,-0.4805844724178314,-2.1657724380493164,-0.018519308418035507,36.7153294,3.1827069,45.19,-5.53,-8.27,-1.62,85,235,10.09039306640625,9.958430290222168
26,-0.4841581881046295,-2.1657769680023193,0.02834385447204113,36.7152544,3.182567,47.69,-5.5,-8.28,-1.63,85,235,10.08591079711914,9.952634811401367
27,-0.4339585304260254,-2.1641743183135986,-0.023484744131565094,36.7151675,3.1824039,50.62,-5.51,-8.3,-1.63,84,236,10.104606628417969,9.972001075744629
28,-0.48639336228370667,-2.16544508934021,-0.00972277857363224,36.7150927,3.1822641,53.12,-5.52,-8.29,-1.62,84,235,10.097474098205566,9.965641021728516
29,-0.23062708973884583,-2.1675870418548584,0.017098605632781982,36.7150084,3.1821076,55.93,-4.81,-7.18,-1.44,83,235,8.771644592285156,8.651542663574219
30,-0.07284267991781235,-2.164112091064453,-0.014852453023195267,36.714954,3.1820059,57.71,-3.18,-4.81,-0.79,83,236,5.826809406280518,5.772105693817139
31,-0.1373557448387146,-2.12713885307312,0.04334110766649246,36.7149188,3.1819369,58.46,-2.25,-3.72,-0.23,83,238,4.360992431640625,4.35489559173584
32,-0.18026340007781982,-2.1018028259277344,-0.004557195585221052,36.7148853,3.1818651,58.57,-2.07,-3.69,-0.01,82,239,4.235903263092041,4.2358903884887695
33,-0.0078044552356004715,-2.103119373321533,0.016696469858288765,36.7148577,3.1818049,58.57,-1.86,-3.29,-0.01,82,239,3.7871346473693848,3.787099838256836
34,0.006311669480055571,-2.288170576095581,-0.024744203314185143,36.7148341,3.1817582,57.85,-1.22,-1.49,1.03,82,228,2.1913211345672607,1.930765151977539
35,-0.00881186593323946,-2.4851765632629395,-0.01601547561585903,36.7148188,3.1817407,55.69,-1.03,-0.79,1.46,81,217,1.9660829305648804,1.3062938451766968
36,-0.021308409050107002,-2.471700668334961,0.030077852308750153,36.7148025,3.1817254,53.06,-1.04,-0.81,1.41,81,218,1.9408358335494995,1.324427843093872
37,-0.045153893530368805,-2.470226287841797,-0.0226695965975523,36.7147882,3.1817114,50.82,-1.06,-0.88,1.42,81,218,1.9852638244628906,1.3807957172393799
38,-0.031241659075021744,-2.4696221351623535,0.03131304308772087,36.7147737,3.1816968,48.59,-1.06,-0.88,1.44,80,218,1.9974042177200317,1.3826370239257812
39,-0.058779891580343246,-2.4691221714019775,-0.00605400325730443,36.7147568,3.1816797,45.97,-1.06,-0.88,1.44,80,218,2.003854274749756,1.3839194774627686
40,-0.008771169930696487,-2.469381332397461,0.007043146062642336,36.7147422,3.1816651,43.72,-1.07,-0.87,1.45,79,218,2.006985902786255,1.3853169679641724
41,-0.047064587473869324,-2.469593048095703,0.022838186472654343,36.7147252,3.1816479,41.11,-1.06,-0.88,1.46,79,218,2.0162553787231445,1.3886349201202393
42,-0.021646611392498016,-2.4700398445129395,-0.01747697778046131,36.7147105,3.1816333,38.87,-1.07,-0.88,1.47,79,218,2.0263640880584717,1.3928353786468506
43,-0.05753934383392334,-2.4692845344543457,0.01984368823468685,36.7146961,3.1816186,36.61,-1.05,-0.89,1.47,78,218,2.0178444385528564,1.3822259902954102
44,-0.05336619168519974,-2.4693217277526855,-0.017228538170456886,36.714679,3.1816014,33.99,-1.07,-0.89,1.47,78,218,2.0299038887023926,1.3998348712921143
45,-0.022295581176877022,-2.469247341156006,0.028032923117280006,36.7146644,3.1815866,31.75,-1.06,-0.88,1.47,78,218,2.0220859050750732,1.3816735744476318
46,-0.05916975438594818,-2.469853162765503,0.013183589093387127,36.7146474,3.1815695,29.12,-1.06,-0.88,1.47,77,218,2.0226035118103027,1.3832306861877441
47,-0.009332099929451942,-2.469452381134033,-0.0012859978014603257,36.7146328,3.1815548,26.87,-1.06,-0.88,1.47,77,218,2.0227391719818115,1.3859455585479736
48,-0.06169259920716286,-2.4694652557373047,0.0036131092347204685,36.7146182,3.18154,24.62,-1.06,-0.89,1.47,77,218,2.0276131629943848,1.3869776725769043
49,-0.02880074456334114,-2.469493865966797,-0.02423057146370411,36.7146012,3.1815229,21.99,-1.06,-0.89,1.47,76,218,2.0265085697174072,1.3910572528839111
50,-0.09821312129497528,-2.8442628383636475,-0.0689803808927536,36.7145849,3.1815094,19.77,-1.55,-0.51,1.33,76,197,2.1158437728881836,1.640188217163086
51,-0.25909656286239624,2.6685690879821777,-0.03348252922296524,36.714547,3.1815192,18.58,-3.32,1.58,0.0,75,152,3.6823647022247314,3.682359218597412
52,-0.15255452692508698,2.672457695007324,0.018565187230706215,36.7144956,3.181551,18.68,-3.99,2.04,-0.01,75,153,4.490564823150635,4.4905242919921875
53,-0.062123026698827744,2.8244283199310303,0.11578468233346939,36.714442,3.1815822,18.65,-3.72,1.17,0.06,75,161,3.9094367027282715,3.908879041671753
54,-0.3269103467464447,-2.260146141052246,0.1356135606765747,36.7143906,3.181569,18.61,-2.91,-3.04,0.02,74,230,4.2133684158325195,4.213301181793213
55,-0.5095696449279785,-2.140277624130249,0.0037075732834637165,36.7143459,3.1814889,18.61,-3.92,-6.26,0.01,74,237,7.391526222229004,7.391504287719727
56,-0.43603429198265076,-2.1472878456115723,-0.0028145061805844307,36.7142751,3.1813488,18.62,-4.9,-7.67,0.0,73,236,9.112051010131836,9.11205005645752
57,-0.38267868757247925,-2.1515939235687256,-0.020755168050527573,36.7142081,3.1812193,18.64,-4.84,-7.44,0.0,73,236,8.87969970703125,8.879697799682617
58,-0.20132440328598022,-2.146801471710205,0.014807137660682201,36.7141388,3.1810857,18.64,-3.87,-6.04,0.03,73,237,7.177316188812256,7.177222728729248
59,-0.2970181107521057,-2.1244802474975586,-0.003093355568125844,36.7140904,3.1809883,18.62,-3.4,-5.67,0.02,72,238,6.624549388885498,6.6245012283325195
60,-0.28180021047592163,-2.1089444160461426,0.03554464876651764,36.7140456,3.1808936,18.62,-3.29,-5.65,0.01,72,239,6.547444820404053,6.547432899475098
61,-0.21819449961185455,-2.1084938049316406,-0.008188340812921524,36.7139937,3.1807828,18.62,-3.16,-5.44,0.0,71,239,6.297161102294922,6.297159194946289
62,0.11806940287351608,-2.108837127685547,0.01912693679332733,36.7139569,3.1807043,18.61,-2.03,-3.49,0.04,71,239,4.049039363861084,4.048787593841553
63,0.11673743277788162,-2.108811378479004,-0.02045881748199463,36.7139407,3.1806696,18.59,-0.43,-0.76,-0.01,71,239,0.8807234764099121,0.8805116415023804
64,0.02298840321600437,-2.108506441116333,0.0049490355886518955,36.7139402,3.180668,18.59,0.11,0.15,0.03,70,239,0.1978735327720642,0.19454996287822723
