timestamp,pitch,yaw,roll,lat,lon,alt,velocity_x,velocity_y,velocity_z,battery,heading,airspeed,groundspeed
0,-0.0171823650598526,0.041769467294216156,0.022553663700819016,36.7156066,3.1846299,22.62,-0.02,0.03,-0.1,96,2,0.107305608689785,0.038733046501874924
1,-0.054371386766433716,0.045101866126060486,0.07942760735750198,36.7156079,3.1846324,22.61,0.35,0.57,-0.03,95,2,0.6772699356079102,0.6762310862541199
2,-0.1655365228652954,1.3960833549499512,-0.08468028157949448,36.7156252,3.1846642,22.65,1.82,2.76,-0.03,95,79,3.3127174377441406,3.3125205039978027
3,-0.17329338192939758,0.9675256609916687,0.013448561541736126,36.715654,3.1847181,22.65,2.28,3.43,0.0,95,55,4.12630558013916,4.126296043395996
4,0.15819261968135834,0.9717464447021484,-0.028043804690241814,36.7156875,3.1847792,22.63,1.51,2.16,0.0,94,55,2.641486406326294,2.641486644744873
5,0.3276759684085846,0.6830376386642456,-0.06171683967113495,36.7156908,3.1847833,22.65,-1.19,-1.81,0.0,94,39,2.1692559719085693,2.169235944747925
6,-0.08678720146417618,-1.1195398569107056,-0.15554426610469818,36.7156654,3.1847368,22.61,-2.24,-3.26,0.01,93,295,3.959704637527466,3.959676742553711
7,-0.03581570088863373,-2.381122350692749,0.05600132793188095,36.7156308,3.184672,22.67,-1.87,-3.24,0.03,93,223,3.748387575149536,3.7482361793518066
8,-0.14785882830619812,-1.2974708080291748,0.291302353143692,36.7156215,3.1846203,22.62,0.88,-2.77,0.01,93,285,2.913656711578369,2.9136130809783936
9,-0.41829994320869446,-0.6554320454597473,0.032419320195913315,36.7156591,3.1845705,22.62,4.56,-3.37,0.0,92,322,5.679122447967529,5.679121971130371
10,-0.5434426665306091,-0.6290284395217896,0.012882320210337639,36.7157388,3.1845004,22.62,6.99,-4.84,0.0,92,323,8.505316734313965,8.505313873291016
11,-0.45946329832077026,-0.6200405359268188,-0.015293817035853863,36.7158587,3.1843962,22.64,7.88,-5.53,0.0,91,324,9.630525588989258,9.630525588989258
12,-0.34219974279403687,-0.6238075494766235,0.020617691799998283,36.71598,3.1842889,22.68,7.16,-5.1,-0.01,91,324,8.793221473693848,8.793206214904785
13,0.02730141393840313,-0.6465635299682617,-0.06664207577705383,36.7160627,3.1842153,22.68,4.65,-3.51,0.03,91,322,5.835501670837402,5.83538818359375
14,-0.1798003613948822,-1.6649121046066284,-0.2306801676750183,36.7160997,3.1841551,22.98,-0.26,-3.08,-0.43,90,264,3.1243269443511963,3.093698263168335
15,-0.4269470274448395,-2.1500091552734375,-0.06638608127832413,36.7160719,3.1840889,24.16,-3.6,-5.05,-1.06,90,236,6.302623748779297,6.211873531341553
16,-0.5189012289047241,-2.16420316696167,0.021924784407019615,36.7160111,3.1839826,26.18,-5.14,-7.32,-1.5,89,236,9.078621864318848,8.952990531921387
17,-0.41223081946372986,-2.1651437282562256,0.004820109810680151,36.7159246,3.1838271,29.01,-5.51,-8.05,-1.6,89,235,9.890055656433105,9.759174346923828
18,-0.4844376742839813,-2.1645209789276123,-0.02646830305457115,36.7158497,3.1836892,31.47,-5.54,-8.22,-1.58,88,235,10.039608001708984,9.914484977722168
19,-0.4445182979106903,-2.1644153594970703,0.03850585222244263,36.7157618,3.1835261,34.36,-5.55,-8.28,-1.59,88,235,10.098477363586426,9.971250534057617
20,-0.4253216087818146,-2.1620001792907715,-0.01683386042714119,36.715687,3.1833861,36.83,-5.49,-8.25,-1.61,87,236,10.04566478729248,9.915371894836426
21,-0.47408193349838257,-2.162579298019409,-0.038842279464006424,36.7156125,3.1832469,39.32,-5.52,-8.22,-1.61,87,236,10.03816032409668,9.906909942626953
22,-0.44215723872184753,-2.1653363704681396,0.032436173409223557,36.7155252,3.1830845,42.23,-5.51,-8.29,-1.62,87,235,10.09754467010498,9.965131759643555
23,-0.43464887142181396,-2.1644256114959717,-0.015354842878878117,36.7154504,3.1829443,44.73,-5.5,-8.3,-1.63,86,235,10.097713470458984,9.964803695678711
24,-0.4836391806602478,-2.1643993854522705,0.02795008197426796,36.7153634,3.1827813,47.65,-5.51,-8.27,-1.63,86,235,10.078134536743164,9.944960594177246
25,-0.4357241690158844,-2.16528058052063,0.03268063813447952,36.7152888,3.182642,50.15,-5.56,-8.3,-1.63,85,235,10.124032974243164,9.990849494934082
26,-0.4395109713077545,-2.1652417182922363,-0.02356724999845028,36.7152137,3.1825017,52.65,-5.52,-8.3,-1.64,85,235,10.108712196350098,9.974322319030762
27,-0.47165942192077637,-2.1644132137298584,0.03816911205649376,36.7151265,3.1823383,55.58,-5.49,-8.28,-1.64,84,235,10.07494068145752,9.940171241760254
28,-0.3970918357372284,-2.164409875869751,0.011730748228728771,36.7150522,3.1821993,58.09,-5.49,-8.21,-1.62,84,235,10.013172149658203,9.880724906921387
29,-0.18174651265144348,-2.1675422191619873,0.0027333321049809456,36.7149728,3.1820521,60.74,-4.27,-6.36,-1.25,83,235,7.765867233276367,7.66354513168335
30,-0.04693479463458061,-2.1519594192504883,0.03466739505529404,36.7149265,3.1819647,62.12,-2.68,-4.16,-0.56,83,236,4.988164901733398,4.955997943878174
31,-0.15839211642742157,-2.10030460357666,-0.006660647690296173,36.7148955,3.1819008,62.58,-2.08,-3.67,-0.11,83,239,4.230184078216553,4.228694915771484
32,-0.12610799074172974,-2.0872151851654053,-0.005914426874369383,36.7148636,3.1818292,62.6,-2.01,-3.71,-0.01,82,240,4.224499702453613,4.224459648132324
33,-0.009634523652493954,-2.095266819000244,-0.010997552424669266,36.7148387,3.1817729,62.56,-1.52,-2.75,0.16,82,239,3.153287887573242,3.149207830429077
34,0.010355217382311821,-2.412989616394043,-0.05890181288123131,36.7148183,3.1817373,61.15,-1.14,-1.12,1.41,82,221,2.1373796463012695,1.6055806875228882
35,-0.04106289893388748,-2.464407444000244,0.027614651247859,36.7148039,3.1817229,58.86,-1.03,-0.8,1.43,81,218,1.9413588047027588,1.3093798160552979
36,-0.021739691495895386,-2.4693384170532227,-0.018599161878228188,36.7147898,3.1817096,56.63,-1.04,-0.83,1.44,81,218,1.9671499729156494,1.3392786979675293
37,-0.014815435744822025,-2.469363212585449,0.01836352050304413,36.7147731,3.181693,54.01,-1.06,-0.87,1.44,81,218,2.0015878677368164,1.3815226554870605
38,-0.05273788049817085,-2.469630002975464,-0.01983978971838951,36.7147586,3.1816785,51.76,-1.07,-0.89,1.44,80,218,2.012061834335327,1.3962568044662476
39,-0.010227861814200878,-2.469214916229248,-0.004889788571745157,36.7147416,3.1816613,49.15,-1.07,-0.88,1.46,80,218,2.023494005203247,1.3969367742538452
40,-0.061233293265104294,-2.4697954654693604,0.012554836459457874,36.714727,3.1816466,46.91,-1.06,-0.88,1.46,79,218,2.018531084060669,1.383561611175537
41,-0.039156921207904816,-2.4694886207580566,-0.018936052918434143,36.71471,3.1816296,44.28,-1.07,-0.89,1.46,79,218,2.0286083221435547,1.39919114112854
42,-0.03649584949016571,-2.4697937965393066,0.028691207990050316,36.7146954,3.1816148,42.04,-1.06,-0.87,1.47,79,218,2.0207674503326416,1.3823223114013672
43,-0.02762722223997116,-2.4692845344543457,-0.021856747567653656,36.7146808,3.1816001,39.8,-1.07,-0.88,1.48,78,218,2.0353763103485107,1.3940985202789307
44,-0.011099989525973797,-2.4692564010620117,0.01015967782586813,36.7146639,3.1815829,37.17,-1.07,-0.88,1.47,78,218,2.0300614833831787,1.3897395133972168
45,-0.059724003076553345,-2.469250440597534,-0.010524271987378597,36.7146492,3.1815682,34.92,-1.07,-0.89,1.47,78,218,2.0331361293792725,1.396642804145813
46,-0.017393045127391815,-2.4698832035064697,-0.02059631608426571,36.7146322,3.181551,32.3,-1.06,-0.87,1.48,77,218,2.0284337997436523,1.3815016746520996
47,-0.054570551961660385,-2.469736337661743,0.02247062884271145,36.7146176,3.1815363,30.05,-1.05,-0.87,1.48,77,218,2.0204973220825195,1.3737941980361938
48,-0.012781850062310696,-2.4696547985076904,-0.013865744695067406,36.7146031,3.1815216,27.79,-1.07,-0.88,1.47,77,218,2.0251991748809814,1.3879140615463257
49,-0.03261174261569977,-2.4749257564544678,0.005336907226592302,36.714586,3.1815044,25.17,-1.08,-0.86,1.48,76,218,2.029898166656494,1.3888505697250366
50,-0.1654585897922516,3.058302640914917,-0.13782921433448792,36.7145658,3.1814951,23.12,-2.05,0.07,0.95,76,175,2.2672805786132812,2.0561444759368896
51,-0.19438029825687408,2.6777472496032715,-0.0038071284070611,36.7145188,3.1815172,22.64,-3.75,1.85,-0.05,75,153,3.989497661590576,3.989032030105591
52,-0.16892798244953156,2.679927349090576,0.0030478662811219692,36.7144642,3.1815507,22.71,-4.05,2.02,0.04,75,153,4.5292463302612305,4.529015064239502
53,-0.005213191267102957,3.090315103530884,0.2233886420726776,36.7144122,3.1815738,22.65,-3.44,0.21,0.04,75,177,3.4504761695861816,3.45019793510437
54,-0.43598058819770813,-2.192880630493164,0.11518554389476776,36.7143635,3.1815342,22.64,-3.11,-4.34,0.01,74,234,5.350241184234619,5.350214958190918
55,-0.4589778780937195,-2.153164863586426,0.007932490669190884,36.7143133,3.1814371,22.64,-4.34,-6.89,0.0,74,236,8.155006408691406,8.15500259399414
56,-0.48745009303092957,-2.150590181350708,0.0028166123665869236,36.7142383,3.1812897,22.65,-4.94,-7.7,0.0,73,236,9.157722473144531,9.157721519470215
57,-0.29912087321281433,-2.152003526687622,0.021143198013305664,36.7141729,3.1811634,22.67,-4.55,-7.02,0.0,73,236,8.371292114257812,8.371292114257812
58,-0.2445468306541443,-2.142226457595825,-0.014023213647305965,36.7141168,3.1810545,22.66,-3.72,-5.91,0.02,73,237,6.989044666290283,6.988982677459717
59,-0.24513213336467743,-2.109612226486206,0.026320571079850197,36.714062,3.1809414,22.64,-3.29,-5.64,0.0,72,239,6.534384727478027,6.5343804359436035
60,-0.2959163784980774,-2.099522829055786,-0.025356287136673927,36.7140183,3.1808464,22.64,-3.22,-5.64,0.0,72,239,6.49655818939209,6.496551990509033
61,-0.08698625862598419,-2.100081205368042,0.010029220022261143,36.7139688,3.1807386,22.65,-2.84,-4.97,0.0,71,239,5.726196765899658,5.7261962890625
62,0.1293552815914154,-2.1009554862976074,-0.012039242312312126,36.7139389,3.1806738,22.61,-1.37,-2.4,0.02,71,239,2.7687089443206787,2.7686233520507812
63,0.08839044719934464,-2.1007585525512695,-0.019496209919452667,36.7139298,3.1806536,22.63,0.0,-0.01,-0.01,71,239,0.021876178681850433,0.01944706030189991
64,-0.03030826337635517,-2.103499412536621,0.10926878452301025,36.7139314,3.1806553,22.6,0.34,-0.03,0.02,70,239,0.34482282400131226,0.3438534140586853
