timestamp,pitch,yaw,roll,lat,lon,alt,velocity_x,velocity_y,velocity_z,battery,heading,airspeed,groundspeed
0,-0.016479674726724625,0.03378180041909218,0.025970425456762314,36.7156065,3.1846299,21.82,-0.01,0.02,-0.05,96,1,0.06155570223927498,0.030580108985304832
1,-0.040116533637046814,0.02713688276708126,0.06482736021280289,36.7156076,3.1846321,21.78,0.29,0.5,-0.02,95,1,0.5878680348396301,0.5873247385025024
2,-0.1715802103281021,1.4624594449996948,-0.09669601917266846,36.7156222,3.1846601,21.81,1.64,2.56,-0.04,95,83,3.047140121459961,3.046865701675415
3,-0.17847990989685059,0.9250770211219788,0.022518055513501167,36.7156493,3.1847128,21.82,2.21,3.45,-0.01,95,53,4.1067094802856445,4.106664657592773
4,0.07082881778478622,0.9846946597099304,-0.029994910582900047,36.7156837,3.1847778,21.81,1.78,2.7,0.0,94,56,3.244147300720215,3.2441422939300537
5,0.359951376914978,1.150180697441101,0.09517066180706024,36.7156934,3.1847955,21.84,-0.73,-1.05,-0.02,94,65,1.2856374979019165,1.285435676574707
6,-0.06567589938640594,2.855273485183716,0.1454528570175171,36.7156715,3.1847556,21.81,-2.2,-3.12,0.04,93,163,3.824799060821533,3.8245105743408203
7,-0.07532632350921631,-1.9091569185256958,0.010087301023304462,36.7156363,3.1846908,21.86,-2.12,-3.24,0.0,93,250,3.8823487758636475,3.8823482990264893
8,-0.07513885200023651,-1.5466439723968506,0.26052165031433105,36.71562,3.1846378,21.81,0.09,-2.89,0.01,93,271,2.892730951309204,2.892662763595581
9,-0.43479853868484497,-0.6505066752433777,0.03239581361413002,36.7156564,3.1845804,21.81,4.42,-3.3,0.0,92,322,5.528953552246094,5.528951644897461
10,-0.5251646041870117,-0.6294419765472412,0.047805339097976685,36.7157343,3.1845116,21.81,6.92,-4.8,0.0,92,323,8.424546241760254,8.424541473388672
11,-0.47957563400268555,-0.6199778914451599,-0.03230247274041176,36.7158536,3.1844082,21.83,7.89,-5.54,0.0,91,324,9.650984764099121,9.650983810424805
12,-0.39361700415611267,-0.6226311326026917,0.003468585666269064,36.7159593,3.1843149,21.85,7.44,-5.29,-0.02,91,324,9.13437271118164,9.1343355178833
13,-0.03378874808549881,-0.6275869607925415,-0.003905525663867593,36.7160483,3.1842359,21.87,5.31,-3.85,0.03,91,324,6.566532135009766,6.566410541534424
14,-0.06801621615886688,-1.3224931955337524,-0.261841744184494,36.7160991,3.1841734,22.04,0.67,-2.91,-0.31,90,284,3.0089170932769775,2.9922683238983154
15,-0.3676522970199585,-2.1324713230133057,-0.08462142199277878,36.7160813,3.1841135,23.01,-3.06,-4.53,-0.94,90,237,5.557033538818359,5.475581645965576
16,-0.49960994720458984,-2.160271167755127,0.029568858444690704,36.7160142,3.1839957,25.25,-5.05,-7.25,-1.5,89,236,8.967607498168945,8.839625358581543
17,-0.4311842620372772,-2.1636922359466553,0.02995358593761921,36.7159407,3.1838641,27.68,-5.54,-8.04,-1.61,89,236,9.903769493103027,9.771334648132324
18,-0.44784286618232727,-2.1654250621795654,-0.02363397739827633,36.7158655,3.183726,30.14,-5.53,-8.21,-1.58,88,235,10.036531448364258,9.91129207611084
19,-0.4815498888492584,-2.1635806560516357,0.03517572209239006,36.7157782,3.1835634,33.02,-5.52,-8.27,-1.59,88,236,10.074241638183594,9.947830200195312
20,-0.42472752928733826,-2.1618876457214355,0.013947167433798313,36.7157034,3.1834238,35.5,-5.54,-8.27,-1.6,88,236,10.090060234069824,9.961657524108887
21,-0.4878123998641968,-2.1635801792144775,-0.012557588517665863,36.7156158,3.1832611,38.39,-5.51,-8.23,-1.61,87,236,10.037055015563965,9.906585693359375
22,-0.47250616550445557,-2.1648359298706055,0.03499981015920639,36.715541,3.1831214,40.88,-5.5,-8.27,-1.63,87,235,10.072185516357422,9.939339637756348
23,-0.42503249645233154,-2.163466453552246,0.014050283469259739,36.7154663,3.1829817,43.38,-5.52,-8.27,-1.63,86,236,10.084450721740723,9.950783729553223
24,-0.48767733573913574,-2.163546562194824,-0.01348141860216856,36.7153793,3.1828186,46.3,-5.5,-8.3,-1.63,86,236,10.098834037780762,9.965812683105469
25,-0.4683958888053894,-2.165881633758545,0.03676813095808029,36.7153045,3.1826787,48.8,-5.51,-8.29,-1.64,85,235,10.094084739685059,9.959622383117676
26,-0.4308966100215912,-2.1636624336242676,-0.012244434095919132,36.7152173,3.1825157,51.73,-5.5,-8.28,-1.63,85,236,10.082295417785645,9.948631286621094
27,-0.4951940178871155,-2.164299488067627,-0.007623380050063133,36.715143,3.1823763,54.24,-5.53,-8.31,-1.62,84,236,10.115939140319824,9.98440170288086
28,-0.4597662091255188,-2.166335344314575,0.04016074165701866,36.715068,3.1822365,56.74,-5.54,-8.31,-1.63,84,235,10.13115119934082,9.998108863830566
29,-0.21458765864372253,-2.1676881313323975,-0.024366134777665138,36.7149854,3.1820831,59.5,-4.6,-6.87,-1.37,83,235,8.390129089355469,8.27641773223877
30,-0.08325529098510742,-2.1603198051452637,0.029894543811678886,36.7149344,3.1819876,61.11,-2.94,-4.49,-0.69,83,236,5.417917728424072,5.37369966506958
31,-0.15111494064331055,-2.101321220397949,-0.009094328619539738,36.7148968,3.1819112,61.76,-2.09,-3.69,-0.12,83,239,4.247757434844971,4.245856285095215
32,-0.15814322233200073,-2.0856480598449707,0.03849344328045845,36.7148696,3.1818497,61.79,-1.99,-3.7,-0.01,82,240,4.205144882202148,4.205129146575928
33,-0.0033903673756867647,-2.087653636932373,-0.03169890493154526,36.7148435,3.1817907,61.78,-1.69,-3.09,0.04,82,240,3.528231620788574,3.5279951095581055
34,0.038273755460977554,-2.3463242053985596,-0.03146977722644806,36.7148218,3.1817487,60.78,-1.19,-1.31,1.23,82,225,2.165580987930298,1.7789199352264404
35,-0.05235191062092781,-2.4761250019073486,-0.016414817422628403,36.7148069,3.1817329,58.53,-1.03,-0.8,1.45,81,218,1.9563617706298828,1.310727596282959
36,-0.018384410068392754,-2.470555067062378,-0.01461345050483942,36.7147906,3.1817175,55.91,-1.03,-0.83,1.43,81,218,1.955976128578186,1.333608865737915
37,-0.06106950342655182,-2.47041916847229,0.013554570265114307,36.7147763,3.1817033,53.67,-1.07,-0.88,1.43,81,218,1.9978259801864624,1.3867096900939941
38,-0.005195046309381723,-2.470010280609131,-0.0021802224218845367,36.7147617,3.1816887,51.43,-1.07,-0.87,1.44,80,218,2.002073287963867,1.3845146894454956
39,-0.042635440826416016,-2.4697349071502686,0.02587713859975338,36.7147446,3.1816717,48.82,-1.05,-0.87,1.45,80,218,2.0016403198242188,1.3737421035766602
40,-0.028500383719801903,-2.4699392318725586,-0.022369401529431343,36.7147301,3.1816571,46.58,-1.06,-0.88,1.46,79,218,2.0149857997894287,1.3812787532806396
41,-0.011255921795964241,-2.4693894386291504,0.020255891606211662,36.7147131,3.1816399,43.96,-1.06,-0.88,1.47,79,218,2.022996187210083,1.3850089311599731
42,-0.05604362115263939,-2.470055103302002,-0.014249156229197979,36.7146985,3.1816252,41.71,-1.07,-0.88,1.47,79,218,2.0289294719696045,1.3928521871566772
43,-0.006184075027704239,-2.469855546951294,-0.01045459508895874,36.7146815,3.1816081,39.09,-1.06,-0.87,1.47,78,218,2.0216188430786133,1.3823119401931763
44,-0.06069424748420715,-2.4700632095336914,0.01069662719964981,36.7146669,3.1815934,36.84,-1.06,-0.88,1.47,78,218,2.0226399898529053,1.3822866678237915
45,-0.008756411261856556,-2.469660758972168,0.003732115961611271,36.7146524,3.1815787,34.59,-1.06,-0.87,1.47,78,218,2.020993232727051,1.3809387683868408
46,-0.039072487503290176,-2.470194101333618,0.027363387867808342,36.7146354,3.1815615,31.96,-1.06,-0.88,1.47,77,218,2.021144151687622,1.3828824758529663
47,-0.024090483784675598,-2.4700260162353516,-0.0255928635597229,36.7146207,3.1815468,29.71,-1.07,-0.88,1.47,77,218,2.02498197555542,1.3874136209487915
48,-0.01861473359167576,-2.4694528579711914,0.019837310537695885,36.7146037,3.1815297,27.1,-1.05,-0.87,1.48,76,218,2.0202207565307617,1.3728755712509155
49,-0.009257074445486069,-2.4698703289031982,-0.012156369164586067,36.7145916,3.1815175,25.22,-1.06,-0.88,1.48,76,218,2.027430295944214,1.3823213577270508
50,-0.10043516010046005,-3.0159828662872314,-0.07733936607837677,36.7145714,3.181503,22.67,-1.76,-0.29,1.2,76,187,2.15873122215271,1.7886457443237305
51,-0.2508503496646881,2.6754956245422363,-0.0018248914275318384,36.7145293,3.1815182,21.81,-3.53,1.71,-0.05,75,153,3.931816577911377,3.9314656257629395
52,-0.14404936134815216,2.6793949604034424,0.006853356491774321,36.7144761,3.181551,21.9,-4.07,2.03,0.0,75,153,4.553557395935059,4.553546905517578
53,-0.0424770787358284,3.041166305541992,0.23125045001506805,36.7144146,3.181581,21.85,-3.5,0.34,0.04,75,174,3.5252439975738525,3.524935483932495
54,-0.3611138164997101,-2.2071831226348877,0.0943329930305481,36.7143724,3.1815556,21.83,-3.0,-3.57,0.01,74,233,4.668295860290527,4.668255805969238
55,-0.5150591135025024,-2.1417343616485596,0.012343566864728928,36.7143254,3.1814685,21.83,-4.1,-6.53,0.01,74,237,7.721129894256592,7.7211174964904785
56,-0.4250922203063965,-2.1483891010284424,-0.017235685139894485,36.7142525,3.1813248,21.84,-4.91,-7.69,0.0,73,236,9.128754615783691,9.128751754760742
57,-0.36203378438949585,-2.150970697402954,-0.018867701292037964,36.7141861,3.1811962,21.86,-4.7,-7.28,0.0,73,236,8.671183586120605,8.67117977142334
58,-0.2096404731273651,-2.142099380493164,0.011916416697204113,36.714119,3.181066,21.85,-3.73,-5.92,0.02,73,237,7.002793788909912,7.002732753753662
59,-0.2960159182548523,-2.1154158115386963,0.0004049814597237855,36.7140716,3.1809693,21.83,-3.34,-5.66,0.01,72,238,6.575956344604492,6.5759406089782715
60,-0.2547537684440613,-2.099773406982422,0.0023768856190145016,36.7140202,3.1808585,21.83,-3.21,-5.66,0.0,72,239,6.509235382080078,6.5092315673828125
61,-0.18772827088832855,-2.0997159481048584,-0.01243288628757,36.7139772,3.1807642,21.83,-3.0,-5.28,0.0,71,239,6.0753493309021,6.075348854064941
62,0.14944714307785034,-2.101038694381714,0.017311941832304,36.7139434,3.1806911,21.81,-1.76,-3.06,0.03,71,239,3.540092706680298,3.539879560470581
63,0.07829218357801437,-2.1006884574890137,0.017592666670680046,36.71393,3.1806617,21.82,-0.13,-0.26,-0.01,71,239,0.30389606952667236,0.3033374547958374
64,0.02451864443719387,-2.0996944904327393,0.0375945158302784,36.7139308,3.1806627,21.8,0.18,0.09,0.04,70,239,0.21680818498134613,0.21262700855731964
