timestamp,pitch,yaw,roll,lat,lon,alt,velocity_x,velocity_y,velocity_z,battery,heading,airspeed,groundspeed
0,-0.004614394158124924,-0.03262085095047951,0.027516163885593414,36.7156066,3.1846299,22.8,-0.03,0.03,-0.11,96,358,0.12063061445951462,0.046228233724832535
1,-0.05389988422393799,-0.03560078144073486,0.0645708218216896,36.7156078,3.1846323,22.81,0.3,0.54,-0.04,95,357,0.6230896711349487,0.6211426854133606
2,-0.1909155398607254,1.4507520198822021,-0.08921177685260773,36.7156189,3.1846541,22.84,1.46,2.27,-0.04,95,83,2.706990957260132,2.706639289855957
3,-0.1813378781080246,0.8816303610801697,0.040046509355306625,36.7156504,3.1847136,22.84,2.3,3.51,-0.01,95,50,4.198853015899658,4.198834419250488
4,-0.014467103406786919,0.9562976956367493,-0.016466880217194557,36.7156821,3.1847727,22.83,2.17,3.25,0.0,94,54,3.9162793159484863,3.916278839111328
5,0.3964865207672119,1.0318316221237183,0.03952610120177269,36.7157009,3.1848071,22.84,-0.37,-0.55,-0.02,94,59,0.671272873878479,0.6706092953681946
6,-0.055499859154224396,2.653550863265991,0.18865877389907837,36.7156817,3.184772,22.83,-2.11,-3.05,0.05,93,152,3.7111024856567383,3.710634231567383
7,-0.10260333120822906,-2.123913049697876,4.57195783383213e-05,36.7156514,3.1847168,22.85,-2.23,-3.27,-0.05,93,238,3.962986707687378,3.9626686573028564
8,-0.0043846131302416325,-1.7454181909561157,0.23366568982601166,36.7156264,3.1846537,22.82,-0.35,-2.95,0.02,93,260,2.9792885780334473,2.9791786670684814
9,-0.3809989392757416,-0.6698213815689087,0.06886041164398193,36.7156466,3.1846061,22.81,3.42,-2.95,0.0,92,321,4.525918960571289,4.52591609954834
10,-0.48071685433387756,-0.6218253970146179,0.03437360003590584,36.7157285,3.1845328,22.81,6.69,-4.64,-0.01,92,324,8.153990745544434,8.153984069824219
11,-0.48853957653045654,-0.6173133254051208,-0.03088938631117344,36.7158286,3.1844462,22.83,7.82,-5.45,0.0,91,324,9.540371894836426,9.540369987487793
12,-0.45698052644729614,-0.6195050477981567,0.0062910933047533035,36.7159353,3.1843529,22.84,7.76,-5.48,-0.01,91,324,9.5100679397583,9.510062217712402
13,-0.08006235957145691,-0.6225826740264893,-0.01926436647772789,36.7160459,3.1842555,22.88,5.79,-4.13,0.03,91,324,7.117199420928955,7.117109298706055
14,0.058003805577754974,-0.9366413354873657,-0.19880624115467072,36.7161024,3.1841982,22.93,2.14,-2.92,-0.14,90,306,3.632871627807617,3.629941940307617
15,-0.3931204080581665,-2.1253042221069336,-0.10913243144750595,36.7160967,3.1841343,23.8,-2.62,-4.2,-0.84,90,238,5.029323577880859,4.95748233795166
16,-0.48674991726875305,-2.1668262481689453,0.04286908358335495,36.7160451,3.1840434,25.54,-4.68,-6.69,-1.39,89,235,8.287007331848145,8.168074607849121
17,-0.43314576148986816,-2.163891315460205,0.017308130860328674,36.7159743,3.1839169,27.89,-5.48,-7.99,-1.61,89,236,9.827560424804688,9.69457721710205
18,-0.49769192934036255,-2.163313150405884,0.002076085889711976,36.7158868,3.1837566,30.77,-5.51,-8.17,-1.56,88,236,9.986406326293945,9.862523078918457
19,-0.46130651235580444,-2.163743734359741,0.0321357399225235,36.7158117,3.1836175,33.22,-5.56,-8.26,-1.59,88,236,10.087608337402344,9.961051940917969
20,-0.45362740755081177,-2.1635026931762695,-0.03119092434644699,36.715724,3.1834544,36.11,-5.52,-8.27,-1.6,87,236,10.073419570922852,9.94543743133545
21,-0.4845958948135376,-2.162795066833496,0.0006884283502586186,36.7156494,3.1833149,38.61,-5.49,-8.22,-1.6,87,236,10.020301818847656,9.891233444213867
22,-0.4298630952835083,-2.1642699241638184,-0.00011730969708878547,36.7155624,3.1831526,41.51,-5.52,-8.27,-1.61,87,236,10.083171844482422,9.952820777893066
23,-0.4717979431152344,-2.164288282394409,-0.026234939694404602,36.7154875,3.1830128,44.0,-5.52,-8.32,-1.62,86,236,10.122771263122559,9.990934371948242
24,-0.48626184463500977,-2.1623058319091797,0.015227464027702808,36.7154128,3.1828726,46.51,-5.49,-8.27,-1.62,86,236,10.061320304870605,9.929191589355469
25,-0.4284740388393402,-2.167278289794922,-0.005904716905206442,36.7153255,3.1827099,49.43,-5.54,-8.28,-1.63,85,235,10.102097511291504,9.969438552856445
26,-0.47882550954818726,-2.1634647846221924,-0.028197312727570534,36.7152509,3.1825701,51.93,-5.52,-8.32,-1.63,85,236,10.12519645690918,9.99233627319336
27,-0.4785713851451874,-2.1637189388275146,0.028099803254008293,36.7151762,3.1824298,54.43,-5.51,-8.28,-1.63,84,236,10.088850021362305,9.954949378967285
28,-0.42984145879745483,-2.165449619293213,-0.018330520018935204,36.7150889,3.182267,57.36,-5.52,-8.28,-1.63,84,235,10.087157249450684,9.953959465026855
29,-0.33152174949645996,-2.167172431945801,-0.008758237585425377,36.7150162,3.1821318,59.79,-5.03,-7.5,-1.49,83,235,9.158503532409668,9.035439491271973
30,-0.03714671730995178,-2.1637401580810547,0.007075956091284752,36.7149505,3.1820093,61.94,-3.18,-4.8,-0.79,83,236,5.816986560821533,5.762430667877197
31,-0.1713932603597641,-2.1272244453430176,0.015266608446836472,36.7149153,3.1819403,62.69,-2.23,-3.7,-0.22,83,238,4.336281776428223,4.330290794372559
32,-0.14475035667419434,-2.101999521255493,-0.025702109560370445,36.714882,3.1818687,62.79,-2.09,-3.69,0.0,82,239,4.2464799880981445,4.246474266052246
33,-0.04690035805106163,-2.103022813796997,0.023705661296844482,36.7148543,3.1818085,62.79,-1.85,-3.29,0.0,82,239,3.779893398284912,3.779881477355957
34,0.051775217056274414,-2.2320096492767334,-0.0637141764163971,36.7148335,3.1817664,62.3,-1.25,-1.68,0.81,82,232,2.250185251235962,2.097529888153076
35,-0.01968774013221264,-2.484605312347412,0.02744372747838497,36.7148156,3.1817446,59.89,-1.02,-0.79,1.46,81,217,1.9588655233383179,1.2988988161087036
36,-0.04976184666156769,-2.4721500873565674,-0.021452361717820168,36.7148016,3.1817316,57.65,-1.05,-0.83,1.42,81,218,1.9555983543395996,1.3395633697509766
37,-0.009119994938373566,-2.4699089527130127,-0.003223090199753642,36.714785,3.1817152,55.03,-1.06,-0.87,1.43,81,218,1.9860255718231201,1.375321388244629
38,-0.061295948922634125,-2.4698843955993652,0.0038504470139741898,36.7147704,3.1817008,52.79,-1.07,-0.89,1.44,80,218,2.0063586235046387,1.3951455354690552
39,-0.009990863502025604,-2.469219446182251,0.010979609563946724,36.7147559,3.1816861,50.55,-1.06,-0.88,1.45,80,218,2.008488655090332,1.3848804235458374
40,-0.04200977832078934,-2.469651222229004,0.02745182067155838,36.7147389,3.181669,47.93,-1.06,-0.88,1.46,79,218,2.0106751918792725,1.3809653520584106
41,-0.020102500915527344,-2.4695847034454346,-0.020348897203803062,36.7147243,3.1816543,45.68,-1.07,-0.88,1.46,79,218,2.0146830081939697,1.3879740238189697
42,-0.012724215164780617,-2.4694881439208984,0.017603054642677307,36.7147073,3.1816372,43.07,-1.06,-0.88,1.47,79,218,2.021799087524414,1.3853182792663574
43,-0.044108275324106216,-2.469151496887207,-0.024793103337287903,36.7146927,3.1816225,40.82,-1.06,-0.89,1.47,78,218,2.0252416133880615,1.3884642124176025
44,-0.013749001547694206,-2.46954345703125,-0.012790413573384285,36.7146757,3.1816053,38.2,-1.06,-0.88,1.47,78,218,2.017141580581665,1.3803058862686157
45,-0.06373236328363419,-2.4694840908050537,0.01165760401636362,36.7146611,3.1815906,35.95,-1.06,-0.89,1.47,78,218,2.0292303562164307,1.3902244567871094
46,-0.006530770566314459,-2.4700796604156494,-0.0043907384388148785,36.7146465,3.1815758,33.7,-1.06,-0.88,1.47,77,218,2.0239124298095703,1.382826328277588
47,-0.03591500595211983,-2.4693989753723145,0.026513777673244476,36.7146295,3.1815586,31.07,-1.06,-0.87,1.47,77,218,2.0169858932495117,1.3797342777252197
48,-0.030369849875569344,-2.4693875312805176,-0.02466517500579357,36.7146149,3.181544,28.82,-1.06,-0.87,1.47,77,218,2.0160751342773438,1.3784204721450806
49,-0.04630810767412186,-2.469863176345825,0.034216541796922684,36.7146004,3.1815293,26.58,-1.05,-0.9,1.48,76,218,2.029940605163574,1.3884143829345703
50,-0.12015135586261749,-2.8486154079437256,-0.10743378102779388,36.7145815,3.1815134,23.98,-1.57,-0.5,1.33,76,196,2.1247332096099854,1.6515291929244995
51,-0.20820380747318268,2.679457664489746,-0.028247157111763954,36.7145506,3.1815194,22.82,-3.08,1.35,0.11,75,153,3.3739659786224365,3.3718831539154053
52,-0.19196268916130066,2.6721763610839844,0.01681148260831833,36.7144922,3.1815553,22.9,-4.02,2.04,-0.01,75,153,4.516980171203613,4.516946315765381
53,-0.01768273115158081,2.834632396697998,0.11595870554447174,36.7144385,3.1815863,22.87,-3.72,1.17,0.06,75,162,3.908419370651245,3.907865524291992
54,-0.3460548520088196,-2.263967275619507,0.17445987462997437,36.714387,3.1815723,22.83,-2.95,-3.06,0.02,74,221,3.782358169555664,3.7822365760803223
55,-0.4751528203487396,-2.1463558673858643,-0.02468128688633442,36.7143417,3.1814924,22.83,-3.98,-6.27,0.01,74,237,7.4314775466918945,7.431457996368408
56,-0.5073963403701782,-2.1526241302490234,0.002034358447417617,36.7142808,3.1813734,22.84,-4.87,-7.61,0.0,73,236,9.041097640991211,9.041095733642578
57,-0.3426585793495178,-2.1571133136749268,-0.018667755648493767,36.7142024,3.1812227,22.86,-4.84,-7.4,0.0,73,236,8.850699424743652,8.850696563720703
58,-0.26961657404899597,-2.1532630920410156,0.0018432539654895663,36.7141418,3.1811072,22.86,-4.03,-6.25,0.02,73,236,7.447903633117676,7.447850227355957
59,-0.24907948076725006,-2.124981641769409,0.03817545622587204,36.7140921,3.1810082,22.84,-3.43,-5.69,0.02,72,238,6.648568630218506,6.648526668548584
60,-0.30878132581710815,-2.1015000343322754,0.006335002835839987,36.71404,3.1808971,22.84,-3.22,-5.64,0.01,72,239,6.501804351806641,6.501793384552002
61,-0.19950175285339355,-2.099661111831665,0.014175325632095337,36.7139965,3.1808019,22.83,-3.16,-5.56,0.0,71,239,6.4035420417785645,6.4035420417785645
62,0.07203323394060135,-2.101029396057129,0.018093271180987358,36.7139534,3.1807083,22.82,-2.0,-3.52,0.04,71,239,4.054925918579102,4.054719924926758
63,0.16128946840763092,-2.1006662845611572,-0.01691496931016445,36.7139375,3.1806735,22.81,-0.42,-0.75,-0.02,71,239,0.871604859828949,0.8713695406913757
64,-0.022765297442674637,-2.1005136966705322,0.006461293902248144,36.7139367,3.1806714,22.82,0.11,0.16,0.01,70,239,0.2011255919933319,0.2001449018716812
