timestamp,pitch,yaw,roll,lat,lon,alt,velocity_x,velocity_y,velocity_z,battery,heading,airspeed,groundspeed
0,0.02176464907824993,0.008182006888091564,-0.01379646547138691,36.7156067,3.1846299,18.52,-0.03,0.02,0.02,96,0,0.044981926679611206,0.03982868418097496
1,-0.07452429085969925,0.007431528065353632,0.12271424382925034,36.7156079,3.1846324,18.53,0.33,0.57,0.0,95,0,0.6640555262565613,0.6640554070472717
2,-0.21841418743133545,1.3953567743301392,-0.11465630680322647,36.7156206,3.1846552,18.49,1.6,2.35,-0.01,95,79,2.8541958332061768,2.854135513305664
3,-0.15225037932395935,0.9373981952667236,-0.02416852116584778,36.7156537,3.1847154,18.54,2.38,3.49,-0.03,95,53,4.235511779785156,4.23535680770874
4,-0.02676595002412796,0.9442604780197144,0.01650310680270195,36.7156862,3.1847734,18.56,2.19,3.11,-0.02,94,54,3.8087072372436523,3.808651924133301
5,0.3342771530151367,0.8212982416152954,-0.059281278401613235,36.7157033,3.1848017,18.56,-0.55,-0.86,0.0,94,47,1.0303012132644653,1.0302619934082031
6,-0.01785876974463463,-0.8631003499031067,-0.17528751492500305,36.7156824,3.1847635,18.6,-2.17,-3.14,-0.02,93,310,3.81868839263916,3.8185858726501465
7,-0.14549249410629272,-2.345353603363037,0.03301894664764404,36.7156521,3.1847085,18.6,-2.25,-3.27,0.01,93,225,3.9751336574554443,3.9750986099243164
8,-0.04677658900618553,-1.5959630012512207,0.19121979176998138,36.7156297,3.1846456,18.58,-0.07,-2.92,0.01,93,268,2.926337242126465,2.926309823989868
9,-0.3678106665611267,-0.647005558013916,0.10883267223834991,36.7156544,3.1845974,18.57,3.72,-3.04,0.0,92,322,4.809122562408447,4.809122562408447
10,-0.4937181770801544,-0.6162036061286926,-0.01841205358505249,36.7157252,3.1845344,18.57,6.52,-4.5,0.0,92,324,7.932118892669678,7.932117938995361
11,-0.48848310112953186,-0.6182623505592346,0.03285638242959976,36.7158412,3.1844343,18.59,7.87,-5.47,0.0,91,324,9.592081069946289,9.592080116271973
12,-0.38888588547706604,-0.6191562414169312,-0.012013009749352932,36.7159477,3.184341,18.61,7.71,-5.45,-0.01,91,324,9.448565483093262,9.448553085327148
13,-0.07949522882699966,-0.6227955222129822,0.017021233215928078,36.7160559,3.1842456,18.63,5.54,-3.95,0.03,91,324,6.809389591217041,6.8092942237854
14,0.1067451760172844,-0.8795292377471924,-0.1953945904970169,36.7161028,3.1841983,18.66,2.5,-2.96,-0.12,90,309,3.885890007019043,3.8840274810791016
15,-0.35348641872406006,-2.131065845489502,-0.08065379410982132,36.7160968,3.1841237,19.68,-2.88,-4.36,-0.9,90,237,5.309598922729492,5.232425689697266
16,-0.5014731884002686,-2.1597518920898438,-0.02636731043457985,36.7160428,3.1840291,21.49,-4.8,-6.85,-1.42,89,236,8.486944198608398,8.367176055908203
17,-0.48740819096565247,-2.163478136062622,0.03154344856739044,36.7159712,3.1839012,23.86,-5.52,-8.0,-1.61,89,236,9.855844497680664,9.722573280334473
18,-0.4488505423069,-2.1642494201660156,-0.027527354657649994,36.7158835,3.183741,26.73,-5.55,-8.2,-1.58,88,236,10.03278923034668,9.907272338867188
19,-0.49080604314804077,-2.1635828018188477,-0.006589740980416536,36.7158082,3.1836015,29.2,-5.53,-8.26,-1.58,88,236,10.071642875671387,9.945764541625977
20,-0.42436468601226807,-2.1660728454589844,0.010654783807694912,36.7157209,3.1834388,32.08,-5.52,-8.24,-1.6,88,235,10.05578327178955,9.926690101623535
21,-0.44788482785224915,-2.1631195545196533,-0.031534552574157715,36.7156462,3.1832992,34.57,-5.49,-8.26,-1.61,87,236,10.059328079223633,9.928876876831055
22,-0.49212193489074707,-2.1635940074920654,0.020475653931498528,36.7155717,3.18316,37.07,-5.51,-8.28,-1.61,87,236,10.085973739624023,9.955164909362793
23,-0.42766663432121277,-2.163999319076538,-0.012864400632679462,36.7154843,3.1829969,39.98,-5.53,-8.28,-1.62,86,236,10.09458065032959,9.96277141571045
24,-0.4828799366950989,-2.1666758060455322,-0.020011691376566887,36.7154096,3.1828572,42.48,-5.52,-8.29,-1.62,86,235,10.095318794250488,9.9633150100708
25,-0.4338936507701874,-2.1637964248657227,0.030933307483792305,36.7153225,3.1826939,45.39,-5.51,-8.26,-1.64,85,236,10.072110176086426,9.937535285949707
26,-0.4450647830963135,-2.1650054454803467,-0.024316567927598953,36.7152477,3.1825541,47.89,-5.52,-8.28,-1.64,85,235,10.093710899353027,9.958555221557617
27,-0.49439603090286255,-2.164978265762329,0.0012630339479073882,36.7151729,3.1824142,50.4,-5.51,-8.31,-1.64,84,235,10.116979598999023,9.982644081115723
28,-0.4217393696308136,-2.1648051738739014,0.01125691644847393,36.7150856,3.1822512,53.33,-5.51,-8.28,-1.64,84,235,10.087528228759766,9.953304290771484
29,-0.29753193259239197,-2.168468475341797,-0.021902119740843773,36.7150137,3.1821174,55.75,-4.94,-7.33,-1.46,84,235,8.961654663085938,8.841231346130371
30,-0.04491144418716431,-2.162290096282959,0.02626897022128105,36.7149503,3.1819988,57.8,-3.07,-4.64,-0.73,83,236,5.619790077209473,5.571153163909912
31,-0.17000162601470947,-2.123603343963623,0.0034911774564534426,36.714916,3.1819312,58.47,-2.24,-3.71,-0.19,83,238,4.3421406745910645,4.33778715133667
32,-0.1321783810853958,-2.102210760116577,0.029090624302625656,36.7148872,3.1818696,58.56,-2.06,-3.66,0.0,82,239,4.205566883087158,4.205565929412842
33,-0.042735107243061066,-2.1032018661499023,0.01491642091423273,36.7148553,3.1818,58.55,-1.78,-3.16,0.01,82,239,3.631861686706543,3.63181471824646
34,0.043138522654771805,-2.261974811553955,-0.054178837686777115,36.7148353,3.1817604,57.95,-1.23,-1.58,0.93,82,230,2.2229387760162354,2.014918088912964
35,-0.019853880628943443,-2.480276346206665,0.02440771274268627,36.7148176,3.1817397,55.47,-1.03,-0.8,1.46,81,217,1.9656224250793457,1.3133999109268188
36,-0.04824584349989891,-2.4722561836242676,-0.020180372521281242,36.7148035,3.1817266,53.23,-1.04,-0.82,1.43,81,218,1.9566752910614014,1.332509994506836
37,-0.010379241779446602,-2.470146656036377,-0.004495126195251942,36.7147869,3.1817103,50.61,-1.06,-0.87,1.44,81,218,1.9964580535888672,1.3792563676834106
38,-0.06578892469406128,-2.469766855239868,0.005783602129667997,36.7147725,3.1816957,48.37,-1.06,-0.89,1.44,80,218,2.009049892425537,1.390682578086853
39,-0.010104017332196236,-2.469557285308838,-0.0052925287745893,36.7147579,3.1816811,46.12,-1.07,-0.88,1.45,80,218,2.01580548286438,1.3931199312210083
40,-0.031087201088666916,-2.469589948654175,0.02709723822772503,36.7147409,3.181664,43.5,-1.07,-0.88,1.46,79,218,2.0191190242767334,1.3916418552398682
41,-0.03585495054721832,-2.469726085662842,-0.02412077784538269,36.7147263,3.1816494,41.26,-1.07,-0.89,1.46,79,218,2.028316020965576,1.4000242948532104
42,-0.007985617965459824,-2.4700000286102295,0.0024174849968403578,36.7147092,3.1816322,38.64,-1.06,-0.88,1.47,79,218,2.0237722396850586,1.3863606452941895
43,-0.05935228243470192,-2.468993663787842,-0.006545949261635542,36.7146947,3.1816174,36.4,-1.06,-0.89,1.48,78,218,2.0330119132995605,1.3896535634994507
44,-0.00659153051674366,-2.4693496227264404,0.0011492888443171978,36.7146801,3.1816026,34.15,-1.06,-0.89,1.48,78,218,2.0345304012298584,1.391457438468933
45,-0.04170826077461243,-2.469757318496704,0.02437206730246544,36.7146631,3.1815855,31.53,-1.06,-0.88,1.48,78,218,2.0290729999542236,1.3853296041488647
46,-0.02980412356555462,-2.4698646068573,-0.023296020925045013,36.7146485,3.1815709,29.27,-1.06,-0.88,1.48,77,218,2.02872371673584,1.3870956897735596
47,-0.052382394671440125,-2.4694886207580566,0.027387525886297226,36.7146339,3.1815562,27.02,-1.06,-0.88,1.47,77,218,2.0262248516082764,1.3862800598144531
48,-0.06201642379164696,-2.4694197177886963,-0.007204038091003895,36.714617,3.181539,24.39,-1.06,-0.89,1.47,77,218,2.027784585952759,1.3908356428146362
49,-0.014299975708127022,-2.469257354736328,0.019237466156482697,36.7146024,3.1815241,22.14,-1.06,-0.88,1.47,76,218,2.0246999263763428,1.3895546197891235
50,-0.11890382319688797,-2.937432289123535,-0.07636409997940063,36.7145828,3.181509,19.57,-1.66,-0.39,1.27,76,191,2.133951425552368,1.7112475633621216
51,-0.2184450328350067,2.670616388320923,-0.06192770227789879,36.7145502,3.1815177,18.57,-3.21,1.48,0.05,75,153,3.5425732135772705,3.542104959487915
52,-0.1855933964252472,2.672079086303711,0.02248813956975937,36.7144997,3.1815488,18.66,-4.0,2.02,-0.03,75,153,4.488476276397705,4.4883575439453125
53,-0.06110544502735138,2.8766672611236572,0.13285623490810394,36.7144375,3.1815839,18.62,-3.66,0.95,0.06,75,164,3.7923202514648438,3.7918434143066406
54,-0.3167150318622589,-2.31188702583313,0.18709468841552734,36.7143937,3.1815721,18.59,-2.92,-2.7,0.02,74,227,3.9857101440429688,3.9856231212615967
55,-0.5120189785957336,-2.141307830810547,0.012788203544914722,36.7143407,3.181479,18.59,-4.04,-6.44,0.01,74,237,7.6074371337890625,7.607423305511475
56,-0.4554930329322815,-2.1479289531707764,0.02161363512277603,36.7142794,3.1813582,18.6,-4.86,-7.65,0.0,73,236,9.066859245300293,9.066859245300293
57,-0.380510151386261,-2.1503899097442627,-0.010480228811502457,36.7142022,3.1812082,18.62,-4.75,-7.36,0.0,73,236,8.765040397644043,8.76503849029541
58,-0.22417432069778442,-2.1476352214813232,0.03509334847331047,36.7141429,3.1810937,18.61,-3.95,-6.17,0.02,73,236,7.333947658538818,7.3339152336120605
59,-0.2773851454257965,-2.1260221004486084,-0.013092941604554653,36.7140936,3.1809951,18.59,-3.45,-5.68,0.01,72,238,6.653650283813477,6.653627395629883
60,-0.2563323676586151,-2.108184576034546,0.019544692710042,36.714041,3.1808841,18.59,-3.26,-5.62,0.0,72,239,6.500247955322266,6.500247001647949
61,-0.22753563523292542,-2.1079752445220947,-0.019213927909731865,36.7139967,3.1807893,18.59,-3.17,-5.48,0.0,71,239,6.34255838394165,6.342557430267334
62,0.14445838332176208,-2.109515428543091,-0.01659495010972023,36.7139544,3.1806992,18.58,-1.88,-3.21,0.03,71,239,3.729442834854126,3.729245901107788
63,0.09998694062232971,-2.1091930866241455,0.010386175476014614,36.7139403,3.1806689,18.57,-0.33,-0.6,-0.02,71,239,0.6971291303634644,0.6967482566833496
64,-0.008531718514859676,-2.109372854232788,0.013806701637804508,36.7139402,3.1806682,18.57,0.15,0.11,0.04,70,239,0.19861124455928802,0.19431722164154053
