timestamp,pitch,yaw,roll,lat,lon,alt,velocity_x,velocity_y,velocity_z,battery,heading,airspeed,groundspeed
0,-0.0019988850690424442,-0.027450405061244965,-0.02262093685567379,36.7156066,3.18463,19.64,-0.01,0.02,0.05,96,358,0.06395062059164047,0.028093289583921432
1,-0.03986920043826103,-0.029022926464676857,0.12811174988746643,36.7156077,3.1846324,19.6,0.29,0.54,0.0,95,358,0.6196103692054749,0.6196093559265137
2,-0.23090513050556183,1.4879138469696045,-0.11573432385921478,36.7156184,3.1846551,19.56,1.38,2.36,-0.02,95,85,2.739856243133545,2.739759683609009
3,-0.1668226271867752,0.8961693644523621,-0.016319233924150467,36.7156478,3.1847155,19.61,2.12,3.54,-0.04,95,51,4.133990287780762,4.133759021759033
4,0.00220609363168478,0.9924840927124023,0.037428371608257294,36.7156768,3.1847741,19.65,1.92,3.13,-0.02,94,56,3.678327798843384,3.678231716156006
5,0.29023754596710205,1.4033030271530151,0.14959090948104858,36.7156904,3.1848022,19.65,-0.71,-0.96,0.0,94,80,1.1985373497009277,1.1985340118408203
6,-0.05567295476794243,3.0257129669189453,0.1689843088388443,36.7156687,3.1847634,19.69,-2.2,-3.12,-0.02,93,173,3.827561616897583,3.8274707794189453
7,-0.1541254222393036,-1.9232263565063477,-0.005700880661606789,36.7156385,3.184708,19.68,-2.24,-3.28,0.0,93,249,3.980170965194702,3.980159282684326
8,-0.061145804822444916,-1.5505990982055664,0.21067029237747192,36.7156167,3.1846453,19.66,0.04,-2.91,0.0,93,271,2.9182863235473633,2.9182724952697754
9,-0.38572078943252563,-0.6527224779129028,0.10921458154916763,36.7156428,3.1845969,19.66,3.8,-3.08,0.0,92,322,4.903494834899902,4.903492450714111
10,-0.5387035608291626,-0.6284781694412231,-0.0044123511761426926,36.7157293,3.1845198,19.66,6.9,-4.77,0.0,92,324,8.38876724243164,8.388763427734375
11,-0.5036242604255676,-0.6195825934410095,0.028188064694404602,36.7158307,3.184432,19.68,7.85,-5.49,0.0,91,324,9.590493202209473,9.590489387512207
12,-0.37333884835243225,-0.6217138767242432,-0.001344654941931367,36.715937,3.1843383,19.7,7.64,-5.42,-0.02,91,324,9.375555038452148,9.375521659851074
13,-0.08168406784534454,-0.6260935664176941,-0.001574974274262786,36.7160435,3.1842439,19.73,5.39,-3.88,0.04,91,324,6.647900104522705,6.647772312164307
14,0.06750417500734329,-1.086664080619812,-0.2795232832431793,36.7160929,3.184189,19.81,1.54,-2.9,-0.21,90,297,3.2985117435455322,3.2915096282958984
15,-0.3782554268836975,-2.1313092708587646,-0.04693351686000824,36.7160789,3.1841216,20.83,-3.01,-4.48,-0.93,90,237,5.48519229888916,5.404957294464111
16,-0.4689452052116394,-2.161973476409912,-0.02575288712978363,36.7160237,3.184025,22.68,-4.87,-6.97,-1.44,89,236,8.629900932312012,8.507638931274414
17,-0.48731955885887146,-2.16227126121521,-0.009808224625885487,36.7159517,3.1838959,25.06,-5.5,-8.02,-1.61,89,236,9.86242961883545,9.729196548461914
18,-0.42671260237693787,-2.1642205715179443,0.016506418585777283,36.7158638,3.1837354,27.94,-5.54,-8.2,-1.58,88,236,10.024239540100098,9.897993087768555
19,-0.4548715353012085,-2.1640355587005615,-0.02938339300453663,36.7157886,3.183596,30.4,-5.52,-8.25,-1.58,88,236,10.05983829498291,9.933634757995605
20,-0.46312904357910156,-2.1619765758514404,0.031260088086128235,36.7157018,3.1834335,33.29,-5.5,-8.26,-1.6,88,236,10.063297271728516,9.933754920959473
21,-0.42422670125961304,-2.163590669631958,0.0012464135652408004,36.7156269,3.1832938,35.78,-5.55,-8.23,-1.61,87,236,10.061765670776367,9.931400299072266
22,-0.49456867575645447,-2.1648051738739014,-0.003917125053703785,36.7155393,3.1831309,38.69,-5.5,-8.27,-1.61,87,235,10.068387985229492,9.937644004821777
23,-0.45516106486320496,-2.163839340209961,0.036569301038980484,36.7154649,3.1829914,41.18,-5.49,-8.28,-1.63,86,236,10.073142051696777,9.939900398254395
24,-0.4270740747451782,-2.164196491241455,-0.009109973907470703,36.7153903,3.1828518,43.68,-5.52,-8.29,-1.63,86,236,10.103302001953125,9.969786643981934
25,-0.49319857358932495,-2.1673951148986816,0.020102690905332565,36.715303,3.1826886,46.6,-5.53,-8.29,-1.63,85,235,10.10377025604248,9.97139835357666
26,-0.4569675028324127,-2.1642353534698486,0.03692368045449257,36.7152282,3.1825488,49.1,-5.51,-8.3,-1.64,85,236,10.100404739379883,9.966215133666992
27,-0.46619266271591187,-2.1646504402160645,-0.030604572966694832,36.715141,3.1823853,52.02,-5.52,-8.3,-1.64,84,235,10.116565704345703,9.981372833251953
28,-0.4819440543651581,-2.1646385192871094,0.012695292942225933,36.7150662,3.1822458,54.53,-5.5,-8.28,-1.63,84,235,10.080445289611816,9.946745872497559
29,-0.2483167052268982,-2.167344570159912,0.020892901346087456,36.7149947,3.1821127,56.94,-4.87,-7.25,-1.45,83,235,8.864006042480469,8.743305206298828
30,-0.08775382488965988,-2.1606900691986084,0.01374323945492506,36.7149323,3.1819962,58.94,-2.98,-4.56,-0.7,83,236,5.499502658843994,5.453611373901367
31,-0.1128275915980339,-2.1092731952667236,0.023936985060572624,36.714899,3.1819293,59.57,-2.15,-3.7,-0.18,83,239,4.2885823249816895,4.2847514152526855
32,-0.17441333830356598,-2.0864086151123047,0.030876709148287773,36.7148668,3.1818577,59.64,-1.98,-3.69,0.0,82,240,4.191619396209717,4.191611289978027
33,0.007995083928108215,-2.0880074501037598,-0.023672111332416534,36.7148408,3.1817987,59.63,-1.7,-3.11,0.03,82,240,3.5522303581237793,3.5520405769348145
34,0.0008520397823303938,-2.272684335708618,-0.03449108451604843,36.7148215,3.1817599,58.95,-1.21,-1.53,1.01,82,229,2.204777479171753,1.957478642463684
35,-0.038053933531045914,-2.477013111114502,-0.02396298386156559,36.714804,3.18174,56.42,-1.03,-0.79,1.45,81,218,1.952939748764038,1.3070648908615112
36,-0.03351908177137375,-2.4718847274780273,0.0296759232878685,36.71479,3.1817268,54.19,-1.03,-0.82,1.43,81,218,1.953701376914978,1.3293930292129517
37,-0.06287761777639389,-2.4697272777557373,-0.0004282523295842111,36.7147733,3.1817105,51.57,-1.06,-0.88,1.44,81,218,2.0014169216156006,1.3846641778945923
38,-0.009724907577037811,-2.46993350982666,0.00962049514055252,36.7147588,3.1816959,49.33,-1.07,-0.88,1.44,80,218,2.008984088897705,1.3943397998809814
39,-0.061546411365270615,-2.469398021697998,-0.009382860735058784,36.7147443,3.1816813,47.09,-1.07,-0.88,1.45,80,218,2.016003131866455,1.3934409618377686
40,-0.009907799772918224,-2.469348907470703,0.018976153805851936,36.7147297,3.1816666,44.85,-1.06,-0.88,1.46,79,218,2.017209768295288,1.3839913606643677
41,-0.054861437529325485,-2.4697985649108887,0.02037794701755047,36.7147126,3.1816494,42.22,-1.07,-0.89,1.47,79,218,2.0275678634643555,1.396315574645996
42,-0.05208016559481621,-2.469693183898926,-0.022263340651988983,36.7146957,3.1816323,39.61,-1.07,-0.88,1.47,79,218,2.026721477508545,1.388967752456665
43,-0.031239783391356468,-2.4690306186676025,0.028212837874889374,36.7146811,3.1816175,37.36,-1.07,-0.89,1.47,78,218,2.0322628021240234,1.3951735496520996
44,-0.04150509461760521,-2.4691293239593506,-0.02508109249174595,36.7146665,3.1816028,35.11,-1.07,-0.88,1.47,78,218,2.027622938156128,1.3888835906982422
45,-0.009294885210692883,-2.4693212509155273,0.004359401296824217,36.7146495,3.1815856,32.48,-1.06,-0.88,1.47,78,218,2.0247271060943604,1.3877931833267212
46,-0.06349200010299683,-2.469933271408081,-0.0009598573669791222,36.7146349,3.181571,30.24,-1.07,-0.88,1.48,77,218,2.0324065685272217,1.390532374382019
47,-0.018840840086340904,-2.469642162322998,-0.019879451021552086,36.7146178,3.1815538,27.61,-1.05,-0.88,1.47,77,218,2.0196001529693604,1.3781872987747192
48,-0.049512963742017746,-2.4697954654693604,0.02508775144815445,36.7146032,3.181539,25.36,-1.06,-0.88,1.47,77,218,2.0197925567626953,1.3818532228469849
49,-0.013426505960524082,-2.469630241394043,-0.020191842690110207,36.7145887,3.1815243,23.11,-1.06,-0.87,1.47,76,218,2.021806478500366,1.3804506063461304
50,-0.09159184992313385,-2.995326042175293,-0.07975544780492783,36.7145687,3.1815097,20.56,-1.74,-0.32,1.22,76,188,2.1576921939849854,1.7734012603759766
51,-0.25019019842147827,2.6765072345733643,-0.05533459782600403,36.7145348,3.1815197,19.65,-3.3,1.53,0.01,75,153,3.6478145122528076,3.6477606296539307
52,-0.1439359188079834,2.6797327995300293,-0.005591219291090965,36.7144741,3.1815567,19.75,-4.07,2.03,0.01,75,153,4.554864883422852,4.554853439331055
53,-0.052213139832019806,2.809556722640991,0.08655363321304321,36.7144289,3.1815824,19.71,-3.8,1.28,0.06,75,160,4.0185980796813965,4.018115997314453
54,-0.3639851212501526,-2.213850975036621,0.0932152047753334,36.7143698,3.1815634,19.68,-2.97,-3.5,0.01,74,233,4.598950386047363,4.5989155769348145
55,-0.509925901889801,-2.1446304321289062,0.02997526526451111,36.7143232,3.1814774,19.68,-4.08,-6.5,0.01,74,237,7.683115482330322,7.683099269866943
56,-0.4437125623226166,-2.1474316120147705,0.021209554746747017,36.7142616,3.1813558,19.69,-4.85,-7.68,0.0,73,236,9.08803653717041,9.08803653717041
57,-0.3681480288505554,-2.1525280475616455,-0.0016900297487154603,36.7141842,3.1812052,19.71,-4.73,-7.29,-0.01,73,236,8.699027061462402,8.699019432067871
58,-0.2192842960357666,-2.1462032794952393,0.036107052117586136,36.7141253,3.1810919,19.71,-3.88,-6.1,0.02,73,237,7.237288951873779,7.237236022949219
59,-0.3019823431968689,-2.115344524383545,0.01525535061955452,36.7140695,3.1809782,19.68,-3.34,-5.68,0.01,72,238,6.598564624786377,6.598548412322998
60,-0.2612832486629486,-2.0999176502227783,0.02889600582420826,36.7140252,3.1808827,19.68,-3.22,-5.65,0.0,72,239,6.5147294998168945,6.5147247314453125
61,-0.21407145261764526,-2.1000077724456787,-0.024449137970805168,36.7139817,3.1807876,19.68,-3.11,-5.45,0.0,71,239,6.2844109535217285,6.2844109535217285
62,0.1506081223487854,-2.100990056991577,-0.004553545732051134,36.7139408,3.1806988,19.66,-1.8,-3.13,0.03,71,239,3.6134033203125,3.6131932735443115
63,0.09422709792852402,-2.100700616836548,-0.0010684361914172769,36.7139274,3.1806696,19.66,-0.3,-0.54,-0.02,71,239,0.6312660574913025,0.6308565735816956
64,0.004149029031395912,-2.1006033420562744,0.01715082861483097,36.7139275,3.1806692,19.65,0.16,0.1,0.04,70,239,0.1961437314748764,0.19169829785823822
