timestamp,pitch,yaw,roll,lat,lon,alt,velocity_x,velocity_y,velocity_z,battery,heading,airspeed,groundspeed
0,0.024722013622522354,-0.04967803508043289,-0.015148025006055832,36.7156066,3.1846299,21.54,-0.02,0.02,-0.04,96,357,0.05798864737153053,0.03355351462960243
1,-0.06774818897247314,-0.05661616101861,0.11062663048505783,36.7156076,3.1846318,21.49,0.26,0.48,-0.02,95,356,0.5502567887306213,0.5496300458908081
2,-0.2199578434228897,1.5407763719558716,-0.11552751809358597,36.7156209,3.1846588,21.52,1.54,2.49,-0.04,95,88,2.9379100799560547,2.9375834465026855
3,-0.15195788443088531,0.8524995446205139,0.008214587345719337,36.7156469,3.1847104,21.54,2.17,3.48,-0.02,95,48,4.111901760101318,4.111841678619385
4,0.036189161241054535,0.9828802943229675,0.03051813878118992,36.7156813,3.1847778,21.53,1.89,2.97,0.0,94,56,3.5266687870025635,3.526656150817871
5,0.35344788432121277,1.1904621124267578,0.051848895847797394,36.7156944,3.1848028,21.56,-0.41,-0.58,-0.03,94,68,0.7195848226547241,0.7188721299171448
6,-0.0478023923933506,2.777193784713745,0.2222454696893692,36.715675,3.1847675,21.55,-2.13,-3.04,0.05,93,159,3.715930461883545,3.7154664993286133
7,-0.1452798694372177,-1.920737624168396,0.01448118593543768,36.7156398,3.1847033,21.58,-2.2,-3.27,-0.02,93,249,3.948472261428833,3.9484100341796875
8,0.0053941914811730385,-1.6877720355987549,0.19516640901565552,36.71562,3.1846493,21.54,-0.32,-2.96,0.02,93,263,2.982609510421753,2.9825079441070557
9,-0.40146154165267944,-0.6533707976341248,0.10403428226709366,36.7156492,3.1845927,21.53,4.03,-3.15,0.0,92,322,5.1197686195373535,5.119763374328613
10,-0.49567145109176636,-0.6250534057617188,-0.01697980798780918,36.7157231,3.1845274,21.53,6.7,-4.66,0.0,92,324,8.164481163024902,8.164478302001953
11,-0.5278656482696533,-0.6216232180595398,0.00016782243619672954,36.7158229,3.1844406,21.54,7.83,-5.48,0.0,91,324,9.568012237548828,9.568011283874512
12,-0.36161333322525024,-0.6231582760810852,0.0005948669859208167,36.7159467,3.1843315,21.57,7.57,-5.39,-0.02,91,324,9.304183959960938,9.304158210754395
13,-0.10802735388278961,-0.62478107213974,-0.02454608492553234,36.716039,3.1842498,21.6,5.69,-4.07,0.03,91,324,6.997674465179443,6.997573375701904
14,0.04160560667514801,-1.1646912097930908,-0.295134574174881,36.7160974,3.1841849,21.71,1.23,-2.89,-0.24,90,293,3.15811824798584,3.1487791538238525
15,-0.40677914023399353,-2.124605417251587,-0.06890547275543213,36.7160861,3.1841283,22.56,-2.71,-4.25,-0.86,90,238,5.1251983642578125,5.051409721374512
16,-0.4456605613231659,-2.165452480316162,0.019372863695025444,36.7160336,3.1840361,24.32,-4.72,-6.77,-1.41,89,235,8.38042163848877,8.260848045349121
17,-0.48753821849823,-2.1619505882263184,-0.02910688892006874,36.7159502,3.1838863,27.09,-5.53,-8.01,-1.6,89,236,9.872861862182617,9.74072551727295
18,-0.46729323267936707,-2.1660215854644775,0.041821904480457306,36.7158746,3.1837486,29.56,-5.52,-8.16,-1.58,88,235,9.986250877380371,9.860437393188477
19,-0.44511649012565613,-2.1633076667785645,-0.029613900929689407,36.715787,3.1835857,32.44,-5.52,-8.26,-1.58,88,236,10.067493438720703,9.942219734191895
20,-0.49351534247398376,-2.1620826721191406,-0.003433606820181012,36.7157126,3.1834469,34.91,-5.51,-8.27,-1.59,88,236,10.069477081298828,9.941685676574707
21,-0.4642171859741211,-2.162971019744873,0.03206821531057358,36.7156377,3.1833072,37.4,-5.52,-8.26,-1.61,87,236,10.067018508911133,9.937172889709473
22,-0.44900044798851013,-2.165508508682251,-0.027622520923614502,36.7155503,3.1831443,40.31,-5.51,-8.27,-1.61,87,235,10.071672439575195,9.9415922164917
23,-0.496492862701416,-2.1642520427703857,0.004619782790541649,36.7154756,3.1830048,42.8,-5.5,-8.3,-1.62,86,236,10.09174919128418,9.960088729858398
24,-0.4240449368953705,-2.1631076335906982,0.0053359512239694595,36.7153885,3.1828414,45.71,-5.51,-8.29,-1.63,86,236,10.095903396606445,9.9620361328125
25,-0.4566783308982849,-2.1632473468780518,-0.031617701053619385,36.7153138,3.1827016,48.22,-5.48,-8.28,-1.62,85,236,10.067456245422363,9.934789657592773
26,-0.4717121422290802,-2.162630796432495,0.024584440514445305,36.7152268,3.1825388,51.14,-5.52,-8.27,-1.63,85,236,10.088852882385254,9.954785346984863
27,-0.4246114194393158,-2.164717197418213,0.006059503648430109,36.7151517,3.1823989,53.64,-5.54,-8.29,-1.64,84,235,10.111167907714844,9.976507186889648
28,-0.4582621455192566,-2.163804292678833,-0.030971374362707138,36.7150769,3.1822588,56.15,-5.5,-8.3,-1.63,84,236,10.098677635192871,9.965261459350586
29,-0.2465803474187851,-2.1673381328582764,0.02991987019777298,36.7149935,3.1821035,58.96,-4.77,-7.11,-1.42,83,235,8.68347454071045,8.564960479736328
30,-0.04485512897372246,-2.1627047061920166,-0.00553507637232542,36.7149397,3.1820032,60.69,-3.13,-4.74,-0.77,83,236,5.744464874267578,5.692067623138428
31,-0.12123536318540573,-2.106205940246582,0.038506582379341125,36.7149003,3.1819244,61.46,-2.13,-3.69,-0.15,83,239,4.276113033294678,4.273187637329102
32,-0.1611519604921341,-2.08591628074646,-0.02067183144390583,36.7148728,3.1818629,61.51,-2.0,-3.69,0.0,82,240,4.199866771697998,4.199862003326416
33,-0.028803138062357903,-2.087447166442871,0.02541639469563961,36.7148464,3.1818031,61.51,-1.77,-3.25,0.0,82,240,3.7061405181884766,3.7061405181884766
34,-0.006137389224022627,-2.2978649139404297,-0.057303037494421005,36.7148237,3.1817573,60.72,-1.2,-1.45,1.09,82,228,2.1896989345550537,1.895168662071228
35,-0.009927182458341122,-2.4834232330322266,0.01148347370326519,36.7148086,3.1817402,58.52,-1.02,-0.79,1.46,81,217,1.955403447151184,1.298811674118042
36,-0.05703602358698845,-2.4713616371154785,0.021804213523864746,36.7147923,3.1817249,55.91,-1.04,-0.84,1.42,81,218,1.95962655544281,1.3412704467773438
37,-0.014346915297210217,-2.4703221321105957,-0.013445526361465454,36.714778,3.1817109,53.67,-1.06,-0.87,1.44,81,218,1.9958622455596924,1.3801944255828857
38,-0.059451136738061905,-2.469752073287964,0.014304396696388721,36.7147635,3.1816963,51.42,-1.06,-0.88,1.44,80,218,2.0002150535583496,1.383163571357727
39,-0.03149186447262764,-2.469235897064209,-0.027246646583080292,36.7147465,3.1816793,48.81,-1.07,-0.88,1.45,80,218,2.0131218433380127,1.3919868469238281
40,-0.03577815368771553,-2.4696264266967773,0.029566293582320213,36.7147319,3.1816646,46.57,-1.07,-0.88,1.46,79,218,2.020995616912842,1.391836404800415
41,-0.05893731489777565,-2.469245672225952,-0.01149815134704113,36.7147148,3.1816475,43.94,-1.06,-0.88,1.46,79,218,2.021392345428467,1.389328122138977
42,-0.010262063704431057,-2.469489812850952,0.015391269698739052,36.7147003,3.1816329,41.7,-1.06,-0.88,1.47,79,218,2.024975061416626,1.3894987106323242
43,-0.0524500347673893,-2.4691097736358643,-0.019199296832084656,36.7146858,3.1816181,39.46,-1.07,-0.89,1.47,78,218,2.0351908206939697,1.4014137983322144
44,-0.012352745048701763,-2.469696521759033,-0.016100039705634117,36.7146687,3.1816008,36.83,-1.07,-0.88,1.47,78,218,2.0252625942230225,1.389833688735962
45,-0.06401461362838745,-2.4695823192596436,0.01229820866137743,36.7146541,3.1815861,34.57,-1.06,-0.88,1.46,78,218,2.01939058303833,1.3851829767227173
46,-0.041762758046388626,-2.469904899597168,-0.026332467794418335,36.7146372,3.181569,31.96,-1.07,-0.88,1.48,77,218,2.031698703765869,1.3912608623504639
47,-0.03782003000378609,-2.469311237335205,0.028762513771653175,36.7146225,3.1815543,29.71,-1.06,-0.88,1.47,77,218,2.0208089351654053,1.3800338506698608
48,-0.030304336920380592,-2.4695920944213867,-0.024232272058725357,36.7146079,3.1815396,27.45,-1.06,-0.87,1.47,77,218,2.0181994438171387,1.3793898820877075
49,-0.04820425063371658,-2.4695208072662354,0.024968527257442474,36.7145934,3.1815248,25.21,-1.05,-0.88,1.47,76,218,2.0179343223571777,1.3774720430374146
50,-0.12083843350410461,-2.885970115661621,-0.11400749534368515,36.7145743,3.1815092,22.62,-1.62,-0.46,1.31,76,194,2.141249656677246,1.690689206123352
51,-0.2178739756345749,2.673480749130249,-0.04847007989883423,36.7145351,3.1815204,21.52,-3.39,1.61,-0.01,75,153,3.760967969894409,3.760935068130493
52,-0.20037011802196503,2.6793923377990723,0.006550120189785957,36.7144829,3.1815523,21.62,-4.07,2.03,-0.01,75,153,4.554516792297363,4.554503440856934
53,-0.01433749869465828,2.8460917472839355,0.12955248355865479,36.7144287,3.1815828,21.58,-3.75,1.13,0.06,75,163,3.9231553077697754,3.9226789474487305
54,-0.35623037815093994,-2.2569031715393066,0.17500749230384827,36.7143771,3.1815681,21.55,-2.93,-3.1,0.02,74,230,4.2763519287109375,4.276301383972168
55,-0.4659283459186554,-2.140432357788086,-0.02473883144557476,36.7143321,3.1814874,21.55,-3.94,-6.29,0.01,74,237,7.431497573852539,7.4314775466918945
56,-0.4821322560310364,-2.1475071907043457,0.02190014347434044,36.7142607,3.1813465,21.56,-4.89,-7.67,0.0,73,236,9.1056489944458,9.105648040771484
57,-0.3288571834564209,-2.1507978439331055,-0.008275588974356651,36.7141938,3.1812168,21.58,-4.78,-7.4,-0.01,73,236,8.817793846130371,8.81778621673584
58,-0.2528347969055176,-2.1459856033325195,0.03356226533651352,36.7141251,3.181084,21.58,-3.82,-6.02,0.03,73,236,7.384574890136719,7.384510517120361
59,-0.2481718361377716,-2.1175730228424072,0.010052544996142387,36.7140774,3.1809871,21.55,-3.37,-5.68,0.01,72,238,6.607681751251221,6.60765266418457
60,-0.30369147658348083,-2.10097074508667,-0.004697766620665789,36.7140329,3.1808917,21.56,-3.23,-5.66,0.0,72,239,6.528858661651611,6.528851509094238
61,-0.15988801419734955,-2.099785566329956,-0.004607721697539091,36.7139822,3.1807808,21.56,-3.08,-5.4,0.0,71,239,6.224507808685303,6.224507808685303
62,0.06540331244468689,-2.100680112838745,0.0026287566870450974,36.7139465,3.1807034,21.54,-1.97,-3.44,0.04,71,239,3.967968225479126,3.967761516571045
63,0.16067898273468018,-2.1005282402038574,0.0033496818505227566,36.7139311,3.1806696,21.53,-0.41,-0.72,-0.02,71,239,0.8319380283355713,0.831678569316864
64,-0.009380639530718327,-2.1009750366210938,0.05510498210787773,36.7139306,3.1806681,21.53,0.13,0.13,0.03,70,239,0.1921316683292389,0.18841853737831116
