timestamp,pitch,yaw,roll,lat,lon,alt,velocity_x,velocity_y,velocity_z,battery,heading,airspeed,groundspeed
0,0.007058753632009029,-0.0460871122777462,0.029766535386443138,36.7156066,3.1846299,21.96,-0.02,0.03,-0.06,96,357,0.07874256372451782,0.04053976386785507
1,-0.06349758803844452,-0.052175212651491165,0.06970933824777603,36.7156076,3.1846321,21.93,0.29,0.52,-0.02,95,357,0.6078045964241028,0.6070849895477295
2,-0.16971465945243835,1.5431910753250122,-0.1381145417690277,36.7156223,3.1846616,21.97,1.65,2.63,-0.04,95,88,3.1123268604278564,3.1120541095733643
3,-0.1447669118642807,0.8714044094085693,0.04359249398112297,36.7156494,3.184715,21.97,2.16,3.45,-0.01,95,49,4.076896667480469,4.076860427856445
4,0.0748782679438591,0.9862593412399292,-0.00924881175160408,36.7156824,3.184779,21.97,1.64,2.56,0.0,94,56,3.0441970825195312,3.0441958904266357
5,0.34748080372810364,1.3437882661819458,0.1231798455119133,36.7156894,3.1847922,21.99,-0.93,-1.35,-0.01,94,76,1.6458748579025269,1.6458072662353516
6,-0.10430151969194412,3.013319492340088,0.160056933760643,36.7156661,3.1847501,21.96,-2.23,-3.16,0.04,93,172,3.8702259063720703,3.870012044906616
7,-0.10440244525671005,-1.9556013345718384,0.024265941232442856,36.715631,3.184685,22.01,-2.04,-3.24,0.0,93,247,3.8377342224121094,3.8377230167388916
8,-0.06759216636419296,-1.42493736743927,0.28478148579597473,36.715617,3.1846322,21.96,0.37,-2.84,0.01,93,278,2.87149977684021,2.8714399337768555
9,-0.46344101428985596,-0.6488052606582642,0.061408475041389465,36.7156577,3.1845742,21.96,4.68,-3.4,0.0,92,322,5.792538166046143,5.792538166046143
10,-0.48460957407951355,-0.6280197501182556,0.036553990095853806,36.7157379,3.184504,21.96,7.03,-4.85,-0.01,92,324,8.541306495666504,8.541299819946289
11,-0.48093143105506897,-0.619166374206543,-0.03571796044707298,36.7158405,3.1844153,21.98,7.84,-5.5,0.0,91,324,9.585981369018555,9.585976600646973
12,-0.3416583240032196,-0.6229575276374817,0.029538756236433983,36.7159633,3.1843067,22.01,7.33,-5.23,-0.02,91,324,9.01130199432373,9.011252403259277
13,-0.012626483105123043,-0.6311802268028259,-0.05491741746664047,36.7160498,3.1842298,22.02,5.11,-3.72,0.04,91,323,6.326650142669678,6.326477527618408
14,-0.06350841373205185,-1.437159776687622,-0.2731483578681946,36.7160964,3.1841683,22.23,0.38,-2.95,-0.35,90,277,3.001389265060425,2.9806408882141113
15,-0.4347110092639923,-2.1348018646240234,-0.08218853920698166,36.7160752,3.1841068,23.26,-3.22,-4.68,-0.98,90,237,5.7752532958984375,5.690403938293457
16,-0.48383629322052,-2.1618850231170654,0.042427171021699905,36.7160175,3.1840059,25.17,-4.95,-7.1,-1.47,89,236,8.781547546386719,8.656573295593262
17,-0.42843204736709595,-2.163360357284546,-0.03530769422650337,36.7159329,3.1838532,27.99,-5.52,-8.05,-1.6,89,236,9.899141311645508,9.768203735351562
18,-0.49711528420448303,-2.164703607559204,-0.0005653201369568706,36.7158577,3.1837154,30.44,-5.57,-8.25,-1.58,88,235,10.082328796386719,9.957159996032715
19,-0.4285122752189636,-2.1639084815979004,0.015013850294053555,36.7157698,3.1835525,33.33,-5.51,-8.24,-1.59,88,236,10.048190116882324,9.921072959899902
20,-0.4581848680973053,-2.1633079051971436,-0.03287903964519501,36.7156951,3.1834128,35.81,-5.48,-8.22,-1.59,88,236,10.013555526733398,9.885259628295898
21,-0.45486605167388916,-2.166347026824951,0.040703997015953064,36.715608,3.1832504,38.7,-5.56,-8.28,-1.62,87,235,10.108047485351562,9.976134300231934
22,-0.42500895261764526,-2.163951873779297,-0.00031664196285419166,36.7155331,3.1831106,41.2,-5.51,-8.28,-1.62,87,236,10.085660934448242,9.953351020812988
23,-0.4794543981552124,-2.1625938415527344,-0.030109699815511703,36.7154589,3.1829714,43.7,-5.5,-8.29,-1.62,86,236,10.087508201599121,9.956546783447266
24,-0.4494893252849579,-2.1664788722991943,0.0426168292760849,36.7153712,3.1828082,46.61,-5.52,-8.27,-1.63,86,235,10.085456848144531,9.951663970947266
25,-0.42541271448135376,-2.1656785011291504,-0.010716065764427185,36.7152964,3.182668,49.11,-5.51,-8.32,-1.63,85,235,10.116019248962402,9.982403755187988
26,-0.4849160611629486,-2.16259765625,0.0008055391372181475,36.7152095,3.1825048,52.04,-5.51,-8.28,-1.63,85,236,10.081976890563965,9.948692321777344
27,-0.44218698143959045,-2.1643052101135254,0.03221036493778229,36.7151348,3.1823657,54.54,-5.54,-8.31,-1.64,84,236,10.127457618713379,9.992894172668457
28,-0.4219045341014862,-2.164163827896118,-0.025391148403286934,36.7150597,3.1822253,57.05,-5.49,-8.26,-1.63,84,236,10.054532051086426,9.920551300048828
29,-0.21343204379081726,-2.1684961318969727,0.030268294736742973,36.7149783,3.182074,59.79,-4.49,-6.67,-1.33,83,235,8.161218643188477,8.05108642578125
30,-0.040152695029973984,-2.1575827598571777,0.008177154697477818,36.7149291,3.1819815,61.32,-2.88,-4.41,-0.64,83,236,5.318422794342041,5.278695106506348
31,-0.13256387412548065,-2.0999553203582764,0.042588699609041214,36.7148919,3.1819054,61.92,-2.1,-3.69,-0.1,83,239,4.254485607147217,4.253133773803711
32,-0.15538790822029114,-2.0866363048553467,-0.019379938021302223,36.7148645,3.1818441,61.94,-2.0,-3.69,0.0,82,240,4.203334331512451,4.203324794769287
33,-0.011392717249691486,-2.08896541595459,0.013670837506651878,36.7148388,3.1817856,61.92,-1.63,-2.97,0.07,82,240,3.391777753829956,3.391014337539673
34,-0.0025203360710293055,-2.3671746253967285,-0.05450401455163956,36.7148175,3.1817458,60.8,-1.17,-1.25,1.29,82,224,2.1555519104003906,1.720077633857727
35,-0.013144484721124172,-2.4713776111602783,0.020384471863508224,36.7148028,3.1817305,58.53,-1.03,-0.79,1.44,81,218,1.9492532014846802,1.3064249753952026
36,-0.059633564203977585,-2.469618320465088,0.020473264157772064,36.7147864,3.181715,55.92,-1.04,-0.83,1.43,81,218,1.961611270904541,1.3408043384552002
37,-0.012888254597783089,-2.4700167179107666,-0.009724864736199379,36.7147721,3.1817008,53.68,-1.06,-0.87,1.44,81,218,2.001389265060425,1.3832571506500244
38,-0.06187480315566063,-2.4695582389831543,0.005998255684971809,36.7147576,3.1816862,51.44,-1.06,-0.88,1.45,80,218,2.0089104175567627,1.3888498544692993
39,-0.029452480375766754,-2.4693400859832764,-0.02547987923026085,36.7147406,3.1816692,48.82,-1.07,-0.88,1.45,80,218,2.0139453411102295,1.3923821449279785
40,-0.03785586729645729,-2.469608783721924,0.030653370544314384,36.7147261,3.1816546,46.58,-1.07,-0.88,1.46,79,218,2.0222575664520264,1.3922131061553955
41,-0.055556219071149826,-2.4693515300750732,-0.008432758040726185,36.7147089,3.1816374,43.96,-1.06,-0.88,1.47,79,218,2.022073268890381,1.3876512050628662
42,-0.009509852156043053,-2.4696075916290283,0.014221067540347576,36.7146944,3.1816226,41.71,-1.06,-0.88,1.46,79,218,2.019665241241455,1.3863441944122314
43,-0.05201166495680809,-2.4690279960632324,-0.016644155606627464,36.7146799,3.181608,39.47,-1.07,-0.9,1.47,78,218,2.035771369934082,1.4048622846603394
44,-0.014981678687036037,-2.469637393951416,-0.017392076551914215,36.7146628,3.1815907,36.84,-1.07,-0.89,1.48,78,218,2.0352818965911865,1.3970577716827393
45,-0.05933617800474167,-2.469573974609375,0.015891307964920998,36.7146482,3.181576,34.59,-1.05,-0.88,1.47,78,218,2.0181849002838135,1.3798792362213135
46,-0.046957872807979584,-2.469635248184204,-0.022245680913329124,36.7146312,3.1815589,31.97,-1.06,-0.88,1.47,77,218,2.024744987487793,1.3858438730239868
47,-0.026241857558488846,-2.469302177429199,0.02615196444094181,36.7146167,3.1815441,29.72,-1.06,-0.88,1.48,77,218,2.0271964073181152,1.3827592134475708
48,-0.037702735513448715,-2.4693856239318848,-0.026287777349352837,36.7146021,3.1815294,27.47,-1.07,-0.89,1.47,77,218,2.034188747406006,1.3957221508026123
49,-0.009816998615860939,-2.469447374343872,-0.0005513043142855167,36.7145851,3.1815122,24.84,-1.07,-0.87,1.47,76,218,2.020108461380005,1.381544589996338
50,-0.15736988186836243,-3.0765161514282227,-0.11337457597255707,36.7145666,3.1815008,22.7,-1.84,-0.2,1.14,76,183,2.1777377128601074,1.8536171913146973
51,-0.21961408853530884,2.6758334636688232,-0.03668081760406494,36.714523,3.1815184,21.97,-3.62,1.78,-0.05,75,153,4.036840438842773,4.036403656005859
52,-0.186078280210495,2.679819345474243,0.012498141266405582,36.7144693,3.1815512,22.05,-4.07,2.03,0.02,75,153,4.558222770690918,4.558144569396973
53,-0.011997408233582973,2.9644036293029785,0.1557082235813141,36.7144163,3.1815782,22.0,-3.61,0.67,0.05,75,169,3.6788506507873535,3.6784865856170654
54,-0.3870229721069336,-2.1966607570648193,0.13661406934261322,36.7143665,3.18155,21.98,-3.01,-3.8,0.01,74,234,4.848258972167969,4.8482208251953125
55,-0.47453561425209045,-2.145273208618164,-0.026853958144783974,36.7143182,3.181459,21.98,-4.17,-6.64,0.01,74,237,7.847376346588135,7.8473687171936035
56,-0.45548099279403687,-2.1483829021453857,0.023171545937657356,36.7142452,3.1813149,21.99,-4.93,-7.72,0.0,73,236,9.165200233459473,9.165196418762207
57,-0.3053073287010193,-2.152358293533325,-0.016564957797527313,36.7141788,3.1811866,22.01,-4.68,-7.21,-0.01,73,236,8.601173400878906,8.601167678833008
58,-0.26460355520248413,-2.1451528072357178,0.010650704614818096,36.714121,3.1810749,22.0,-3.8,-6.0,0.02,73,237,7.108645439147949,7.108585357666016
59,-0.24796977639198303,-2.1134464740753174,-0.0069429874420166016,36.7140654,3.1809614,21.98,-3.31,-5.63,0.01,72,238,6.54229736328125,6.5422892570495605
60,-0.30558228492736816,-2.0994975566864014,0.0043326485902071,36.7140216,3.1808665,21.98,-3.21,-5.66,0.0,72,239,6.514429569244385,6.514427185058594
61,-0.13431991636753082,-2.100564956665039,-0.022969495505094528,36.7139714,3.180757,21.99,-2.97,-5.2,0.0,71,239,5.994653224945068,5.99465274810791
62,0.12306290864944458,-2.1010358333587646,0.026904072612524033,36.7139388,3.1806861,21.96,-1.63,-2.88,0.03,71,239,3.3204593658447266,3.320291757583618
63,0.07536020129919052,-2.1001317501068115,-0.02001984976232052,36.7139268,3.1806595,21.97,-0.09,-0.18,-0.01,71,239,0.20828846096992493,0.20763805508613586
64,0.009995108470320702,-2.1001341342926025,0.08297010511159897,36.7139278,3.180661,21.95,0.21,0.07,0.04,70,239,0.23536492884159088,0.23192507028579712
