timestamp,pitch,yaw,roll,lat,lon,alt,velocity_x,velocity_y,velocity_z,battery,heading,airspeed,groundspeed
0,-0.02290133573114872,0.012082532979547977,0.010536938905715942,36.7156065,3.18463,21.46,-0.01,0.01,-0.04,96,0,0.04812558740377426,0.022150613367557526
1,-0.04404037445783615,0.012174486182630062,0.09134706109762192,36.7156078,3.1846323,21.41,0.33,0.54,-0.02,95,0,0.6393186450004578,0.6389063000679016
2,-0.1689622402191162,1.467095136642456,-0.09440632909536362,36.7156241,3.1846633,21.44,1.8,2.73,-0.04,95,84,3.2776942253112793,3.2774245738983154
3,-0.19041140377521515,0.9223864674568176,0.010327020660042763,36.7156534,3.184718,21.45,2.37,3.58,-0.02,95,52,4.302548885345459,4.302501201629639
4,0.08666498959064484,0.9730744957923889,-0.03331764414906502,36.7156897,3.1847849,21.45,1.86,2.75,0.0,94,55,3.329493284225464,3.329486846923828
5,0.36055561900138855,1.0303407907485962,0.05566652491688728,36.7156998,3.1848023,21.48,-0.73,-1.08,-0.02,94,59,1.3104702234268188,1.3102986812591553
6,-0.055710118263959885,2.8117871284484863,0.14748452603816986,36.7156778,3.1847623,21.46,-2.2,-3.13,0.05,93,161,3.835653066635132,3.8353097438812256
7,-0.07007842510938644,-1.902156949043274,0.014151809737086296,36.7156426,3.1846975,21.5,-2.12,-3.24,0.0,93,251,3.8787267208099365,3.8787267208099365
8,-0.06764185428619385,-1.5684360265731812,0.2577906847000122,36.7156264,3.1846445,21.45,0.1,-2.88,0.02,93,270,2.8837099075317383,2.8836324214935303
9,-0.4402709901332855,-0.6500223875045776,0.035109467804431915,36.7156627,3.1845875,21.45,4.42,-3.29,0.0,92,322,5.516601085662842,5.516601085662842
10,-0.5184536576271057,-0.6269110441207886,0.04625573009252548,36.7157409,3.184519,21.45,6.95,-4.78,0.0,92,324,8.44260311126709,8.442599296569824
11,-0.47931739687919617,-0.6173923015594482,-0.03067290410399437,36.7158607,3.1844156,21.47,7.9,-5.5,0.0,91,324,9.63370132446289,9.633699417114258
12,-0.40038955211639404,-0.6209179162979126,0.013618908822536469,36.7159665,3.1843228,21.5,7.48,-5.3,-0.01,91,324,9.1705322265625,9.170512199401855
13,-0.03594158589839935,-0.6239510774612427,-0.008593179285526276,36.7160561,3.184244,21.51,5.41,-3.87,0.04,91,324,6.661360740661621,6.661238670349121
14,-0.043042562901973724,-1.296653389930725,-0.2556038796901703,36.7161085,3.1841809,21.67,0.77,-2.91,-0.3,90,285,3.026754140853882,3.0113680362701416
15,-0.3750315308570862,-2.1319432258605957,-0.09661475569009781,36.7160917,3.1841215,22.62,-3.01,-4.47,-0.93,90,237,5.480210781097412,5.400393486022949
16,-0.4874662458896637,-2.1604161262512207,0.03728495538234711,36.7160253,3.184005,24.84,-5.05,-7.24,-1.5,89,236,8.95944881439209,8.832683563232422
17,-0.42174431681632996,-2.163841724395752,0.013847113586962223,36.7159519,3.1838734,27.27,-5.55,-8.03,-1.61,89,236,9.902674674987793,9.770173072814941
18,-0.4658038020133972,-2.1658506393432617,-0.022811738774180412,36.7158764,3.1837355,29.73,-5.52,-8.2,-1.57,88,235,10.016426086425781,9.89133358001709
19,-0.45634931325912476,-2.1633059978485107,0.036089375615119934,36.7157892,3.1835729,32.6,-5.52,-8.28,-1.59,88,236,10.08675765991211,9.959333419799805
20,-0.42456361651420593,-2.166116952896118,-0.0048832097090780735,36.7157142,3.1834333,35.08,-5.54,-8.25,-1.6,88,235,10.075736045837402,9.946611404418945
21,-0.48932215571403503,-2.165945291519165,0.012798205949366093,36.7156267,3.1832703,37.99,-5.51,-8.26,-1.61,87,235,10.06676959991455,9.936924934387207
22,-0.45176127552986145,-2.1637415885925293,0.03720182552933693,36.7155522,3.1831309,40.48,-5.49,-8.26,-1.62,87,236,10.053367614746094,9.921478271484375
23,-0.43067386746406555,-2.164039134979248,-0.01471769530326128,36.7154778,3.1829915,42.97,-5.52,-8.29,-1.63,86,236,10.099061012268066,9.96569538116455
24,-0.4857308864593506,-2.165950059890747,0.020291605964303017,36.7153902,3.1828282,45.9,-5.52,-8.29,-1.62,86,235,10.094507217407227,9.962186813354492
25,-0.43686094880104065,-2.1643142700195312,0.03301876038312912,36.7153155,3.1826882,48.4,-5.5,-8.3,-1.64,85,236,10.099836349487305,9.965734481811523
26,-0.4651090204715729,-2.162076950073242,-0.03887789696455002,36.7152285,3.1825252,51.31,-5.51,-8.28,-1.64,85,236,10.090486526489258,9.95557975769043
27,-0.48528409004211426,-2.1656644344329834,0.030495595186948776,36.7151536,3.1823856,53.82,-5.53,-8.29,-1.64,84,235,10.10384750366211,9.969522476196289
28,-0.4236574172973633,-2.163600444793701,0.021068748086690903,36.7150788,3.1822455,56.33,-5.5,-8.29,-1.63,84,236,10.09400463104248,9.96002197265625
29,-0.2577100992202759,-2.167900562286377,-0.01014380156993866,36.7149966,3.1820925,59.09,-4.64,-6.89,-1.38,83,235,8.42995834350586,8.314895629882812
30,-0.06180742010474205,-2.1615688800811768,0.034335657954216,36.714945,3.1819963,60.73,-3.0,-4.55,-0.7,83,236,5.502699375152588,5.456706523895264
31,-0.16694693267345428,-2.115053653717041,0.01731533370912075,36.7149063,3.181919,61.4,-2.15,-3.68,-0.12,83,238,4.272563457489014,4.270657062530518
32,-0.13559307157993317,-2.1014251708984375,0.011642605997622013,36.714878,3.1818578,61.43,-2.07,-3.68,0.0,82,239,4.2304277420043945,4.230422019958496
33,-0.03447071835398674,-2.1031525135040283,-0.016371911391615868,36.714851,3.1817987,61.43,-1.75,-3.1,0.03,82,239,3.5651397705078125,3.5649659633636475
34,0.032172732055187225,-2.341291904449463,-0.06425696611404419,36.7148286,3.1817563,60.47,-1.2,-1.33,1.2,82,225,2.169391632080078,1.8038169145584106
35,-0.054639510810375214,-2.4774811267852783,0.016411274671554565,36.7148137,3.1817403,58.24,-1.02,-0.8,1.45,81,218,1.9550868272781372,1.3071180582046509
36,-0.05313418433070183,-2.4699995517730713,-0.021020637825131416,36.7147974,3.1817249,55.63,-1.05,-0.85,1.44,81,218,1.9779645204544067,1.3556644916534424
37,-0.02795877493917942,-2.469996929168701,0.02817435748875141,36.714783,3.1817107,53.38,-1.06,-0.86,1.44,81,218,1.9921400547027588,1.374072551727295
38,-0.060425933450460434,-2.469994306564331,0.0063805654644966125,36.7147661,3.1816937,50.76,-1.07,-0.88,1.45,80,218,2.0096960067749023,1.3911274671554565
39,-0.01221333909779787,-2.4691901206970215,0.009292672388255596,36.7147516,3.1816791,48.53,-1.08,-0.87,1.46,80,218,2.021334409713745,1.3948678970336914
40,-0.05978589504957199,-2.4696578979492188,-0.004062465857714415,36.7147369,3.1816644,46.28,-1.07,-0.89,1.46,79,218,2.02400803565979,1.3943612575531006
41,-0.02489744871854782,-2.4696342945098877,-0.021541260182857513,36.7147199,3.1816473,43.65,-1.07,-0.88,1.46,79,218,2.0221750736236572,1.3926112651824951
42,-0.05044826120138168,-2.4699501991271973,0.021554091945290565,36.7147054,3.1816326,41.42,-1.06,-0.88,1.47,79,218,2.021883010864258,1.3810042142868042
43,-0.012134208343923092,-2.4691975116729736,-0.014775575138628483,36.7146908,3.1816179,39.17,-1.07,-0.88,1.47,78,218,2.02758526802063,1.3881888389587402
44,-0.0183244701474905,-2.4692463874816895,0.02325454354286194,36.7146737,3.1816007,36.54,-1.06,-0.87,1.47,78,218,2.0154805183410645,1.3739042282104492
45,-0.043484486639499664,-2.469261646270752,-0.025127867236733437,36.7146592,3.181586,34.3,-1.06,-0.88,1.48,78,218,2.0291457176208496,1.3877389430999756
46,-0.007728031370788813,-2.469543695449829,-0.005911740940064192,36.7146422,3.1815688,31.67,-1.07,-0.87,1.47,77,218,2.0280323028564453,1.386759638786316
47,-0.06629341840744019,-2.46958065032959,0.0012626377865672112,36.7146275,3.1815541,29.42,-1.06,-0.88,1.47,77,218,2.018803119659424,1.3800331354141235
48,-0.02686070092022419,-2.4694881439208984,-0.02114185318350792,36.7146106,3.1815369,26.79,-1.06,-0.88,1.47,76,218,2.0214009284973145,1.382779598236084
49,-0.05426601320505142,-2.469353675842285,-0.008982695639133453,36.7145984,3.1815246,24.92,-1.06,-0.88,1.48,76,218,2.026808261871338,1.3808594942092896
50,-0.10029510408639908,-2.990709066390991,-0.13173030316829681,36.7145785,3.1815099,22.36,-1.72,-0.32,1.22,76,188,2.1473608016967773,1.7604776620864868
51,-0.1969752013683319,2.667806625366211,-0.006974478717893362,36.7145373,3.1815245,21.45,-3.46,1.7,-0.04,75,152,3.8640506267547607,3.863804817199707
52,-0.18923142552375793,2.672429323196411,-0.024641769006848335,36.714485,3.1815571,21.54,-4.03,2.05,0.0,75,153,4.525390625,4.525381565093994
53,-0.0054892790503799915,3.04303240776062,0.18655775487422943,36.7144239,3.1815876,21.49,-3.49,0.37,0.04,75,174,3.5143721103668213,3.514031171798706
54,-0.40934136509895325,-2.2187702655792236,0.12593431770801544,36.7143817,3.1815625,21.47,-3.0,-3.55,0.02,74,232,4.651532173156738,4.651486873626709
55,-0.45503586530685425,-2.14697265625,0.01751532219350338,36.7143345,3.1814759,21.47,-4.14,-6.51,0.01,74,236,7.722011566162109,7.722002983093262
56,-0.49078670144081116,-2.153834104537964,-0.005612005013972521,36.714261,3.1813326,21.48,-4.96,-7.71,0.0,73,236,9.170491218566895,9.170490264892578
57,-0.32595735788345337,-2.1569769382476807,0.02523208223283291,36.7141939,3.1812041,21.5,-4.75,-7.25,-0.01,73,236,8.674101829528809,8.674094200134277
58,-0.2693729102611542,-2.147670030593872,0.0054510063491761684,36.7141262,3.1810743,21.49,-3.77,-5.94,0.03,73,236,7.042940616607666,7.042873382568359
59,-0.2536108195781708,-2.115556478500366,0.037363842129707336,36.7140786,3.1809772,21.47,-3.34,-5.66,0.01,72,238,6.579280853271484,6.57927131652832
60,-0.27887630462646484,-2.100379467010498,-0.02419316954910755,36.7140344,3.1808821,21.47,-3.22,-5.63,0.0,72,239,6.493050575256348,6.493045806884766
61,-0.14828544855117798,-2.0996084213256836,0.02199423313140869,36.713984,3.1807722,21.48,-3.0,-5.27,0.0,71,239,6.072634696960449,6.072634220123291
62,0.10614582151174545,-2.100667715072632,-0.020927157253026962,36.7139502,3.1806986,21.45,-1.78,-3.12,0.03,71,239,3.600411891937256,3.600210189819336
63,0.12830890715122223,-2.100379467010498,-0.010987386107444763,36.7139364,3.1806684,21.46,-0.15,-0.27,-0.02,71,239,0.31602808833122253,0.31539392471313477
64,-0.029815660789608955,-2.1019845008850098,0.05744462460279465,36.713937,3.1806694,21.44,0.17,0.1,0.04,70,239,0.20718291401863098,0.20305827260017395
