timestamp,pitch,yaw,roll,lat,lon,alt,velocity_x,velocity_y,velocity_z,battery,heading,airspeed,groundspeed
0,-0.021155234426259995,0.027729908004403114,-0.00617401534691453,36.7156066,3.18463,21.89,-0.01,0.02,-0.05,96,1,0.06474406272172928,0.028221050277352333
1,-0.03303069248795509,0.023880548775196075,0.0958869680762291,36.7156079,3.184632,21.86,0.31,0.49,-0.03,95,1,0.5876145362854004,0.586579442024231
2,-0.1823219507932663,1.379086971282959,-0.07166919857263565,36.7156234,3.184659,21.89,1.75,2.43,-0.04,95,79,3.000925302505493,3.0006372928619385
3,-0.19378027319908142,0.913972020149231,-0.009318257682025433,36.7156525,3.1847092,21.9,2.4,3.33,-0.01,95,52,4.1139631271362305,4.113916397094727
4,0.010360362939536572,0.9220961928367615,0.014371262863278389,36.7156852,3.1847649,21.9,2.22,3.02,0.0,94,52,3.751251459121704,3.75124192237854
5,0.3410514295101166,0.6352301836013794,-0.0814381018280983,36.7157035,3.1847934,21.92,-0.49,-0.84,-0.02,94,36,0.9765769243240356,0.9761576652526855
6,-0.05721515417098999,-0.9643751978874207,-0.205115407705307,36.7156833,3.1847556,21.9,-2.16,-3.14,0.04,93,304,3.8156752586364746,3.815380573272705
7,-0.06376359611749649,-2.412790298461914,0.04617993161082268,36.7156478,3.1846909,21.95,-2.16,-3.26,0.0,93,221,3.9188456535339355,3.918840169906616
8,-0.052677180618047714,-1.6589449644088745,0.23633530735969543,36.7156296,3.1846374,21.9,-0.13,-2.89,0.03,93,264,2.8983266353607178,2.8981642723083496
9,-0.36499321460723877,-0.6534014344215393,0.06190432608127594,36.7156535,3.1845897,21.89,3.67,-3.02,0.0,92,322,4.760297775268555,4.760295867919922
10,-0.50666344165802,-0.6260455250740051,0.04758770018815994,36.7157384,3.1845142,21.89,6.82,-4.71,0.0,92,324,8.295119285583496,8.295112609863281
11,-0.4661425054073334,-0.6165058612823486,-0.016078416258096695,36.7158395,3.184427,21.91,7.83,-5.47,0.0,91,324,9.561593055725098,9.561594009399414
12,-0.40491220355033875,-0.621183454990387,0.027798578143119812,36.7159631,3.1843183,21.94,7.54,-5.35,-0.01,91,324,9.250402450561523,9.250391960144043
13,-0.05102909356355667,-0.6227478981018066,-0.013314764015376568,36.7160545,3.1842378,21.97,5.6,-3.99,0.04,91,324,6.881359577178955,6.881210803985596
14,0.038874298334121704,-1.0018044710159302,-0.23292845487594604,36.7161075,3.1841821,22.03,1.83,-2.89,-0.17,90,302,3.432875156402588,3.4283623695373535
15,-0.3891853392124176,-2.1266415119171143,-0.11286578327417374,36.7160975,3.1841164,22.98,-2.82,-4.36,-0.88,90,238,5.273821830749512,5.198397159576416
16,-0.5042338371276855,-2.1643736362457275,0.03562778979539871,36.7160439,3.1840225,24.78,-4.8,-6.83,-1.41,89,236,8.474689483642578,8.356109619140625
17,-0.42977413535118103,-2.163989782333374,-0.02279677242040634,36.7159599,3.1838719,27.55,-5.54,-8.02,-1.6,89,236,9.887721061706543,9.756169319152832
18,-0.4893430769443512,-2.165208578109741,-0.0037716305814683437,36.7158845,3.1837339,30.02,-5.51,-8.18,-1.57,88,235,9.995362281799316,9.869845390319824
19,-0.4618235230445862,-2.1644017696380615,0.0366300605237484,36.7158097,3.1835949,32.49,-5.54,-8.25,-1.58,88,235,10.074183464050293,9.948769569396973
20,-0.45444631576538086,-2.162670612335205,-0.030590184032917023,36.7157222,3.1834319,35.38,-5.53,-8.27,-1.59,88,236,10.081220626831055,9.954569816589355
21,-0.49588707089424133,-2.164119005203247,0.004125099629163742,36.7156472,3.1832922,37.85,-5.53,-8.25,-1.6,87,236,10.065144538879395,9.935925483703613
22,-0.4268961548805237,-2.164273977279663,0.0004927624249830842,36.7155601,3.1831298,40.77,-5.48,-8.26,-1.61,87,236,10.052559852600098,9.921548843383789
23,-0.4852184057235718,-2.163926362991333,-0.02153942547738552,36.7154856,3.1829903,43.27,-5.53,-8.32,-1.61,86,236,10.12407112121582,9.994217872619629
24,-0.47616177797317505,-2.163686752319336,0.029092002660036087,36.7154107,3.1828499,45.76,-5.51,-8.29,-1.63,86,236,10.094030380249023,9.961365699768066
25,-0.43628793954849243,-2.1663432121276855,-0.021405842155218124,36.7153235,3.1826869,48.68,-5.52,-8.29,-1.63,85,235,10.101853370666504,9.969143867492676
26,-0.4882067143917084,-2.1651391983032227,-0.004257339984178543,36.7152488,3.1825473,51.19,-5.51,-8.29,-1.62,85,235,10.093565940856934,9.961711883544922
27,-0.4247753620147705,-2.1637380123138428,0.018297869712114334,36.7151614,3.1823842,54.11,-5.5,-8.3,-1.63,84,236,10.099010467529297,9.965066909790039
28,-0.4537944495677948,-2.1635208129882812,-0.02904657833278179,36.7150869,3.1822441,56.61,-5.52,-8.29,-1.63,84,236,10.09664535522461,9.9638032913208
29,-0.23518075048923492,-2.1682229042053223,0.032286763191223145,36.7150037,3.1820898,59.41,-4.74,-7.03,-1.4,83,235,8.599360466003418,8.48404598236084
30,-0.05034420266747475,-2.163115978240967,-0.016333717852830887,36.7149507,3.1819909,61.1,-3.08,-4.67,-0.74,83,236,5.649599075317383,5.600905895233154
31,-0.15114973485469818,-2.1237943172454834,0.04226328060030937,36.7149163,3.181923,61.78,-2.22,-3.7,-0.2,83,238,4.327176094055176,4.322315692901611
32,-0.17548520863056183,-2.1016790866851807,-0.01859673485159874,36.7148831,3.1818516,61.87,-2.08,-3.68,0.0,82,239,4.230212211608887,4.230205059051514
33,-0.0041849128901958466,-2.1030097007751465,0.02529096230864525,36.7148557,3.181792,61.87,-1.81,-3.19,0.0,82,239,3.6749870777130127,3.6749825477600098
34,0.000775548571255058,-2.3168232440948486,-0.03318921849131584,36.7148328,3.1817474,61.03,-1.2,-1.39,1.13,82,227,2.1623566150665283,1.841827392578125
35,-0.009858268313109875,-2.481419324874878,-0.013787984848022461,36.7148178,3.1817309,58.81,-1.03,-0.79,1.45,81,217,1.959954857826233,1.3082891702651978
36,-0.06021636724472046,-2.4727370738983154,0.016629956662654877,36.7148038,3.1817178,56.56,-1.03,-0.82,1.41,81,218,1.9430737495422363,1.32931649684906
37,-0.04404342174530029,-2.4700253009796143,-0.023957988247275352,36.7147871,3.1817014,53.96,-1.06,-0.87,1.43,80,218,1.993295431137085,1.3792301416397095
38,-0.03135835379362106,-2.469712734222412,0.031467027962207794,36.7147726,3.1816869,51.72,-1.06,-0.87,1.44,80,218,1.9985018968582153,1.3809375762939453
39,-0.06499694287776947,-2.469062089920044,0.0015749105950817466,36.7147557,3.1816699,49.1,-1.07,-0.88,1.44,80,218,2.0086586475372314,1.3913213014602661
40,-0.010121039114892483,-2.469409942626953,-0.0021254573948681355,36.7147411,3.1816552,46.86,-1.07,-0.89,1.46,79,218,2.0240275859832764,1.3991246223449707
41,-0.060994699597358704,-2.469636917114258,0.002193308202549815,36.7147265,3.1816405,44.61,-1.06,-0.88,1.46,79,218,2.018507242202759,1.387367844581604
42,-0.033650606870651245,-2.469738245010376,-0.02032521367073059,36.7147094,3.1816234,41.99,-1.07,-0.89,1.46,79,218,2.023453950881958,1.3963209390640259
43,-0.043218158185482025,-2.469383716583252,0.02653908170759678,36.7146949,3.1816087,39.75,-1.05,-0.88,1.47,78,218,2.0169389247894287,1.3797316551208496
44,-0.06463722884654999,-2.4695544242858887,-0.002234056359156966,36.714678,3.1815915,37.12,-1.06,-0.88,1.47,78,218,2.025362968444824,1.3848193883895874
45,-0.01124012190848589,-2.469212055206299,0.012089522555470467,36.7146634,3.1815768,34.87,-1.07,-0.88,1.47,78,218,2.0270323753356934,1.393605351448059
46,-0.05771247297525406,-2.4697437286376953,-0.005884237587451935,36.7146487,3.181562,32.62,-1.06,-0.89,1.47,77,218,2.0267364978790283,1.3906363248825073
47,-0.023493343964219093,-2.469447612762451,-0.024904746562242508,36.7146316,3.1815448,30.0,-1.06,-0.88,1.48,77,218,2.025805711746216,1.3828884363174438
48,-0.044978976249694824,-2.469498634338379,0.0280544925481081,36.7146171,3.1815301,27.75,-1.05,-0.88,1.47,76,218,2.0171916484832764,1.3734922409057617
49,-0.016259348019957542,-2.469838857650757,-0.01851947046816349,36.7146026,3.1815155,25.49,-1.06,-0.88,1.47,76,218,2.0193557739257812,1.3833876848220825
50,-0.0771021693944931,-2.9259893894195557,-0.08243530988693237,36.7145832,3.1815001,22.92,-1.65,-0.41,1.28,76,192,2.137439250946045,1.7053080797195435
51,-0.25786566734313965,2.67387056350708,-0.047215793281793594,36.7145508,3.1815082,21.88,-3.19,1.44,0.06,75,153,3.504451274871826,3.503878593444824
52,-0.14882661402225494,2.6724445819854736,-0.01830114983022213,36.7144915,3.1815448,21.98,-4.01,2.05,0.0,75,153,4.510300636291504,4.510296821594238
53,-0.05032988637685776,2.867394208908081,0.17103704810142517,36.7144382,3.1815748,21.94,-3.66,1.01,0.05,75,164,3.798227310180664,3.797802448272705
54,-0.3827154338359833,-2.2297730445861816,0.1090955138206482,36.7143876,3.1815559,21.91,-2.95,-3.34,0.02,74,232,4.457407474517822,4.457361698150635
55,-0.4792746603488922,-2.139569044113159,0.03152928128838539,36.714342,3.1814722,21.91,-4.02,-6.4,0.01,74,237,7.566953659057617,7.566943168640137
56,-0.47425124049186707,-2.1486213207244873,-0.026415623724460602,36.7142697,3.1813299,21.92,-4.93,-7.7,0.0,73,236,9.152886390686035,9.152885437011719
57,-0.35619214177131653,-2.152498245239258,0.027236271649599075,36.714203,3.1812008,21.94,-4.75,-7.32,0.0,73,236,8.734636306762695,8.734634399414062
58,-0.2140161693096161,-2.148317813873291,6.191447755554691e-05,36.7141438,3.1810866,21.94,-3.95,-6.18,0.02,73,236,7.340465068817139,7.340404510498047
59,-0.2731807231903076,-2.122688055038452,0.04252473637461662,36.7140869,3.1809721,21.92,-3.4,-5.68,0.01,72,238,6.62566614151001,6.6256422996521
60,-0.26391786336898804,-2.108875036239624,-0.01986703649163246,36.7140418,3.1808769,21.92,-3.27,-5.63,0.01,72,239,6.519888401031494,6.519879341125488
61,-0.16738036274909973,-2.1080093383789062,0.03085150010883808,36.7139904,3.1807669,21.92,-3.09,-5.34,0.0,71,239,6.176529884338379,6.176529407501221
62,0.1038942039012909,-2.1088175773620605,-0.026450088247656822,36.713955,3.1806912,21.9,-1.91,-3.3,0.04,71,239,3.8186235427856445,3.818405866622925
63,0.1391771137714386,-2.1092355251312256,0.02766912244260311,36.7139403,3.1806598,21.89,-0.35,-0.61,-0.02,71,239,0.7119659781455994,0.711648166179657
64,-0.03068237379193306,-2.110193967819214,0.041631728410720825,36.7139402,3.1806593,21.89,0.15,0.12,0.03,70,239,0.20461738109588623,0.20105285942554474
