timestamp,pitch,yaw,roll,lat,lon,alt,velocity_x,velocity_y,velocity_z,battery,heading,airspeed,groundspeed
0,0.012578056193888187,-0.046816956251859665,-0.02295226976275444,36.7156066,3.1846299,19.44,-0.02,0.02,0.05,96,357,0.06452182680368423,0.03649181127548218
1,-0.056867815554142,-0.05266021937131882,0.11404123157262802,36.7156076,3.1846318,19.4,0.26,0.46,0.0,95,356,0.5337496995925903,0.5337204933166504
2,-0.22559921443462372,1.4791748523712158,-0.09717926383018494,36.7156215,3.1846577,19.36,1.62,2.41,-0.03,95,84,2.9118118286132812,2.911649465560913
3,-0.14847031235694885,0.836940348148346,-0.012353585101664066,36.7156488,3.1847079,19.41,2.25,3.34,-0.04,95,47,4.038839340209961,4.0385918617248535
4,0.06426031142473221,0.9503659009933472,0.024738699197769165,36.7156843,3.1847724,19.45,1.94,2.79,-0.02,94,54,3.40191388130188,3.4018352031707764
5,0.340335875749588,0.9078873991966248,-0.040222518146038055,36.7156969,3.1847937,19.45,-0.49,-0.75,0.0,94,52,0.9027723073959351,0.9027337431907654
6,-0.0031978427432477474,-0.7866414785385132,-0.16975392401218414,36.7156768,3.1847566,19.48,-2.16,-3.11,-0.03,93,314,3.7923331260681152,3.792191982269287
7,-0.09233833849430084,-2.4102625846862793,0.08508007973432541,36.7156415,3.1846923,19.48,-2.17,-3.27,0.01,93,221,3.9290034770965576,3.9289815425872803
8,-0.04237379506230354,-1.5906251668930054,0.18887333571910858,36.7156233,3.1846386,19.46,-0.16,-2.93,0.01,93,268,2.938351631164551,2.9383280277252197
9,-0.3870014250278473,-0.6501094102859497,0.08084364235401154,36.7156557,3.1845817,19.46,4.22,-3.19,0.0,92,322,5.295165538787842,5.295164108276367
10,-0.5271761417388916,-0.6235588192939758,-0.013914761133491993,36.7157319,3.184515,19.46,6.79,-4.69,0.0,92,324,8.259671211242676,8.25966739654541
11,-0.5136545896530151,-0.6154671907424927,0.02019091509282589,36.7158325,3.1844283,19.48,7.87,-5.47,0.0,91,324,9.588001251220703,9.587998390197754
12,-0.3716335594654083,-0.6206532120704651,-0.02428579144179821,36.7159563,3.1843194,19.5,7.56,-5.36,-0.02,91,324,9.277308464050293,9.277280807495117
13,-0.10187866538763046,-0.6227011680603027,-0.001736110425554216,36.716048,3.1842384,19.53,5.59,-3.97,0.03,91,324,6.866113662719727,6.865999221801758
14,-0.006272251717746258,-1.1967917680740356,-0.3006351888179779,36.7161042,3.1841747,19.65,1.08,-2.86,-0.26,90,291,3.0780413150787354,3.0667574405670166
15,-0.3813307285308838,-2.128675937652588,-0.04585284739732742,36.7160912,3.1841175,20.54,-2.8,-4.32,-0.88,90,238,5.228349208831787,5.152374267578125
16,-0.44817858934402466,-2.16203236579895,-0.023222262039780617,36.7160378,3.1840234,22.33,-4.75,-6.8,-1.42,89,236,8.425793647766113,8.304856300354004
17,-0.49214231967926025,-2.164483070373535,0.02181197702884674,36.7159541,3.1838735,25.11,-5.55,-8.03,-1.6,89,235,9.897972106933594,9.766566276550293
18,-0.435051828622818,-2.1649956703186035,0.032497670501470566,36.7158789,3.183736,27.58,-5.54,-8.2,-1.57,88,235,10.030193328857422,9.90584659576416
19,-0.480819433927536,-2.1638619899749756,-0.018319273367524147,36.7157913,3.1835729,30.44,-5.53,-8.26,-1.59,88,236,10.072649002075195,9.945964813232422
20,-0.4751516878604889,-2.167950391769409,0.03561357408761978,36.7157161,3.1834336,32.92,-5.53,-8.22,-1.6,88,235,10.044214248657227,9.91489315032959
21,-0.43893563747406006,-2.1644017696380615,0.0315215177834034,36.7156414,3.1832946,35.41,-5.52,-8.27,-1.6,87,235,10.0754976272583,9.946365356445312
22,-0.4878760576248169,-2.164175510406494,-0.019808882847428322,36.7155543,3.1831313,38.32,-5.51,-8.29,-1.6,87,236,10.092720031738281,9.963517189025879
23,-0.4713716208934784,-2.1646108627319336,0.036623772233724594,36.7154795,3.1829913,40.81,-5.51,-8.27,-1.63,86,235,10.073041915893555,9.939981460571289
24,-0.4437437653541565,-2.164165496826172,-0.021683242172002792,36.7153926,3.1828289,43.73,-5.52,-8.29,-1.62,86,236,10.095756530761719,9.96378231048584
25,-0.4932391345500946,-2.1659672260284424,-0.0037818250712007284,36.7153177,3.1826891,46.24,-5.54,-8.29,-1.62,85,235,10.103707313537598,9.971794128417969
26,-0.43964454531669617,-2.1645455360412598,0.031638745218515396,36.7152302,3.1825255,49.15,-5.52,-8.29,-1.64,85,235,10.096357345581055,9.961697578430176
27,-0.44188031554222107,-2.165379524230957,-0.02537907101213932,36.7151555,3.1823855,51.66,-5.51,-8.27,-1.64,84,235,10.080556869506836,9.945962905883789
28,-0.4956418573856354,-2.163229465484619,-0.006482437252998352,36.7150813,3.1822463,54.16,-5.51,-8.3,-1.63,84,236,10.101278305053711,9.968633651733398
29,-0.21648800373077393,-2.1693992614746094,0.010852858424186707,36.7149975,3.1820912,56.95,-4.76,-7.04,-1.41,83,235,8.622344970703125,8.504663467407227
30,-0.08200990408658981,-2.163283109664917,-0.015710843726992607,36.7149445,3.1819923,58.66,-3.07,-4.68,-0.75,83,236,5.652437210083008,5.602236270904541
31,-0.11807772517204285,-2.1161956787109375,0.0053864736109972,36.7149054,3.181914,59.4,-2.19,-3.7,-0.14,83,238,4.337278842926025,4.332547664642334
32,-0.18373249471187592,-2.1011250019073486,0.00013615570787806064,36.7148768,3.1818524,59.45,-2.08,-3.68,0.0,82,239,4.228839874267578,4.228837013244629
33,0.006987407337874174,-2.1023383140563965,0.011614341288805008,36.7148494,3.1817928,59.44,-1.81,-3.18,0.01,82,239,3.6679437160491943,3.667921781539917
34,0.004584250506013632,-2.3146629333496094,-0.025455711409449577,36.7148265,3.1817484,58.61,-1.2,-1.4,1.12,82,227,2.1708381175994873,1.8554260730743408
35,-0.01328402478247881,-2.4822235107421875,-0.01786053739488125,36.7148115,3.1817316,56.4,-1.03,-0.8,1.46,81,217,1.9662644863128662,1.315324068069458
36,-0.02124393917620182,-2.471372127532959,0.02646072953939438,36.7147951,3.1817162,53.79,-1.03,-0.83,1.43,81,218,1.9539480209350586,1.3277137279510498
37,-0.04622608423233032,-2.4706759452819824,-0.022513555362820625,36.7147808,3.1817022,51.54,-1.06,-0.87,1.43,81,218,1.9923312664031982,1.3795597553253174
38,-0.032269757241010666,-2.469987392425537,0.027979066595435143,36.7147663,3.1816877,49.3,-1.06,-0.87,1.44,80,218,1.9981310367584229,1.379773736000061
39,-0.059336524456739426,-2.4695215225219727,-0.004158233292400837,36.7147493,3.1816706,46.69,-1.06,-0.89,1.46,80,218,2.013843536376953,1.3865375518798828
40,-0.013336150906980038,-2.469489097595215,0.010230869054794312,36.7147348,3.181656,44.45,-1.06,-0.87,1.46,79,218,2.0122461318969727,1.3788725137710571
41,-0.05002310872077942,-2.470141887664795,0.02900993451476097,36.7147178,3.1816389,41.82,-1.06,-0.89,1.46,79,218,2.02327561378479,1.3955068588256836
42,-0.019734729081392288,-2.4705684185028076,-0.01910768635571003,36.7147032,3.1816241,39.58,-1.06,-0.88,1.47,79,218,2.0255825519561768,1.3871749639511108
43,-0.06186244636774063,-2.469705581665039,0.011740537360310555,36.7146886,3.1816094,37.33,-1.06,-0.88,1.47,78,218,2.0246095657348633,1.383387565612793
44,-0.0483572855591774,-2.4698002338409424,-0.02217218093574047,36.7146716,3.1815923,34.71,-1.07,-0.89,1.47,78,218,2.031303644180298,1.3973406553268433
45,-0.032690245658159256,-2.4697163105010986,0.028853634372353554,36.714657,3.1815776,32.46,-1.06,-0.88,1.48,78,218,2.0275254249572754,1.385313630104065
46,-0.06084596738219261,-2.4698946475982666,0.001570908585563302,36.71464,3.1815604,29.84,-1.06,-0.89,1.47,77,218,2.029668092727661,1.3895235061645508
47,-0.012554410845041275,-2.4699578285217285,0.005938096437603235,36.7146254,3.1815457,27.58,-1.06,-0.87,1.47,77,218,2.020233631134033,1.3824199438095093
48,-0.05403459817171097,-2.4700679779052734,0.02582036703824997,36.7146084,3.1815286,24.96,-1.06,-0.89,1.47,76,218,2.024831771850586,1.386251449584961
49,-0.01809484139084816,-2.4697165489196777,-0.021033989265561104,36.7145938,3.1815138,22.71,-1.05,-0.88,1.48,76,218,2.0215342044830322,1.376551628112793
50,-0.12324371188879013,-2.910818338394165,-0.07801258563995361,36.714577,3.1815009,20.5,-1.64,-0.44,1.29,76,193,2.137873411178589,1.7044174671173096
51,-0.2530675232410431,2.6747381687164307,-0.044244274497032166,36.7145372,3.1815128,19.45,-3.44,1.64,-0.02,75,153,3.814038038253784,3.8139538764953613
52,-0.16469871997833252,2.6798202991485596,0.023657839745283127,36.7144846,3.181545,19.55,-4.05,2.02,0.0,75,153,4.533395290374756,4.533388614654541
53,-0.041332170367240906,2.8560495376586914,0.11550582945346832,36.7144306,3.1815751,19.51,-3.72,1.08,0.06,75,163,3.8764491081237793,3.875962495803833
54,-0.33404359221458435,-2.2383828163146973,0.14795809984207153,36.7143794,3.1815585,19.48,-2.95,-3.19,0.02,74,231,4.355774879455566,4.355716228485107
55,-0.49744555354118347,-2.14076566696167,-0.019399572163820267,36.7143338,3.181476,19.48,-3.99,-6.35,0.01,74,237,7.508608341217041,7.508592128753662
56,-0.4332523047924042,-2.1475324630737305,0.018930720165371895,36.7142622,3.1813347,19.49,-4.89,-7.68,0.0,73,236,9.106268882751465,9.106268882751465
57,-0.3541850447654724,-2.15205454826355,-0.02951606921851635,36.7141957,3.1812058,19.51,-4.8,-7.41,0.0,73,236,8.834811210632324,8.834809303283691
58,-0.22026316821575165,-2.144338607788086,0.03967885673046112,36.714127,3.1810731,19.51,-3.82,-6.02,0.02,73,237,7.137580871582031,7.1375226974487305
59,-0.2693079710006714,-2.1174378395080566,-0.012693602591753006,36.7140791,3.1809757,19.48,-3.36,-5.66,0.01,72,238,6.589587688446045,6.589561462402344
60,-0.30905044078826904,-2.1013078689575195,0.02409152314066887,36.714035,3.180881,19.49,-3.21,-5.64,0.01,72,239,6.49653959274292,6.496530532836914
61,-0.1862775981426239,-2.1004185676574707,-0.02604650892317295,36.7139844,3.1807704,19.49,-3.08,-5.39,0.0,71,239,6.213050365447998,6.213050365447998
62,0.09934476017951965,-2.1008901596069336,0.030680306255817413,36.713949,3.1806935,19.47,-1.92,-3.37,0.03,71,239,3.883025646209717,3.8828213214874268
63,0.08742363005876541,-2.100192070007324,-0.010962571017444134,36.7139335,3.1806595,19.47,-0.21,-0.39,-0.02,71,239,0.45064130425453186,0.4500993490219116
64,0.02562837116420269,-2.1000263690948486,0.04522019252181053,36.7139338,3.1806599,19.46,0.14,0.13,0.03,70,239,0.1996944546699524,0.19628337025642395
