timestamp,pitch,yaw,roll,lat,lon,alt,velocity_x,velocity_y,velocity_z,battery,heading,airspeed,groundspeed
0,0.01879187859594822,0.04071229323744774,0.02367365173995495,36.7156066,3.1846299,21.8,-0.03,0.02,-0.04,96,2,0.06592534482479095,0.04527318477630615
1,-0.0916464701294899,0.04032721742987633,0.08016178011894226,36.7156078,3.1846325,21.76,0.34,0.58,-0.03,95,2,0.683447539806366,0.6824856400489807
2,-0.1845802217721939,1.4121465682983398,-0.09058376401662827,36.7156206,3.1846557,21.79,1.58,2.39,-0.04,95,80,2.872744560241699,2.8723862171173096
3,-0.14309267699718475,0.9659539461135864,0.014579864218831062,36.7156529,3.1847171,21.8,2.32,3.54,-0.01,95,55,4.240828514099121,4.240784168243408
4,-0.011937100440263748,0.96352219581604,-0.02526051364839077,36.7156844,3.1847756,21.8,2.12,3.12,0.0,94,55,3.778838872909546,3.778832197189331
5,0.37427660822868347,1.0077548027038574,-0.0027112108655273914,36.7157002,3.184803,21.82,-0.64,-0.99,-0.02,94,57,1.1866135597229004,1.186425805091858
6,-0.053251963108778,2.765327215194702,0.21693630516529083,36.7156788,3.1847641,21.8,-2.17,-3.1,0.05,93,158,3.790440082550049,3.7900550365448
7,-0.1089576706290245,-2.0366203784942627,-0.027585690841078758,36.7156485,3.1847086,21.84,-2.22,-3.3,-0.03,93,243,3.9841091632843018,3.98396372795105
8,0.0004947404959239066,-1.6053653955459595,0.21531130373477936,36.7156262,3.1846459,21.79,-0.02,-2.9,0.02,93,268,2.9046785831451416,2.90460467338562
9,-0.4101543128490448,-0.6661072373390198,0.10897194594144821,36.7156517,3.1845979,21.79,3.79,-3.05,0.0,92,321,4.871809005737305,4.8718037605285645
10,-0.504346489906311,-0.6261193752288818,-0.01762615330517292,36.7157379,3.1845218,21.79,6.87,-4.74,0.0,92,324,8.357623100280762,8.357620239257812
11,-0.5293475389480591,-0.618258535861969,0.007089671213179827,36.7158393,3.1844344,21.81,7.85,-5.47,0.0,91,324,9.57237720489502,9.572376251220703
12,-0.3931727707386017,-0.6189699769020081,0.027168244123458862,36.7159461,3.1843409,21.82,7.69,-5.45,-0.02,91,324,9.429422378540039,9.42938232421875
13,-0.09503167867660522,-0.6225693821907043,-0.01440134271979332,36.7160538,3.184246,21.85,5.51,-3.93,0.04,91,324,6.773192882537842,6.773070812225342
14,0.08877275139093399,-1.0477533340454102,-0.25469905138015747,36.716105,3.1841908,21.93,1.68,-2.89,-0.19,90,299,3.359020471572876,3.3531081676483154
15,-0.3915434777736664,-2.1311111450195312,-0.04177446663379669,36.716093,3.1841245,22.91,-2.89,-4.38,-0.9,90,237,5.336040019989014,5.258028984069824
16,-0.4530060291290283,-2.1605305671691895,-0.024603301659226418,36.7160388,3.1840292,24.73,-4.8,-6.89,-1.43,89,236,8.520527839660645,8.398473739624023
17,-0.49102339148521423,-2.163106679916382,-0.01118556596338749,36.7159673,3.1839011,27.1,-5.53,-8.02,-1.6,89,236,9.8812894821167,9.749341011047363
18,-0.42897918820381165,-2.1629905700683594,0.013072595931589603,36.7158796,3.1837409,29.98,-5.54,-8.21,-1.58,88,236,10.03604507446289,9.910594940185547
19,-0.4635295271873474,-2.162689685821533,-0.029218848794698715,36.7158045,3.1836013,32.44,-5.53,-8.24,-1.58,88,236,10.056478500366211,9.930464744567871
20,-0.4534922242164612,-2.1667213439941406,0.041135791689157486,36.7157168,3.1834385,35.33,-5.51,-8.22,-1.6,87,235,10.03004264831543,9.900365829467773
21,-0.41496384143829346,-2.163865089416504,-0.007435203529894352,36.7156422,3.1832993,37.82,-5.5,-8.24,-1.61,87,236,10.042672157287598,9.912217140197754
22,-0.4838182330131531,-2.163235902786255,-0.02103104069828987,36.7155678,3.1831601,40.31,-5.51,-8.31,-1.61,87,236,10.110050201416016,9.980338096618652
23,-0.48434972763061523,-2.165410041809082,0.0343470573425293,36.7154932,3.1830205,42.81,-5.5,-8.27,-1.61,86,235,10.065726280212402,9.934578895568848
24,-0.4356004595756531,-2.162763833999634,-0.027009794488549232,36.7154058,3.1828566,45.72,-5.51,-8.27,-1.63,86,236,10.080437660217285,9.947433471679688
25,-0.47189176082611084,-2.167574405670166,0.04021218419075012,36.7153184,3.1826939,48.62,-5.55,-8.28,-1.65,85,235,10.111749649047852,9.97619342803955
26,-0.42226460576057434,-2.163754463195801,0.013774141669273376,36.7152437,3.1825542,51.14,-5.5,-8.3,-1.64,85,236,10.101097106933594,9.966141700744629
27,-0.491506427526474,-2.163881301879883,0.009674119763076305,36.7151567,3.1823911,54.06,-5.51,-8.31,-1.63,84,236,10.111682891845703,9.97852897644043
28,-0.4531078636646271,-2.16528058052063,0.04149510711431503,36.715082,3.1822513,56.57,-5.51,-8.27,-1.63,84,235,10.073760032653809,9.93975830078125
29,-0.25768181681632996,-2.1682116985321045,-0.017039606347680092,36.7150098,3.182117,58.99,-4.92,-7.3,-1.47,83,235,8.933904647827148,8.8118257522583
30,-0.07209821790456772,-2.162925958633423,0.03468623384833336,36.7149465,3.1819992,61.03,-3.05,-4.62,-0.72,83,236,5.590612888336182,5.543075084686279
31,-0.137644961476326,-2.1224875450134277,-0.012349874712526798,36.7149123,3.1819318,61.69,-2.21,-3.7,-0.19,83,238,4.32276725769043,4.318413734436035
32,-0.13386093080043793,-2.101949453353882,0.017388038337230682,36.7148792,3.1818605,61.77,-2.06,-3.67,0.0,82,239,4.2132182121276855,4.213212490081787
33,-0.04014623910188675,-2.10312557220459,-0.014057845808565617,36.714852,3.1818009,61.77,-1.78,-3.17,0.02,82,239,3.640636444091797,3.640576124191284
34,0.03842758759856224,-2.2647106647491455,-0.03176324814558029,36.714832,3.1817613,61.16,-1.23,-1.57,0.94,82,230,2.2172858715057373,2.003739833831787
35,-0.04774006828665733,-2.4802470207214355,0.02324780449271202,36.7148142,3.1817408,58.67,-1.03,-0.79,1.46,81,217,1.9595530033111572,1.302897572517395
36,-0.020215073600411415,-2.472222328186035,-0.020257586613297462,36.7148003,3.1817278,56.42,-1.04,-0.81,1.42,81,218,1.947564959526062,1.3238481283187866
37,-0.017634129151701927,-2.4696977138519287,0.02199910394847393,36.7147836,3.1817114,53.8,-1.06,-0.87,1.43,80,218,1.9921977519989014,1.3774819374084473
38,-0.05646703019738197,-2.469531774520874,-0.018520334735512733,36.7147691,3.1816967,51.56,-1.07,-0.89,1.44,80,218,2.0114493370056152,1.402187466621399
39,-0.015768064185976982,-2.469261646270752,0.018780307844281197,36.7147546,3.1816821,49.32,-1.07,-0.88,1.45,80,218,2.013333320617676,1.394891619682312
40,-0.055064164102077484,-2.4700255393981934,0.022250214591622353,36.7147375,3.1816651,46.71,-1.07,-0.88,1.46,79,218,2.0180163383483887,1.3913168907165527
41,-0.014024526812136173,-2.4698355197906494,-0.01375321950763464,36.7147229,3.1816504,44.46,-1.06,-0.88,1.46,79,218,2.018260955810547,1.3856780529022217
42,-0.01978723332285881,-2.4697463512420654,0.0224720798432827,36.714706,3.1816333,41.85,-1.06,-0.89,1.48,79,218,2.0305845737457275,1.3899767398834229
43,-0.04121283069252968,-2.46899151802063,-0.025531619787216187,36.7146914,3.1816184,39.6,-1.07,-0.89,1.47,78,218,2.0343875885009766,1.3965076208114624
44,-0.01742885634303093,-2.4691321849823,0.02360394597053528,36.7146768,3.1816037,37.35,-1.07,-0.88,1.47,78,218,2.0273313522338867,1.3878452777862549
45,-0.06113863363862038,-2.469674587249756,0.01264540571719408,36.7146598,3.1815866,34.72,-1.06,-0.88,1.47,78,218,2.0253686904907227,1.3850045204162598
46,-0.012707918882369995,-2.4701735973358154,-0.008941615000367165,36.7146452,3.1815719,32.47,-1.06,-0.87,1.47,77,218,2.0223278999328613,1.3797671794891357
47,-0.029192788526415825,-2.4693779945373535,0.023392291739583015,36.7146282,3.1815547,29.85,-1.06,-0.88,1.47,77,218,2.0223333835601807,1.3855894804000854
48,-0.04533926025032997,-2.4693779945373535,-0.024293869733810425,36.7146136,3.18154,27.6,-1.07,-0.89,1.47,76,218,2.0278549194335938,1.3929624557495117
49,-0.011556536890566349,-2.469548463821411,-0.011478651314973831,36.7145966,3.1815228,24.97,-1.07,-0.87,1.47,76,218,2.0243728160858154,1.3852429389953613
50,-0.13315410912036896,-2.94492506980896,-0.09179366379976273,36.7145794,3.1815102,22.78,-1.67,-0.38,1.26,76,191,2.1397972106933594,1.7232997417449951
51,-0.20397686958312988,2.6696932315826416,-0.03786567226052284,36.7145466,3.1815192,21.79,-3.22,1.47,0.05,75,152,3.5472733974456787,3.546847343444824
52,-0.1657140552997589,2.67240047454834,0.02653183974325657,36.714487,3.1815559,21.88,-4.02,2.04,0.0,75,153,4.511873245239258,4.511873245239258
53,-0.04119839519262314,2.8837831020355225,0.12155845016241074,36.7144339,3.1815853,21.84,-3.66,0.94,0.05,75,165,3.787419557571411,3.78696608543396
54,-0.3447788655757904,-2.2193515300750732,0.12803655862808228,36.7143834,3.1815648,21.81,-2.97,-3.39,0.02,74,232,4.514480113983154,4.514431476593018
55,-0.5067143440246582,-2.145763874053955,-0.012107795104384422,36.7143365,3.1814797,21.81,-4.1,-6.42,0.01,74,237,7.625646114349365,7.625629901885986
56,-0.47268444299697876,-2.1524739265441895,0.032129764556884766,36.7142747,3.1813591,21.82,-4.9,-7.65,0.0,73,236,9.094972610473633,9.094972610473633
57,-0.36693909764289856,-2.1562702655792236,-0.023873165249824524,36.7141967,3.1812092,21.84,-4.8,-7.34,0.0,73,236,8.780957221984863,8.78095531463623
58,-0.24915844202041626,-2.1511993408203125,0.04057202860713005,36.7141371,3.1810951,21.84,-3.94,-6.12,0.02,73,236,7.2879252433776855,7.287872314453125
59,-0.29388856887817383,-2.117783308029175,-0.0018296597991138697,36.7140803,3.1809811,21.81,-3.36,-5.66,0.01,72,238,6.587343692779541,6.587330341339111
60,-0.2656440734863281,-2.1001288890838623,0.03772348165512085,36.7140361,3.180886,21.81,-3.21,-5.64,0.0,72,239,6.493474006652832,6.493470191955566
61,-0.21058185398578644,-2.100069522857666,-0.0271915215998888,36.7139927,3.1807911,21.81,-3.13,-5.51,0.0,71,239,6.349836349487305,6.3498358726501465
62,0.14690464735031128,-2.1009697914123535,0.005187475588172674,36.713951,3.1807006,21.8,-1.86,-3.23,0.03,71,239,3.7318508625030518,3.7316436767578125
63,0.09777922183275223,-2.100475549697876,-0.004908262751996517,36.7139371,3.18067,21.79,-0.33,-0.6,-0.02,71,239,0.692405104637146,0.6920136213302612
64,0.025922544300556183,-2.0996148586273193,0.023894602432847023,36.7139368,3.180669,21.79,0.11,0.15,0.02,70,239,0.1978287547826767,0.1956886649131775
