timestamp,pitch,yaw,roll,lat,lon,alt,velocity_x,velocity_y,velocity_z,battery,heading,airspeed,groundspeed
0,-0.015584501437842846,0.0018361081602051854,0.01907454989850521,36.7156066,3.1846299,22.87,-0.03,0.03,-0.11,96,0,0.12406247109174728,0.04335588216781616
1,-0.05476950854063034,0.009603673592209816,0.07779645919799805,36.7156079,3.1846327,22.89,0.33,0.6,-0.05,95,0,0.693096399307251,0.6911468505859375
2,-0.19843091070652008,1.4987690448760986,-0.07108742743730545,36.7156199,3.184657,22.92,1.51,2.48,-0.04,95,85,2.9130542278289795,2.912722587585449
3,-0.16266444325447083,0.9483160376548767,0.031246427446603775,36.7156504,3.1847193,22.92,2.13,3.53,-0.01,95,54,4.131900787353516,4.13188362121582
4,0.060085397213697433,0.9927067160606384,-0.02280615083873272,36.7156791,3.1847769,22.9,1.82,2.93,0.0,94,56,3.4591588973999023,3.4591591358184814
5,0.34705594182014465,1.290129542350769,0.14626897871494293,36.715691,3.1848005,22.92,-0.52,-0.7,-0.02,94,73,0.8817131519317627,0.8813409805297852
6,-0.10867645591497421,3.1205735206604004,0.13194811344146729,36.7156657,3.184755,22.89,-2.23,-3.19,0.04,93,178,3.899878740310669,3.8995933532714844
7,-0.07899557054042816,-1.9266376495361328,0.0062369126826524734,36.7156354,3.1846989,22.93,-2.19,-3.24,-0.02,93,249,3.912531614303589,3.9124748706817627
8,-0.07371801137924194,-1.4199861288070679,0.28694191575050354,36.7156168,3.1846375,22.89,0.39,-2.83,0.01,93,278,2.866075277328491,2.866016149520874
9,-0.4288986623287201,-0.6527611017227173,0.04582158476114273,36.7156481,3.1845889,22.89,4.17,-3.22,0.0,92,322,5.269991397857666,5.269988536834717
10,-0.4839000999927521,-0.6273955702781677,0.0225667767226696,36.7157391,3.1845087,22.89,7.03,-4.91,-0.01,92,324,8.585450172424316,8.585437774658203
11,-0.4862156808376312,-0.6213297247886658,-0.03090701438486576,36.7158415,3.1844195,22.91,7.88,-5.54,0.0,91,324,9.640972137451172,9.640971183776855
12,-0.4062725007534027,-0.622291624546051,0.016491010785102844,36.7159477,3.1843259,22.94,7.54,-5.36,-0.02,91,324,9.254173278808594,9.254151344299316
13,-0.02830892987549305,-0.6315587162971497,-0.06599270552396774,36.7160512,3.1842338,22.96,5.04,-3.7,0.05,91,323,6.262321472167969,6.2621026039123535
14,0.010779373347759247,-1.2136634588241577,-0.2507607638835907,36.716095,3.184181,23.09,1.03,-2.89,-0.26,90,290,3.0866665840148926,3.075547695159912
15,-0.4396161139011383,-2.1371469497680664,-0.0476384162902832,36.7160813,3.1841237,23.97,-2.84,-4.37,-0.89,90,237,5.288825511932373,5.213324069976807
16,-0.4515414535999298,-2.162041187286377,0.03536557778716087,36.7160162,3.1840095,26.14,-4.94,-7.16,-1.48,89,236,8.829923629760742,8.703583717346191
17,-0.4404330551624298,-2.163315534591675,-0.031086046248674393,36.7159437,3.1838784,28.56,-5.51,-8.02,-1.6,89,236,9.867748260498047,9.735944747924805
18,-0.4679713547229767,-2.164987564086914,0.03431607037782669,36.7158561,3.1837175,31.44,-5.54,-8.21,-1.57,88,235,10.036930084228516,9.912749290466309
19,-0.4229399561882019,-2.1640117168426514,0.008789772167801857,36.7157807,3.1835778,33.9,-5.54,-8.23,-1.59,88,236,10.05567741394043,9.928834915161133
20,-0.49184900522232056,-2.166790246963501,0.005393721628934145,36.7156935,3.1834155,36.79,-5.51,-8.24,-1.59,87,235,10.045737266540527,9.918149948120117
21,-0.4503861665725708,-2.1625664234161377,0.03302701190114021,36.7156191,3.1832762,39.28,-5.52,-8.29,-1.61,87,236,10.094021797180176,9.964639663696289
22,-0.4322463274002075,-2.1638143062591553,-0.020518383011221886,36.7155441,3.1831361,41.77,-5.53,-8.29,-1.62,87,236,10.105975151062012,9.975188255310059
23,-0.4808827340602875,-2.1648099422454834,0.0337088480591774,36.7154568,3.1829731,44.69,-5.5,-8.26,-1.62,86,235,10.067599296569824,9.936026573181152
24,-0.4259099066257477,-2.1632261276245117,0.02014331892132759,36.7153821,3.1828336,47.19,-5.51,-8.3,-1.62,86,236,10.105794906616211,9.974404335021973
25,-0.4893955588340759,-2.1654717922210693,-0.004106806591153145,36.7152948,3.1826704,50.1,-5.52,-8.29,-1.62,85,235,10.09589672088623,9.963528633117676
26,-0.4544917047023773,-2.1641383171081543,0.03477134555578232,36.71522,3.1825305,52.61,-5.49,-8.27,-1.63,85,236,10.066883087158203,9.932930946350098
27,-0.46591293811798096,-2.1642396450042725,-0.027728145942091942,36.715133,3.1823676,55.54,-5.51,-8.31,-1.62,84,236,10.110564231872559,9.978631019592285
28,-0.4712825417518616,-2.165651798248291,0.017010698094964027,36.7150583,3.1822278,58.04,-5.5,-8.27,-1.62,84,235,10.072355270385742,9.939891815185547
29,-0.2144239842891693,-2.168041467666626,0.01964724250137806,36.7149873,3.1820961,60.41,-4.73,-7.02,-1.41,83,235,8.588034629821777,8.470353126525879
30,-0.0852951928973198,-2.1572492122650146,0.018940042704343796,36.7149279,3.181985,62.28,-2.81,-4.35,-0.63,83,236,5.22607421875,5.187718391418457
31,-0.11417452245950699,-2.104048013687134,0.007623156998306513,36.7148959,3.18192,62.83,-2.12,-3.71,-0.14,83,239,4.283979415893555,4.281543731689453
32,-0.15290385484695435,-2.085911989212036,0.029199613258242607,36.7148641,3.1818481,62.87,-2.0,-3.71,-0.01,82,240,4.22102165222168,4.220983505249023
33,0.005026720464229584,-2.089264154434204,-0.035164300352334976,36.7148384,3.1817898,62.85,-1.63,-2.96,0.07,82,240,3.389876365661621,3.3889858722686768
34,0.013544727116823196,-2.3149192333221436,-0.02641165629029274,36.7148198,3.181754,62.0,-1.19,-1.39,1.14,82,227,2.1654908657073975,1.8383430242538452
35,-0.05889173597097397,-2.4702253341674805,0.0024508910719305277,36.7148025,3.1817354,59.4,-1.03,-0.79,1.43,81,218,1.938880443572998,1.301984429359436
36,-0.011575545184314251,-2.4710519313812256,0.003410754492506385,36.7147885,3.1817222,57.16,-1.05,-0.82,1.41,81,218,1.9518485069274902,1.3395241498947144
37,-0.04066883400082588,-2.4702203273773193,0.029193488880991936,36.7147718,3.1817057,54.55,-1.06,-0.87,1.42,80,218,1.9851830005645752,1.3803092241287231
38,-0.028632333502173424,-2.469923496246338,-0.024007802829146385,36.7147573,3.1816911,52.31,-1.07,-0.88,1.44,80,218,2.006333351135254,1.3953537940979004
39,-0.036860547959804535,-2.469829559326172,0.026996975764632225,36.7147427,3.1816764,50.07,-1.06,-0.87,1.45,80,218,2.0039467811584473,1.3817695379257202
40,-0.06271382421255112,-2.470036268234253,0.00016570596199017018,36.7147257,3.1816594,47.45,-1.07,-0.87,1.45,79,218,2.00869083404541,1.3861066102981567
41,-0.00866145733743906,-2.4698426723480225,0.010729210451245308,36.7147111,3.1816449,45.21,-1.07,-0.88,1.46,79,218,2.0141539573669434,1.3868619203567505
42,-0.03936605155467987,-2.470414161682129,0.028480475768446922,36.7146941,3.1816276,42.59,-1.06,-0.89,1.47,79,218,2.0232064723968506,1.3873679637908936
43,-0.02286430262029171,-2.4696788787841797,-0.024899978190660477,36.7146795,3.1816129,40.34,-1.07,-0.88,1.47,78,218,2.0217061042785645,1.3870645761489868
44,-0.04072004184126854,-2.4700000286102295,0.026506060734391212,36.7146649,3.1815982,38.09,-1.06,-0.88,1.47,78,218,2.0205507278442383,1.3859148025512695
45,-0.06393533200025558,-2.469825029373169,-0.009929767809808254,36.7146479,3.1815811,35.47,-1.07,-0.88,1.47,78,218,2.0307252407073975,1.3931937217712402
46,-0.009001932106912136,-2.469954013824463,0.014847420156002045,36.7146333,3.1815663,33.22,-1.06,-0.87,1.47,77,218,2.0220048427581787,1.3818504810333252
47,-0.04576572775840759,-2.4698691368103027,0.02899736911058426,36.7146163,3.1815492,30.6,-1.05,-0.88,1.47,77,218,2.018329620361328,1.3799399137496948
48,-0.02622591145336628,-2.470065116882324,-0.024573523551225662,36.7146018,3.1815345,28.35,-1.06,-0.88,1.47,76,218,2.0259687900543213,1.3867409229278564
49,-0.048115164041519165,-2.470210075378418,0.02677265927195549,36.7145871,3.1815197,26.1,-1.06,-0.88,1.47,76,218,2.020076274871826,1.3803664445877075
50,-0.1581358015537262,-3.0987815856933594,-0.12295057624578476,36.7145661,3.1815061,23.58,-1.88,-0.15,1.1,76,182,2.1902031898498535,1.8900107145309448
51,-0.20459719002246857,2.674490451812744,-0.017603818327188492,36.71453,3.1815194,22.88,-3.44,1.66,-0.03,75,153,3.8260648250579834,3.825887441635132
52,-0.18437351286411285,2.6791818141937256,0.02130892500281334,36.7144681,3.1815576,22.99,-4.06,2.03,0.03,75,153,4.54676628112793,4.546642780303955
53,-0.015843313187360764,2.979802370071411,0.15789803862571716,36.7144151,3.1815841,22.93,-3.58,0.57,0.05,75,170,3.6316568851470947,3.631218194961548
54,-0.3853410482406616,-2.239163875579834,0.16271691024303436,36.7143722,3.1815641,22.91,-2.94,-3.28,0.02,74,231,4.409271717071533,4.409201145172119
55,-0.49251648783683777,-2.146528482437134,-0.027383549138903618,36.7143174,3.1814622,22.91,-4.22,-6.71,0.01,74,237,7.9301958084106445,7.930186748504639
56,-0.4866582453250885,-2.1480934619903564,0.014346228912472725,36.7142547,3.1813388,22.92,-4.9,-7.67,0.0,73,236,9.110323905944824,9.110323905944824
57,-0.3230119049549103,-2.1521663665771484,-0.027296261861920357,36.7141773,3.1811891,22.95,-4.65,-7.18,0.0,73,236,8.565272331237793,8.565271377563477
58,-0.25596970319747925,-2.1450581550598145,0.033281270414590836,36.7141197,3.1810774,22.94,-3.78,-5.98,0.03,73,237,7.08229398727417,7.0821943283081055
59,-0.2447642832994461,-2.116926908493042,0.0066859424114227295,36.714072,3.1809805,22.92,-3.36,-5.66,0.02,72,238,6.588959217071533,6.588919162750244
60,-0.29554182291030884,-2.0997533798217773,0.034500956535339355,36.7140207,3.1808698,22.92,-3.22,-5.67,0.01,72,239,6.530722141265869,6.530709266662598
61,-0.16520509123802185,-2.1004064083099365,-0.023642918094992638,36.7139773,3.180775,22.92,-3.07,-5.39,0.0,71,239,6.204763412475586,6.204761981964111
62,0.1779583841562271,-2.100632667541504,0.018295155838131905,36.7139381,3.1806898,22.89,-1.59,-2.77,0.03,71,239,3.204472303390503,3.2042503356933594
63,0.09240387380123138,-2.1003174781799316,-0.019090082496404648,36.7139269,3.1806653,22.9,-0.19,-0.35,-0.01,71,239,0.4083520770072937,0.4078913927078247
64,0.012324274517595768,-2.099320411682129,0.05639052391052246,36.7139275,3.1806662,22.89,0.14,0.12,0.03,70,239,0.19715337455272675,0.19323332607746124
