timestamp,pitch,yaw,roll,lat,lon,alt,velocity_x,velocity_y,velocity_z,battery,heading,airspeed,groundspeed
0,0.022984901443123817,0.005353834014385939,-0.019233744591474533,36.7156066,3.1846299,22.04,0.0,0.02,-0.05,96,0,0.0580875389277935,0.028900105506181717
1,-0.07264858484268188,0.0025070863775908947,0.11751008033752441,36.7156079,3.1846325,22.0,0.34,0.54,-0.03,95,0,0.6433026194572449,0.6421987414360046
2,-0.20896875858306885,1.414085030555725,-0.11924132704734802,36.7156201,3.1846546,22.04,1.54,2.25,-0.04,95,81,2.733839750289917,2.733511209487915
3,-0.1355777531862259,0.9147490859031677,-0.02088056318461895,36.7156522,3.184712,22.04,2.3,3.32,-0.01,95,52,4.041280746459961,4.0412421226501465
4,0.0033494436647742987,0.9374063014984131,0.01519968081265688,36.7156831,3.1847663,22.04,2.0,2.85,0.0,94,53,3.4892055988311768,3.489199638366699
5,0.3132246434688568,0.7021262645721436,-0.09698113054037094,36.715696,3.1847873,22.06,-0.85,-1.28,-0.01,94,40,1.5435304641723633,1.5434393882751465
6,-0.03497031703591347,-1.0117276906967163,-0.13597868382930756,36.7156731,3.1847452,22.03,-2.19,-3.19,0.03,93,302,3.878105878829956,3.877917766571045
7,-0.12304884940385818,-2.4154012203216553,0.04200466722249985,36.7156428,3.1846898,22.09,-2.19,-3.27,-0.01,93,221,3.941967248916626,3.9419448375701904
8,-0.06247875466942787,-1.5045278072357178,0.21970295906066895,36.7156233,3.1846279,22.03,0.27,-2.84,0.02,93,273,2.8564093112945557,2.856314182281494
9,-0.40471261739730835,-0.6569480895996094,0.10958187282085419,36.7156531,3.1845795,22.03,4.07,-3.15,0.0,92,322,5.152563095092773,5.152561187744141
10,-0.525813102722168,-0.6277720332145691,-0.011614544317126274,36.7157431,3.1845005,22.03,7.01,-4.83,0.0,92,324,8.519928932189941,8.51992416381836
11,-0.5081000328063965,-0.6188303828239441,0.02560047246515751,36.7158453,3.1844122,22.05,7.89,-5.48,0.0,91,324,9.609382629394531,9.609381675720215
12,-0.37173885107040405,-0.6193471550941467,0.010445110499858856,36.7159513,3.1843193,22.07,7.63,-5.4,-0.01,91,324,9.353313446044922,9.353293418884277
13,-0.07211910933256149,-0.624635636806488,-0.019833888858556747,36.7160569,3.1842263,22.1,5.25,-3.77,0.04,91,324,6.466470718383789,6.46630859375
14,0.052753180265426636,-1.148989200592041,-0.28483614325523376,36.7161037,3.1841724,22.21,1.29,-2.88,-0.23,90,294,3.168761730194092,3.1597096920013428
15,-0.39994996786117554,-2.13358211517334,-0.030597345903515816,36.7160864,3.1841038,23.28,-3.16,-4.59,-0.96,90,237,5.664421081542969,5.582062244415283
16,-0.4587399959564209,-2.1594791412353516,-0.025987302884459496,36.7160298,3.1840047,25.17,-4.92,-7.05,-1.46,89,236,8.723186492919922,8.59999942779541
17,-0.48814794421195984,-2.1627540588378906,-0.02547619305551052,36.7159575,3.183875,27.57,-5.54,-8.01,-1.6,89,236,9.87094783782959,9.740249633789062
18,-0.427276074886322,-2.1652004718780518,0.023652171716094017,36.7158695,3.1837144,30.44,-5.54,-8.21,-1.58,88,235,10.036169052124023,9.910473823547363
19,-0.4361765682697296,-2.1635921001434326,-0.018282782286405563,36.7157944,3.1835747,32.9,-5.52,-8.24,-1.59,88,236,10.055867195129395,9.929171562194824
20,-0.47255778312683105,-2.1667423248291016,0.03921692818403244,36.7157072,3.1834123,35.79,-5.52,-8.24,-1.6,87,235,10.058117866516113,9.929679870605469
21,-0.42867326736450195,-2.1647591590881348,0.018901553004980087,36.7156326,3.1832732,38.27,-5.53,-8.31,-1.62,87,235,10.118446350097656,9.98716926574707
22,-0.4590702950954437,-2.162975549697876,-0.034188803285360336,36.7155577,3.1831329,40.77,-5.51,-8.28,-1.62,87,236,10.083786964416504,9.951689720153809
23,-0.46011433005332947,-2.16451358795166,0.04204852879047394,36.7154704,3.1829701,43.69,-5.51,-8.27,-1.63,86,235,10.072967529296875,9.940067291259766
24,-0.4221993088722229,-2.1652166843414307,0.006444171071052551,36.7153957,3.1828305,46.19,-5.51,-8.3,-1.63,86,235,10.098809242248535,9.965994834899902
25,-0.4946095049381256,-2.163311719894409,0.007711897138506174,36.7153088,3.1826673,49.1,-5.5,-8.28,-1.63,85,236,10.081887245178223,9.949185371398926
26,-0.45564472675323486,-2.1644668579101562,0.03263504058122635,36.7152339,3.1825275,51.61,-5.52,-8.27,-1.63,85,235,10.082576751708984,9.949007034301758
27,-0.4263669550418854,-2.1649012565612793,-0.007816001772880554,36.7151589,3.1823876,54.12,-5.52,-8.31,-1.63,84,235,10.11363410949707,9.980154991149902
28,-0.4777595102787018,-2.1628451347351074,0.008843690156936646,36.715072,3.1822244,57.04,-5.49,-8.28,-1.63,84,236,10.073613166809082,9.940777778625488
29,-0.23829372227191925,-2.1683428287506104,0.0274155642837286,36.7150008,3.1820924,59.43,-4.83,-7.13,-1.43,83,235,8.738886833190918,8.620586395263672
30,-0.09487215429544449,-2.161020040512085,0.013665028847754002,36.7149399,3.1819786,61.36,-2.94,-4.49,-0.67,83,236,5.416624069213867,5.373867988586426
31,-0.11398734897375107,-2.118288993835449,0.023786509409546852,36.7149065,3.1819121,61.95,-2.21,-3.69,-0.16,83,238,4.314059257507324,4.3108439445495605
32,-0.1723727285861969,-2.101864814758301,-0.01335668470710516,36.7148779,3.1818506,62.02,-2.06,-3.66,0.0,82,239,4.205789566040039,4.205783843994141
33,0.014902095310389996,-2.1041839122772217,-0.025054730474948883,36.7148466,3.1817822,62.0,-1.71,-3.01,0.05,82,239,3.471635103225708,3.4712226390838623
34,-0.0019017519662156701,-2.2974252700805664,-0.030985059216618538,36.7148273,3.1817451,61.26,-1.22,-1.47,1.07,82,228,2.1983563899993896,1.9188605546951294
35,-0.0360640250146389,-2.473910093307495,-0.023548370227217674,36.7148097,3.1817256,58.7,-1.03,-0.8,1.44,81,218,1.9550138711929321,1.3134682178497314
36,-0.02826087363064289,-2.4712977409362793,0.030156338587403297,36.7147957,3.1817124,56.46,-1.03,-0.82,1.43,81,218,1.949162483215332,1.3233047723770142
37,-0.03892378881573677,-2.470308780670166,-0.024992922320961952,36.7147815,3.1816985,54.22,-1.06,-0.87,1.44,81,218,1.995683193206787,1.3791700601577759
38,-0.008115262724459171,-2.4696593284606934,0.004606025293469429,36.7147646,3.1816815,51.61,-1.07,-0.88,1.45,80,218,2.0147693157196045,1.3909534215927124
39,-0.05919865518808365,-2.469233274459839,-0.008515973575413227,36.71475,3.1816668,49.36,-1.07,-0.89,1.46,80,218,2.0217747688293457,1.3968547582626343
40,-0.02440866082906723,-2.469806432723999,-0.021359210833907127,36.714733,3.1816497,46.74,-1.07,-0.87,1.46,79,218,2.0176682472229004,1.38606858253479
41,-0.052331116050481796,-2.469663619995117,0.022775357589125633,36.7147184,3.181635,44.5,-1.06,-0.89,1.46,79,218,2.0245440006256104,1.3925604820251465
42,-0.015410804189741611,-2.469658851623535,-0.019048286601901054,36.7147039,3.1816203,42.25,-1.07,-0.88,1.47,79,218,2.026076316833496,1.3926887512207031
43,-0.03036436066031456,-2.4691646099090576,0.02523527853190899,36.7146869,3.1816031,39.62,-1.06,-0.88,1.47,78,218,2.0209736824035645,1.3864558935165405
44,-0.050036583095788956,-2.4696457386016846,-0.02175622433423996,36.7146723,3.1815884,37.38,-1.07,-0.88,1.47,78,218,2.028425693511963,1.3931487798690796
45,-0.007812530733644962,-2.4694910049438477,-0.004465990234166384,36.7146552,3.1815712,34.76,-1.07,-0.88,1.47,78,218,2.0275869369506836,1.387526273727417
46,-0.06217814236879349,-2.4702000617980957,0.005664867348968983,36.7146406,3.1815565,32.51,-1.07,-0.88,1.47,77,218,2.02923321723938,1.389307975769043
47,-0.011719929985702038,-2.468806266784668,0.01095489040017128,36.7146262,3.1815418,30.27,-1.06,-0.88,1.48,77,218,2.0334644317626953,1.3883178234100342
48,-0.04415443539619446,-2.4695470333099365,0.0263828095048666,36.7146091,3.1815246,27.64,-1.07,-0.88,1.48,76,218,2.032423257827759,1.390095591545105
49,-0.02138344943523407,-2.469744920730591,-0.023951612412929535,36.7145944,3.1815098,25.38,-1.06,-0.87,1.47,76,218,2.0229616165161133,1.379706621170044
50,-0.09483649581670761,-3.039921760559082,-0.0910353809595108,36.714574,3.1814956,22.85,-1.78,-0.25,1.18,76,185,2.1605820655822754,1.807785987854004
51,-0.25363460183143616,2.6756224632263184,-0.043893057852983475,36.7145393,3.1815071,22.02,-3.36,1.57,0.0,75,153,3.7196829319000244,3.71968150138855
52,-0.1558758169412613,2.6799304485321045,0.018115729093551636,36.7144872,3.1815386,22.12,-4.06,2.02,-0.01,75,153,4.537664413452148,4.537628173828125
53,-0.05444282665848732,2.9266293048858643,0.1789734959602356,36.7144246,3.1815723,22.07,-3.64,0.76,0.04,75,167,3.723787784576416,3.7234532833099365
54,-0.3165515661239624,-2.2646079063415527,0.14011526107788086,36.7143813,3.1815561,22.05,-2.94,-2.99,0.02,74,230,4.201104640960693,4.20105504989624
55,-0.4997035264968872,-2.1453664302825928,0.03701329231262207,36.7143272,3.1814588,22.05,-4.13,-6.57,0.01,74,237,7.766287326812744,7.766279697418213
56,-0.4452850818634033,-2.1463966369628906,0.00644339993596077,36.7142656,3.181337,22.06,-4.89,-7.71,0.0,73,237,9.135091781616211,9.135090827941895
57,-0.3614993691444397,-2.1535184383392334,0.014495042152702808,36.714188,3.1811867,22.08,-4.72,-7.25,-0.01,73,236,8.65752124786377,8.657511711120605
58,-0.2042255997657776,-2.145594835281372,0.024717221036553383,36.7141296,3.1810738,22.08,-3.85,-6.06,0.02,73,237,7.182346343994141,7.182290554046631
59,-0.2929898500442505,-2.118675947189331,-0.008839333429932594,36.7140815,3.1809762,22.05,-3.37,-5.66,0.01,72,238,6.592410564422607,6.5923871994018555
60,-0.25346896052360535,-2.099724531173706,0.015895837917923927,36.7140299,3.1808653,22.05,-3.21,-5.65,0.0,72,239,6.506681442260742,6.50667667388916
61,-0.21985076367855072,-2.100038766860962,-0.012593804858624935,36.7139865,3.1807704,22.05,-3.1,-5.43,0.0,71,239,6.261666774749756,6.261666297912598
62,0.106502003967762,-2.1002988815307617,0.026414208114147186,36.7139504,3.1806921,22.04,-2.02,-3.51,0.03,71,239,4.052271366119385,4.052092552185059
63,0.09409552067518234,-2.1005637645721436,0.014810046181082726,36.7139337,3.1806554,22.04,-0.26,-0.48,-0.02,71,239,0.5571233630180359,0.5566838979721069
64,0.026947837322950363,-2.0998694896698,0.01886213943362236,36.7139337,3.180655,22.03,0.12,0.14,0.03,70,239,0.19267868995666504,0.1891980916261673
