timestamp,pitch,yaw,roll,lat,lon,alt,velocity_x,velocity_y,velocity_z,battery,heading,airspeed,groundspeed
0,0.01896590366959572,0.03640500456094742,-0.021025406196713448,36.7156066,3.18463,17.87,-0.02,0.02,0.01,96,2,0.03623974695801735,0.033501509577035904
1,-0.040044549852609634,0.03729238733649254,0.1101517379283905,36.7156081,3.1846324,17.9,0.34,0.55,0.0,95,2,0.6529659032821655,0.6529486179351807
2,-0.2405424863100052,1.3852211236953735,-0.07991144806146622,36.7156204,3.1846544,17.86,1.56,2.28,-0.01,95,79,2.7739367485046387,2.773897886276245
3,-0.1826734095811844,0.949856162071228,-0.020774822682142258,36.7156528,3.1847128,17.9,2.34,3.36,-0.03,95,54,4.0973076820373535,4.097194671630859
4,0.03571569547057152,0.9420956373214722,0.019905690103769302,36.7156847,3.1847686,17.92,2.1,2.94,-0.01,94,53,3.614668130874634,3.6146316528320312
5,0.33400821685791016,0.8345856666564941,-0.049893882125616074,36.7157006,3.1847949,17.91,-0.21,-0.38,0.01,94,47,0.43938782811164856,0.4391159415245056
6,-0.05799460411071777,-0.9453318119049072,-0.19835703074932098,36.7156776,3.1847528,17.95,-2.2,-3.18,-0.02,93,305,3.868403434753418,3.8683125972747803
7,-0.09234502911567688,-2.3923704624176025,0.07524797320365906,36.7156472,3.1846972,17.94,-2.2,-3.25,0.01,93,222,3.9346542358398438,3.934635877609253
8,-0.07000850886106491,-1.556804895401001,0.26069244742393494,36.7156266,3.1846347,17.93,0.12,-2.87,0.01,93,270,2.87792706489563,2.87789249420166
9,-0.38509729504585266,-0.6528604030609131,0.05427568778395653,36.7156541,3.1845868,17.92,3.91,-3.11,0.0,92,322,5.007593631744385,5.007593631744385
10,-0.533126711845398,-0.6200898289680481,0.018569286912679672,36.715727,3.1845223,17.92,6.62,-4.59,0.0,92,324,8.061996459960938,8.061993598937988
11,-0.4617155194282532,-0.617940366268158,-0.02298610471189022,36.7158442,3.1844211,17.94,7.87,-5.49,0.0,91,324,9.599555015563965,9.599553108215332
12,-0.4284515678882599,-0.6182818412780762,-0.0164758563041687,36.7159503,3.184328,17.96,7.65,-5.4,-0.01,91,324,9.36970329284668,9.36968994140625
13,-0.03061916120350361,-0.6246006488800049,-0.03584371134638786,36.716057,3.1842337,17.99,5.37,-3.85,0.04,91,324,6.614738464355469,6.614568710327148
14,0.06146182119846344,-0.9159852266311646,-0.23614110052585602,36.7161017,3.1841874,18.03,2.24,-2.92,-0.13,90,307,3.6890711784362793,3.6866183280944824
15,-0.41448286175727844,-2.1275036334991455,-0.09807099401950836,36.7160915,3.1841121,19.11,-3.03,-4.51,-0.93,90,238,5.524109363555908,5.444440841674805
16,-0.4778173863887787,-2.158341646194458,0.033793818205595016,36.7160359,3.1840149,20.96,-4.86,-6.97,-1.44,89,236,8.62437915802002,8.501751899719238
17,-0.4238661229610443,-2.1625897884368896,-0.0022077274043112993,36.7159637,3.1838854,23.35,-5.52,-8.0,-1.6,89,236,9.857821464538574,9.72563648223877
18,-0.4926908314228058,-2.164259195327759,0.027517367154359818,36.7158762,3.1837254,26.22,-5.53,-8.21,-1.57,88,236,10.031983375549316,9.907124519348145
19,-0.43897345662117004,-2.162071466445923,0.028008798137307167,36.7158011,3.1835857,28.68,-5.56,-8.26,-1.59,88,236,10.086014747619629,9.958900451660156
20,-0.48049765825271606,-2.164891242980957,-0.015554927289485931,36.7157133,3.1834228,31.58,-5.51,-8.24,-1.59,88,235,10.045036315917969,9.917850494384766
21,-0.4852757155895233,-2.165011167526245,0.036020949482917786,36.7156388,3.1832837,34.07,-5.51,-8.24,-1.6,87,235,10.051126480102539,9.922637939453125
22,-0.42527535557746887,-2.163861036300659,0.00028639030642807484,36.7155643,3.1831443,36.55,-5.51,-8.29,-1.62,87,236,10.089465141296387,9.958104133605957
23,-0.4596448838710785,-2.165040969848633,-0.02906719222664833,36.7154894,3.1830045,39.05,-5.52,-8.29,-1.62,86,235,10.097545623779297,9.9656343460083
24,-0.445095956325531,-2.1660566329956055,0.037497881799936295,36.7154022,3.1828414,41.97,-5.51,-8.29,-1.62,86,235,10.090208053588867,9.957915306091309
25,-0.4798422157764435,-2.1628382205963135,-0.026995431631803513,36.7153153,3.1826784,44.88,-5.51,-8.3,-1.63,85,236,10.100003242492676,9.967435836791992
26,-0.48231247067451477,-2.1640167236328125,0.02677159011363983,36.7152403,3.1825383,47.39,-5.53,-8.29,-1.63,85,236,10.104666709899902,9.97119426727295
27,-0.4245815873146057,-2.1645829677581787,0.0167249646037817,36.7151654,3.1823982,49.9,-5.53,-8.28,-1.63,84,235,10.099329948425293,9.96601390838623
28,-0.48462504148483276,-2.163498878479004,-0.012126611545681953,36.7150783,3.1822355,52.82,-5.5,-8.29,-1.63,84,236,10.090696334838867,9.957834243774414
29,-0.2614433467388153,-2.1683762073516846,0.03558250889182091,36.7150066,3.1821023,55.22,-4.86,-7.23,-1.44,83,235,8.835368156433105,8.715587615966797
30,-0.08768319338560104,-2.16139554977417,-0.006787254940718412,36.7149446,3.1819863,57.22,-2.97,-4.53,-0.69,83,236,5.465179920196533,5.421182155609131
31,-0.11666230857372284,-2.119981050491333,0.0276724174618721,36.7149111,3.1819198,57.83,-2.21,-3.7,-0.17,83,238,4.321580410003662,4.317971229553223
32,-0.1727992594242096,-2.1020281314849854,-0.016869163140654564,36.7148826,3.1818584,57.91,-2.07,-3.68,0.0,82,239,4.23232364654541,4.232316493988037
33,0.011068301275372505,-2.103569984436035,-0.019531067460775375,36.7148508,3.1817891,57.89,-1.76,-3.09,0.03,82,239,3.5648727416992188,3.5647377967834473
34,-0.002474359469488263,-2.280836820602417,-0.03527295961976051,36.7148311,3.1817507,57.21,-1.22,-1.5,1.01,82,229,2.188863515853882,1.940267562866211
35,-0.0515543557703495,-2.476684808731079,-0.016756998375058174,36.7148136,3.181731,54.68,-1.03,-0.8,1.45,81,218,1.9571163654327393,1.3122161626815796
36,-0.019221823662519455,-2.4718456268310547,0.025397855788469315,36.7147996,3.1817179,52.44,-1.04,-0.82,1.42,81,218,1.9513607025146484,1.3332270383834839
37,-0.05191871151328087,-2.470489978790283,-0.01910024881362915,36.7147853,3.1817037,50.2,-1.06,-0.87,1.43,81,218,1.987958312034607,1.3779759407043457
38,-0.013133415952324867,-2.469557762145996,-0.013081852346658707,36.7147684,3.1816868,47.59,-1.07,-0.88,1.44,80,218,2.008535385131836,1.3918780088424683
39,-0.05308045819401741,-2.4694759845733643,0.020220544189214706,36.7147538,3.1816722,45.34,-1.06,-0.88,1.45,80,218,2.008951187133789,1.3857979774475098
40,-0.05355587601661682,-2.469360589981079,-0.01683851331472397,36.7147368,3.1816551,42.72,-1.06,-0.88,1.45,79,218,2.011093854904175,1.3848978281021118
41,-0.02073664404451847,-2.4693779945373535,0.02501966618001461,36.7147223,3.1816405,40.48,-1.06,-0.88,1.46,79,218,2.018203020095825,1.3849873542785645
42,-0.049293190240859985,-2.46937894821167,-0.021389121189713478,36.7147077,3.1816258,38.24,-1.06,-0.88,1.47,79,218,2.0239107608795166,1.3893409967422485
43,-0.007845872081816196,-2.4691975116729736,-0.009160978719592094,36.7146906,3.1816086,35.61,-1.07,-0.88,1.46,78,218,2.022770881652832,1.389963984489441
44,-0.05278799310326576,-2.469967842102051,0.01882333867251873,36.7146761,3.1815938,33.37,-1.05,-0.89,1.47,78,218,2.0232787132263184,1.386222004890442
45,-0.05151625722646713,-2.4693307876586914,-0.020686890929937363,36.7146591,3.1815767,30.75,-1.07,-0.88,1.48,78,218,2.0334620475769043,1.394309163093567
46,-0.022035129368305206,-2.4697935581207275,0.024004796519875526,36.7146444,3.181562,28.49,-1.06,-0.87,1.47,77,218,2.014925479888916,1.3733266592025757
47,-0.04287082701921463,-2.4689443111419678,-0.023870980367064476,36.7146298,3.1815472,26.24,-1.05,-0.88,1.47,77,218,2.0203754901885986,1.38327956199646
48,-0.015299854800105095,-2.4693386554718018,-0.016108740121126175,36.7146129,3.18153,23.62,-1.06,-0.87,1.47,77,218,2.023719549179077,1.3808019161224365
49,-0.05745939910411835,-2.469989776611328,0.01743997074663639,36.7145983,3.1815153,21.37,-1.06,-0.88,1.47,76,218,2.0230603218078613,1.3819653987884521
50,-0.12737822532653809,-2.9960715770721436,-0.1279245913028717,36.7145782,3.1815007,18.81,-1.74,-0.31,1.22,76,188,2.1519064903259277,1.7714937925338745
51,-0.21068218350410461,2.6678693294525146,-0.012208909727633,36.7145446,3.181511,17.91,-3.27,1.56,0.01,75,152,3.6267054080963135,3.626662254333496
52,-0.18578670918941498,2.672624349594116,-0.02306118793785572,36.7144935,3.1815426,18.01,-4.01,2.03,-0.02,75,153,4.497352600097656,4.497286796569824
53,-0.012311526574194431,2.918166399002075,0.1471865475177765,36.7144315,3.1815768,17.96,-3.61,0.82,0.05,75,167,3.703429937362671,3.702990770339966
54,-0.3798731863498688,-2.2873594760894775,0.17109698057174683,36.7143881,3.1815621,17.94,-2.93,-2.94,0.02,74,228,4.155848503112793,4.155774116516113
55,-0.4833219647407532,-2.147423028945923,-0.027210816740989685,36.7143342,3.1814658,17.94,-4.15,-6.53,0.01,74,236,7.748441219329834,7.748433589935303
56,-0.49975013732910156,-2.1522533893585205,0.0075204987078905106,36.7142717,3.1813437,17.95,-4.93,-7.65,0.0,73,236,9.10258674621582,9.10258674621582
57,-0.33252382278442383,-2.1572659015655518,-0.02540842443704605,36.7141937,3.1811942,17.97,-4.77,-7.26,0.0,73,236,8.882487297058105,8.882484436035156
58,-0.2619251012802124,-2.151000738143921,0.025815902277827263,36.7141345,3.181081,17.97,-3.92,-6.1,0.02,73,236,7.255392074584961,7.2553324699401855
59,-0.24181954562664032,-2.1207268238067627,0.014888757839798927,36.7140857,3.1809832,17.95,-3.39,-5.66,0.02,72,238,6.602170467376709,6.602135181427002
60,-0.29363662004470825,-2.100025177001953,0.03284436836838722,36.714034,3.1808723,17.95,-3.2,-5.64,0.01,72,239,6.491855621337891,6.491846084594727
61,-0.18156860768795013,-2.100301504135132,-0.017653606832027435,36.7139908,3.1807777,17.95,-3.12,-5.47,0.0,71,239,6.3049774169921875,6.304977893829346
62,0.05436354875564575,-2.1009252071380615,0.012718191370368004,36.7139542,3.1806982,17.94,-2.06,-3.6,0.04,71,239,4.151645660400391,4.151445388793945
63,0.10934603959321976,-2.100602865219116,-0.02407010830938816,36.7139368,3.1806602,17.93,-0.28,-0.5,-0.02,71,239,0.5816918015480042,0.5813139081001282
64,0.014967494644224644,-2.0997273921966553,0.04537313058972359,36.7139369,3.1806599,17.92,0.12,0.15,0.03,70,239,0.20355425775051117,0.20062649250030518
