timestamp,pitch,yaw,roll,lat,lon,alt,velocity_x,velocity_y,velocity_z,battery,heading,airspeed,groundspeed
0,-0.024162109941244125,-0.048071686178445816,0.008138129487633705,36.7156066,3.1846299,17.24,-0.02,0.03,-0.03,96,357,0.057120054960250854,0.041127294301986694
1,-0.031853318214416504,-0.04721885174512863,0.08983743190765381,36.7156078,3.1846323,17.3,0.31,0.52,0.0,95,357,0.6136115789413452,0.6135672330856323
2,-0.21782441437244415,1.4185423851013184,-0.07800456136465073,36.7156194,3.1846536,17.26,1.5,2.19,0.0,95,81,2.6646788120269775,2.664663076400757
3,-0.1834058314561844,0.866379976272583,0.011832956224679947,36.7156509,3.18471,17.29,2.28,3.3,-0.02,95,49,4.017567157745361,4.0175018310546875
4,0.03723498806357384,0.9322724342346191,0.005762491375207901,36.7156818,3.1847647,17.29,2.05,2.91,0.0,94,53,3.567103147506714,3.567089319229126
5,0.3368571698665619,0.773003339767456,-0.02762574702501297,36.7156964,3.1847887,17.28,-0.72,-1.1,0.0,94,44,1.3174997568130493,1.3174786567687988
6,-0.056800518184900284,-0.9248316287994385,-0.20089980959892273,36.7156745,3.1847484,17.32,-2.19,-3.17,-0.02,93,307,3.859754800796509,3.859675645828247
7,-0.05556388199329376,-2.4253275394439697,0.056438226252794266,36.7156395,3.1846842,17.31,-2.12,-3.3,0.01,93,221,3.924276113510132,3.9242444038391113
8,-0.06763669848442078,-1.5467071533203125,0.25539523363113403,36.7156233,3.1846307,17.29,0.12,-2.87,0.01,93,271,2.876711845397949,2.8766913414001465
9,-0.3677469491958618,-0.65069180727005,0.06619472801685333,36.715651,3.1845824,17.29,3.92,-3.1,0.0,92,322,5.00439453125,5.004391193389893
10,-0.5370959043502808,-0.6206598877906799,0.004082733299583197,36.7157237,3.184518,17.29,6.64,-4.57,0.0,92,324,8.072896003723145,8.072896003723145
11,-0.4576041102409363,-0.6185978055000305,0.0025227810256183147,36.7158408,3.1844169,17.31,7.88,-5.5,0.0,91,324,9.610219955444336,9.61021614074707
12,-0.3944533169269562,-0.6208578944206238,0.0025770070496946573,36.7159644,3.1843085,17.33,7.47,-5.28,-0.02,91,324,9.154104232788086,9.154071807861328
13,-0.04140859097242355,-0.6242522597312927,0.000698812713380903,36.7160536,3.1842297,17.35,5.37,-3.84,0.03,91,324,6.6059041023254395,6.605785846710205
14,0.024884074926376343,-1.0839227437973022,-0.2741730809211731,36.7161025,3.1841751,17.45,1.51,-2.87,-0.22,90,297,3.262216567993164,3.254760980606079
15,-0.36619290709495544,-2.131835460662842,-0.08709124475717545,36.7160881,3.1841076,18.48,-3.03,-4.49,-0.93,90,237,5.508746147155762,5.428102970123291
16,-0.5161383748054504,-2.1603057384490967,-0.011253385804593563,36.7160329,3.1840107,20.34,-4.87,-6.97,-1.43,89,236,8.632648468017578,8.512153625488281
17,-0.42629265785217285,-2.163755178451538,0.01675081066787243,36.7159483,3.1838592,23.14,-5.57,-8.01,-1.6,89,236,9.895334243774414,9.76456356048584
18,-0.4487932324409485,-2.1663079261779785,-0.0209745392203331,36.7158727,3.1837211,25.58,-5.54,-8.2,-1.58,88,235,10.031858444213867,9.905638694763184
19,-0.49224188923835754,-2.162369966506958,-0.010383597575128078,36.7157976,3.1835813,28.04,-5.51,-8.24,-1.59,88,236,10.047852516174316,9.920371055603027
20,-0.4260883927345276,-2.162292242050171,0.010710444301366806,36.7157107,3.1834193,30.94,-5.51,-8.25,-1.6,88,236,10.057038307189941,9.928045272827148
21,-0.4474138915538788,-2.1635096073150635,-0.03342830762267113,36.7156359,3.1832797,33.42,-5.52,-8.25,-1.61,87,236,10.067394256591797,9.936955451965332
22,-0.46903181076049805,-2.1653056144714355,0.029443705454468727,36.7155486,3.1831167,36.33,-5.51,-8.26,-1.62,87,235,10.063211441040039,9.930438041687012
23,-0.4258336126804352,-2.1641933917999268,0.01074242778122425,36.7154738,3.1829772,38.83,-5.51,-8.28,-1.63,86,236,10.081701278686523,9.948677062988281
24,-0.45579853653907776,-2.163705587387085,-0.03008456900715828,36.7153992,3.1828373,41.33,-5.51,-8.3,-1.63,86,236,10.103639602661133,9.970168113708496
25,-0.46012982726097107,-2.1634912490844727,0.038123682141304016,36.7153121,3.1826742,44.25,-5.49,-8.27,-1.63,85,236,10.069931030273438,9.935669898986816
26,-0.4271382689476013,-2.163606882095337,0.0014579787384718657,36.7152375,3.1825347,46.76,-5.53,-8.28,-1.63,85,236,10.096580505371094,9.963175773620605
27,-0.494814932346344,-2.1669161319732666,0.012055844999849796,36.7151499,3.1823714,49.68,-5.53,-8.3,-1.63,84,235,10.109265327453613,9.9765625
28,-0.45411428809165955,-2.1634554862976074,0.034715697169303894,36.7150751,3.1822312,52.18,-5.49,-8.29,-1.64,84,236,10.082452774047852,9.94692611694336
29,-0.25100407004356384,-2.1684656143188477,-0.010350383818149567,36.7150038,3.1820984,54.59,-4.86,-7.2,-1.44,84,235,8.81601333618164,8.696431159973145
30,-0.07943012565374374,-2.1622824668884277,0.0325201079249382,36.7149417,3.1819825,56.58,-2.99,-4.56,-0.7,83,236,5.502685070037842,5.457958698272705
31,-0.11995509266853333,-2.120245933532715,-0.0064298491925001144,36.7149079,3.1819154,57.2,-2.22,-3.71,-0.18,83,238,4.330547332763672,4.326721668243408
32,-0.14458143711090088,-2.1017849445343018,0.029201529920101166,36.7148746,3.1818437,57.27,-2.07,-3.65,-0.01,82,239,4.202738285064697,4.202723503112793
33,-0.016880178824067116,-2.103240966796875,-0.028630899265408516,36.7148476,3.1817852,57.26,-1.75,-3.09,0.03,82,239,3.558985710144043,3.558807134628296
34,0.04279469698667526,-2.34441876411438,-0.03907984867691994,36.7148253,3.1817428,56.3,-1.19,-1.33,1.21,82,225,2.1659445762634277,1.7938069105148315
35,-0.05692680925130844,-2.4771242141723633,-0.010580803267657757,36.7148104,3.1817267,54.06,-1.03,-0.8,1.45,81,218,1.9608534574508667,1.3125832080841064
36,-0.013071277178823948,-2.4718782901763916,0.02036682330071926,36.7147963,3.1817135,51.82,-1.03,-0.81,1.43,81,218,1.9463177919387817,1.3190747499465942
37,-0.056891269981861115,-2.4705381393432617,0.022665563970804214,36.7147797,3.1816973,49.21,-1.05,-0.87,1.44,81,218,1.9969396591186523,1.3752429485321045
38,-0.013168945908546448,-2.4702348709106445,-0.013722344301640987,36.7147652,3.1816828,46.97,-1.06,-0.87,1.45,80,218,2.002908945083618,1.3769341707229614
39,-0.03826550766825676,-2.469846725463867,0.030954141169786453,36.7147483,3.1816657,44.34,-1.07,-0.88,1.45,80,218,2.017812728881836,1.3961251974105835
40,-0.03757883980870247,-2.46996808052063,-0.02643963135778904,36.7147337,3.181651,42.1,-1.07,-0.89,1.46,79,218,2.0253584384918213,1.4009559154510498
41,-0.038286760449409485,-2.469939947128296,0.026783449575304985,36.7147191,3.1816363,39.87,-1.07,-0.88,1.47,79,218,2.0278828144073486,1.3899859189987183
42,-0.0631115585565567,-2.4700069427490234,-0.006361975800246,36.714702,3.1816193,37.24,-1.06,-0.88,1.47,79,218,2.0215635299682617,1.3835057020187378
43,-0.01905866526067257,-2.4693644046783447,0.021459786221385002,36.7146875,3.1816046,34.99,-1.06,-0.88,1.47,78,218,2.025371551513672,1.3882997035980225
44,-0.0551421083509922,-2.4700379371643066,0.019394921138882637,36.7146705,3.1815873,32.37,-1.06,-0.88,1.48,78,218,2.031195878982544,1.3882720470428467
45,-0.009305452927947044,-2.4699008464813232,-0.011967885307967663,36.7146559,3.1815726,30.12,-1.06,-0.88,1.48,78,218,2.0281567573547363,1.38446843624115
46,-0.06349983811378479,-2.4706976413726807,0.013758879154920578,36.7146414,3.181558,27.87,-1.07,-0.88,1.47,77,218,2.027867078781128,1.3884586095809937
47,-0.03748931735754013,-2.469836711883545,-0.026205450296401978,36.7146243,3.1815407,25.25,-1.06,-0.88,1.48,77,218,2.02962589263916,1.3866313695907593
48,-0.035631611943244934,-2.469907283782959,0.029298698529601097,36.7146097,3.181526,23.0,-1.06,-0.88,1.48,77,218,2.026292085647583,1.3823169469833374
49,-0.06127416342496872,-2.470041275024414,-0.006484372075647116,36.7145927,3.1815089,20.37,-1.06,-0.87,1.47,76,218,2.0220115184783936,1.3826134204864502
50,-0.08403506875038147,-2.9927291870117188,-0.09134884178638458,36.7145752,3.1814966,18.19,-1.73,-0.32,1.22,76,188,2.1545960903167725,1.7696236371994019
51,-0.2600998878479004,2.676830768585205,-0.04290512949228287,36.7145413,3.1815067,17.29,-3.3,1.51,0.02,75,153,3.6368777751922607,3.6367948055267334
52,-0.14590424299240112,2.680170774459839,-0.013794834725558758,36.7144806,3.1815435,17.38,-4.07,2.02,0.0,75,153,4.548367500305176,4.54836368560791
53,-0.06143168732523918,2.898573875427246,0.16664020717144012,36.714427,3.1815722,17.33,-3.68,0.88,0.05,75,166,3.7931065559387207,3.792752265930176
54,-0.376002699136734,-2.216707706451416,0.09723763167858124,36.7143762,3.1815501,17.31,-2.98,-3.47,0.01,74,233,4.580897331237793,4.580862045288086
55,-0.5017960667610168,-2.1434149742126465,0.03459674119949341,36.7143297,3.1814643,17.31,-4.08,-6.49,0.01,74,237,7.676112174987793,7.67609977722168
56,-0.44717592000961304,-2.1468288898468018,0.005983224604278803,36.7142683,3.1813428,17.32,-4.88,-7.67,0.0,73,237,9.09731388092041,9.09731388092041
57,-0.36736178398132324,-2.152149200439453,0.0063303797505795956,36.7141907,3.1811923,17.34,-4.72,-7.28,-0.01,73,236,8.688916206359863,8.688909530639648
58,-0.20994308590888977,-2.146254777908325,0.02923552319407463,36.7141319,3.1810788,17.33,-3.89,-6.1,0.02,73,237,7.242679595947266,7.2426347732543945
59,-0.30166926980018616,-2.1162097454071045,0.026411106809973717,36.7140759,3.1809652,17.31,-3.35,-5.69,0.01,72,238,6.604402542114258,6.604389190673828
60,-0.2529231905937195,-2.0996692180633545,0.01931406743824482,36.7140316,3.1808696,17.31,-3.21,-5.64,0.0,72,239,6.502401828765869,6.5023980140686035
61,-0.22092321515083313,-2.100212335586548,-0.0190105102956295,36.7139881,3.1807746,17.31,-3.12,-5.46,0.0,71,239,6.292483806610107,6.292483806610107
62,0.15166066586971283,-2.101013422012329,-0.0048050954937934875,36.7139471,3.1806856,17.29,-1.81,-3.13,0.03,71,239,3.623746395111084,3.623537540435791
63,0.09497229754924774,-2.100682497024536,0.0017738090828061104,36.7139339,3.1806563,17.29,-0.3,-0.55,-0.02,71,239,0.6371191740036011,0.6366836428642273
64,0.001686012838035822,-2.1007673740386963,0.013925720937550068,36.7139339,3.1806559,17.28,0.16,0.1,0.04,70,239,0.20475953817367554,0.20029889047145844
