timestamp,pitch,yaw,roll,lat,lon,alt,velocity_x,velocity_y,velocity_z,battery,heading,airspeed,groundspeed
0,-0.01620643027126789,-0.01774965226650238,0.02309994585812092,36.7156066,3.1846299,20.04,-0.03,0.02,0.03,96,358,0.05803949385881424,0.04286875203251839
1,-0.05070304125547409,-0.01995670236647129,0.07495812326669693,36.7156077,3.184632,19.99,0.32,0.52,0.0,95,358,0.6162804365158081,0.6162710189819336
2,-0.16873358190059662,1.4050973653793335,-0.10435463488101959,36.7156243,3.1846607,19.97,1.87,2.58,-0.03,95,80,3.190408945083618,3.190234661102295
3,-0.1783270388841629,0.8877975344657898,0.0268416628241539,36.7156547,3.1847126,20.01,2.43,3.37,-0.03,95,50,4.163485050201416,4.163308143615723
4,0.07064808160066605,0.9297624230384827,-0.029436418786644936,36.7156922,3.184776,20.04,1.91,2.57,-0.01,94,53,3.2157750129699707,3.215743064880371
5,0.3540932238101959,0.5255289673805237,-0.13035865128040314,36.7157028,3.1847913,20.03,-0.72,-1.18,0.0,94,30,1.3932112455368042,1.393202543258667
6,-0.09883919358253479,-1.0922995805740356,-0.17149867117404938,36.7156805,3.1847501,20.07,-2.21,-3.2,-0.02,93,297,3.8988277912139893,3.8987538814544678
7,-0.07821769267320633,-2.3724091053009033,0.035539254546165466,36.715645,3.1846853,20.06,-2.07,-3.27,0.01,93,224,3.875079870223999,3.8750529289245605
8,-0.04731306806206703,-1.544162392616272,0.2791820466518402,36.7156297,3.1846323,20.04,0.2,-2.85,0.01,93,271,2.8621413707733154,2.862096071243286
9,-0.4586443305015564,-0.6596981287002563,0.0709417536854744,36.7156681,3.184575,20.04,4.56,-3.32,0.0,92,322,5.6486382484436035,5.648637771606445
10,-0.5196025371551514,-0.6217057108879089,0.04124830663204193,36.7157325,3.1845191,20.04,6.66,-4.62,0.0,92,324,8.114730834960938,8.114728927612305
11,-0.4844762682914734,-0.6172713041305542,-0.03264784812927246,36.71585,3.1844174,20.06,7.88,-5.5,0.0,91,324,9.616425514221191,9.616425514221191
12,-0.351206511259079,-0.6193096041679382,0.029826810583472252,36.7159731,3.1843093,20.09,7.43,-5.27,-0.01,91,324,9.114274978637695,9.114253997802734
13,-0.04269244894385338,-0.624963104724884,-0.05335981026291847,36.7160621,3.1842307,20.11,5.3,-3.8,0.04,91,324,6.529317855834961,6.529130935668945
14,-0.0256816279143095,-1.3595402240753174,-0.28994664549827576,36.7161121,3.1841686,20.29,0.6,-2.91,-0.31,90,282,2.993128538131714,2.9763481616973877
15,-0.43202900886535645,-2.1311538219451904,-0.06849951297044754,36.7160934,3.1841087,21.26,-3.11,-4.57,-0.94,90,237,5.613330364227295,5.532714366912842
16,-0.462724506855011,-2.160616874694824,0.040246814489364624,36.7160372,3.1840103,23.14,-4.9,-7.01,-1.46,89,236,8.681870460510254,8.558009147644043
17,-0.47258588671684265,-2.16313099861145,-0.031792644411325455,36.7159525,3.1838578,25.96,-5.54,-8.03,-1.59,89,236,9.888887405395508,9.758625030517578
18,-0.47354942560195923,-2.1667048931121826,0.0406825989484787,36.7158772,3.1837199,28.42,-5.55,-8.2,-1.56,88,235,10.028640747070312,9.905020713806152
19,-0.44084906578063965,-2.164440155029297,-0.027447102591395378,36.7157897,3.1835572,31.29,-5.53,-8.26,-1.58,88,235,10.072422981262207,9.946540832519531
20,-0.4869154095649719,-2.1630194187164307,-0.003346177516505122,36.7157147,3.1834174,33.77,-5.51,-8.25,-1.6,88,236,10.055975914001465,9.927764892578125
21,-0.4709451198577881,-2.1639654636383057,0.04085765779018402,36.7156401,3.1832785,36.26,-5.53,-8.28,-1.6,87,236,10.094794273376465,9.965890884399414
22,-0.4621649980545044,-2.163978099822998,-0.026146236807107925,36.7155527,3.1831152,39.16,-5.52,-8.29,-1.61,87,236,10.093353271484375,9.963242530822754
23,-0.48570579290390015,-2.165287494659424,0.02085171826183796,36.7154777,3.1829754,41.66,-5.5,-8.26,-1.62,86,235,10.059690475463867,9.927529335021973
24,-0.4330017864704132,-2.166140079498291,-0.006465455051511526,36.7153909,3.1828129,44.58,-5.5,-8.28,-1.62,86,235,10.077853202819824,9.945531845092773
25,-0.4827757179737091,-2.163069486618042,-0.02661765180528164,36.7153164,3.182673,47.08,-5.52,-8.33,-1.62,85,236,10.129707336425781,9.997841835021973
26,-0.46627911925315857,-2.1647138595581055,0.03557160496711731,36.7152413,3.1825327,49.58,-5.52,-8.28,-1.63,85,235,10.094094276428223,9.96006965637207
27,-0.4477386176586151,-2.164590835571289,-0.025502018630504608,36.7151541,3.1823697,52.51,-5.5,-8.28,-1.63,84,235,10.084566116333008,9.951869010925293
28,-0.48356470465660095,-2.1666784286499023,0.005486351437866688,36.7150795,3.1822303,55.02,-5.52,-8.3,-1.62,84,235,10.101370811462402,9.970132827758789
29,-0.18587078154087067,-2.1685118675231934,-0.0035220833960920572,36.7149972,3.1820776,57.77,-4.58,-6.82,-1.36,83,235,8.338335990905762,8.22525691986084
30,-0.08727949112653732,-2.160796880722046,0.002760837320238352,36.7149467,3.1819827,59.36,-2.93,-4.48,-0.67,83,236,5.4028849601745605,5.3604865074157715
31,-0.11366836726665497,-2.1186363697052,0.02417805604636669,36.7149134,3.1819165,59.96,-2.21,-3.7,-0.16,83,238,4.3219122886657715,4.318811416625977
32,-0.171753391623497,-2.101713180541992,0.022549405694007874,36.7148803,3.181845,60.02,-2.07,-3.68,-0.01,82,239,4.233822822570801,4.233805179595947
33,0.01073397696018219,-2.1032495498657227,-0.022424552589654922,36.7148534,3.1817862,60.01,-1.73,-3.05,0.04,82,239,3.5158073902130127,3.515549659729004
34,0.033409640192985535,-2.353256940841675,-0.02047096937894821,36.7148313,3.1817448,58.99,-1.19,-1.3,1.23,82,225,2.162445068359375,1.7721285820007324
35,-0.04855877161026001,-2.4752938747406006,-0.01895962655544281,36.7148164,3.181729,56.74,-1.04,-0.8,1.44,81,218,1.9546642303466797,1.3169887065887451
36,-0.021853575482964516,-2.472039222717285,0.028693849220871925,36.7148023,3.1817158,54.5,-1.03,-0.82,1.42,81,218,1.9471757411956787,1.3273122310638428
37,-0.060361336916685104,-2.4709932804107666,0.016122091561555862,36.7147857,3.1816995,51.88,-1.06,-0.87,1.43,81,218,1.988610863685608,1.3750067949295044
38,-0.0016482567880302668,-2.469956874847412,-0.010740242898464203,36.7147713,3.181685,49.64,-1.07,-0.88,1.44,80,218,2.0022597312927246,1.3895529508590698
39,-0.02775854989886284,-2.4694602489471436,0.02882416360080242,36.7147542,3.1816678,47.03,-1.07,-0.88,1.45,80,218,2.0122926235198975,1.3920071125030518
40,-0.04814552515745163,-2.4698410034179688,-0.023195404559373856,36.7147396,3.1816532,44.78,-1.06,-0.89,1.45,79,218,2.017563819885254,1.3941525220870972
41,-0.009158851578831673,-2.4699783325195312,-0.004719148855656385,36.7147226,3.1816361,42.16,-1.07,-0.88,1.46,79,218,2.018390417098999,1.393034815788269
42,-0.062149528414011,-2.470613718032837,0.013603145256638527,36.7147081,3.1816214,39.93,-1.06,-0.88,1.47,79,218,2.025953769683838,1.389963150024414
43,-0.01175720151513815,-2.46976375579834,-0.0016137902857735753,36.7146935,3.1816068,37.67,-1.06,-0.88,1.47,78,218,2.02347731590271,1.3881887197494507
44,-0.02919032610952854,-2.4699859619140625,0.02889898233115673,36.7146765,3.1815896,35.05,-1.07,-0.89,1.47,78,218,2.0264534950256348,1.3948216438293457
45,-0.03913041576743126,-2.470061779022217,-0.020654158666729927,36.7146618,3.1815748,32.8,-1.07,-0.88,1.47,78,218,2.0268466472625732,1.3918901681900024
46,-0.005778159014880657,-2.4700088500976562,0.0013739799614995718,36.7146448,3.1815576,30.18,-1.06,-0.87,1.48,77,218,2.024643898010254,1.3810781240463257
47,-0.06358187645673752,-2.4695162773132324,-0.0010614673374220729,36.7146303,3.181543,27.93,-1.06,-0.88,1.47,77,218,2.020641803741455,1.3826104402542114
48,-0.007929657585918903,-2.4696311950683594,0.0020606396719813347,36.7146157,3.1815283,25.68,-1.07,-0.88,1.47,77,218,2.0239779949188232,1.3861662149429321
49,-0.03505710884928703,-2.470273971557617,0.029780415818095207,36.7145987,3.1815111,23.05,-1.05,-0.88,1.47,76,218,2.020594835281372,1.3769646883010864
50,-0.1184399351477623,-3.026254892349243,-0.1351211667060852,36.7145809,3.1814991,20.88,-1.77,-0.28,1.19,76,186,2.1579744815826416,1.7940452098846436
51,-0.1955026090145111,2.6684844493865967,-0.014710843563079834,36.7145389,3.1815149,20.03,-3.53,1.76,-0.05,75,152,3.946220636367798,3.9457690715789795
52,-0.19064614176750183,2.6722731590270996,-0.010099169798195362,36.7144859,3.181548,20.13,-4.0,2.04,0.01,75,153,4.496440887451172,4.49642276763916
53,-0.0027909143827855587,2.939870834350586,0.18424518406391144,36.7144333,3.1815759,20.08,-3.57,0.74,0.05,75,168,3.6541881561279297,3.653761386871338
54,-0.4000970125198364,-2.2032759189605713,0.14243143796920776,36.7143837,3.1815497,20.06,-2.99,-3.71,0.01,74,233,4.7715582847595215,4.771520614624023
55,-0.45858246088027954,-2.144897222518921,-0.006223192438483238,36.7143363,3.1814606,20.06,-4.16,-6.62,0.01,74,237,7.823907852172852,7.8238983154296875
56,-0.47646063566207886,-2.1489415168762207,0.012898320332169533,36.7142631,3.1813164,20.08,-4.92,-7.69,0.0,73,236,9.132505416870117,9.132506370544434
57,-0.30781763792037964,-2.152188301086426,-0.0013427941594272852,36.7141967,3.1811882,20.09,-4.7,-7.24,0.0,73,236,8.639128684997559,8.639123916625977
58,-0.25584614276885986,-2.147196054458618,-0.0029587182216346264,36.7141385,3.1810755,20.09,-3.86,-6.06,0.03,73,236,7.1908159255981445,7.190737724304199
59,-0.2463081181049347,-2.1203970909118652,0.002170365769416094,36.7140822,3.1809619,20.07,-3.38,-5.64,0.01,72,238,6.582611083984375,6.582590103149414
60,-0.3091718554496765,-2.108407974243164,-0.0015947605716064572,36.7140376,3.1808673,20.07,-3.27,-5.66,0.01,72,239,6.541910648345947,6.541896820068359
61,-0.14314894378185272,-2.108705997467041,-0.02478371001780033,36.7139863,3.1807576,20.07,-3.04,-5.24,0.0,71,239,6.063289165496826,6.063289165496826
62,0.12230296432971954,-2.10955548286438,0.02776380255818367,36.7139523,3.1806853,20.05,-1.72,-2.96,0.03,71,239,3.4254095554351807,3.425183057785034
63,0.13812784850597382,-2.1095128059387207,-0.022579899057745934,36.7139399,3.1806585,20.05,-0.25,-0.44,-0.02,71,239,0.5173872709274292,0.5169488787651062
64,0.016845086589455605,-2.108029365539551,0.07507585734128952,36.7139404,3.1806591,20.03,0.19,0.08,0.03,70,239,0.21859222650527954,0.2150578498840332
