timestamp,pitch,yaw,roll,lat,lon,alt,velocity_x,velocity_y,velocity_z,battery,heading,airspeed,groundspeed
0,-0.004505310673266649,0.0008517731912434101,0.028007419779896736,36.7156066,3.1846299,22.45,-0.03,0.02,-0.09,96,0,0.10288580507040024,0.04292650893330574
1,-0.07002699375152588,0.003976544365286827,0.0684133768081665,36.7156079,3.1846324,22.44,0.36,0.57,-0.04,95,0,0.6795979142189026,0.6782907843589783
2,-0.1808403730392456,1.388620376586914,-0.1152019128203392,36.7156251,3.1846624,22.48,1.89,2.63,-0.03,95,79,3.2472352981567383,3.247019052505493
3,-0.15913493931293488,0.9251025915145874,0.026087431237101555,36.7156555,3.1847151,22.48,2.45,3.39,-0.01,95,53,4.192385673522949,4.19236946105957
4,0.03168414905667305,0.9246176481246948,-0.03184372931718826,36.7156885,3.1847709,22.46,2.12,2.88,0.0,94,52,3.5822434425354004,3.582242965698242
5,0.3544158339500427,0.5292624831199646,-0.15245522558689117,36.7157028,3.1847927,22.48,-0.81,-1.27,-0.01,94,30,1.5180046558380127,1.5179381370544434
6,-0.10226141661405563,-1.1002297401428223,-0.13756275177001953,36.7156799,3.1847506,22.45,-2.2,-3.21,0.03,93,296,3.901972770690918,3.9018373489379883
7,-0.0927419513463974,-2.366342544555664,0.047475315630435944,36.7156447,3.1846858,22.51,-2.06,-3.25,0.01,93,224,3.849087715148926,3.849059581756592
8,-0.029958544299006462,-1.5210862159729004,0.2640957236289978,36.7156298,3.184633,22.45,0.23,-2.84,0.02,93,272,2.852051019668579,2.851952314376831
9,-0.43755796551704407,-0.6624956130981445,0.08353904634714127,36.7156591,3.1845849,22.45,4.05,-3.14,0.0,92,322,5.131134033203125,5.13113260269165
10,-0.48963358998298645,-0.6261405944824219,-0.00991071481257677,36.7157489,3.1845063,22.45,7.01,-4.84,-0.01,92,324,8.529684066772461,8.52967643737793
11,-0.517024040222168,-0.6188936829566956,-0.010101286694407463,36.7158513,3.1844177,22.47,7.86,-5.51,0.0,91,324,9.60749340057373,9.607492446899414
12,-0.3259250819683075,-0.6202311515808105,-0.0010777154238894582,36.7159746,3.1843093,22.51,7.4,-5.24,-0.01,91,324,9.079153060913086,9.07913589477539
13,-0.06963638961315155,-0.6244162321090698,-0.03098458983004093,36.7160629,3.1842313,22.52,5.25,-3.76,0.05,91,324,6.469189643859863,6.468964099884033
14,-0.07085411250591278,-1.3657456636428833,-0.31803247332572937,36.7161121,3.1841696,22.7,0.57,-2.92,-0.32,90,281,2.994788408279419,2.9775986671447754
15,-0.4088051915168762,-2.1332056522369385,-0.030311908572912216,36.7160929,3.1841094,23.69,-3.13,-4.6,-0.95,90,237,5.648334503173828,5.566599369049072
16,-0.4483594000339508,-2.1590187549591064,-0.01871354877948761,36.7160365,3.1840104,25.58,-4.89,-7.03,-1.45,89,236,8.694116592407227,8.57081127166748
17,-0.47807371616363525,-2.1628153324127197,0.0205723624676466,36.715952,3.1838581,28.39,-5.53,-8.05,-1.59,89,236,9.901427268981934,9.772106170654297
18,-0.42666879296302795,-2.1637122631073,0.014603703282773495,36.7158766,3.18372,30.85,-5.56,-8.2,-1.57,88,236,10.03801441192627,9.913784980773926
19,-0.4517771303653717,-2.164876937866211,-0.028031570836901665,36.7158014,3.1835805,33.31,-5.55,-8.23,-1.58,88,235,10.059805870056152,9.934542655944824
20,-0.45048239827156067,-2.1638405323028564,0.03692925348877907,36.7157141,3.1834179,36.2,-5.51,-8.24,-1.59,88,236,10.04259967803955,9.914387702941895
21,-0.4221543073654175,-2.163668394088745,0.0028773637022823095,36.7156393,3.1832786,38.68,-5.51,-8.26,-1.61,87,236,10.072993278503418,9.942619323730469
22,-0.4818485677242279,-2.16398024559021,0.026012886315584183,36.7155522,3.1831158,41.59,-5.5,-8.28,-1.62,87,236,10.074893951416016,9.94375228881836
23,-0.4774761497974396,-2.163221597671509,0.03042185679078102,36.71549,3.1829994,43.68,-5.5,-8.28,-1.62,86,236,10.078441619873047,9.94693374633789
24,-0.4858097434043884,-2.163759231567383,-0.013001706451177597,36.7153903,3.1828132,47.01,-5.5,-8.3,-1.62,86,236,10.094146728515625,9.96285629272461
25,-0.46352821588516235,-2.165637731552124,0.04580584540963173,36.7153156,3.1826733,49.51,-5.51,-8.3,-1.62,85,235,10.101337432861328,9.969225883483887
26,-0.4282231032848358,-2.16530442237854,-0.005401353817433119,36.715241,3.1825337,52.02,-5.52,-8.29,-1.62,85,235,10.10341739654541,9.9716157913208
27,-0.48376625776290894,-2.1650214195251465,0.029330311343073845,36.7151536,3.1823703,54.94,-5.5,-8.3,-1.63,84,235,10.098328590393066,9.965885162353516
28,-0.4230574071407318,-2.1649909019470215,0.03189218416810036,36.7150789,3.1822304,57.44,-5.51,-8.27,-1.63,84,235,10.077391624450684,9.944035530090332
29,-0.2502981126308441,-2.168614387512207,-0.021276354789733887,36.7150075,3.182098,59.83,-4.81,-7.16,-1.42,83,235,8.752532005310059,8.63498592376709
30,-0.04474480822682381,-2.1603238582611084,0.02973230928182602,36.7149464,3.1819836,61.77,-2.92,-4.46,-0.67,83,236,5.3800435066223145,5.336923122406006
31,-0.16166970133781433,-2.119114637374878,-0.004934149794280529,36.7149133,3.1819176,62.37,-2.2,-3.71,-0.17,83,238,4.319880962371826,4.316523551940918
32,-0.13100512325763702,-2.10186505317688,-0.013359781354665756,36.7148802,3.1818461,62.43,-2.09,-3.69,-0.01,82,239,4.247622013092041,4.247591495513916
33,-0.029540086165070534,-2.1037468910217285,0.011894448660314083,36.7148532,3.1817874,62.42,-1.73,-3.05,0.04,82,239,3.517148494720459,3.5168607234954834
34,0.006353520322591066,-2.35495662689209,-0.07400674372911453,36.7148311,3.1817461,61.39,-1.2,-1.28,1.24,82,225,2.160470724105835,1.7621703147888184
35,-0.015300384722650051,-2.474362850189209,0.024802524596452713,36.7148163,3.1817305,59.13,-1.03,-0.79,1.44,81,218,1.945142388343811,1.304886817932129
36,-0.05414581298828125,-2.471696138381958,-0.018714066594839096,36.7148023,3.1817173,56.89,-1.04,-0.83,1.41,81,218,1.9522755146026611,1.3402618169784546
37,-0.011479832231998444,-2.47021484375,-0.009682540781795979,36.7147856,3.1817008,54.27,-1.06,-0.86,1.43,81,218,1.9856624603271484,1.373213291168213
38,-0.06947436183691025,-2.469691514968872,0.01658438891172409,36.7147711,3.1816863,52.04,-1.07,-0.88,1.44,80,218,2.0060577392578125,1.3875186443328857
39,-0.047763045877218246,-2.469226837158203,-0.023014990612864494,36.7147541,3.1816693,49.42,-1.07,-0.88,1.45,80,218,2.009674310684204,1.3868283033370972
40,-0.06090296432375908,-2.4698727130889893,0.019842835143208504,36.7147419,3.1816571,47.55,-1.06,-0.88,1.45,79,218,2.0122931003570557,1.3863807916641235
41,-0.04761502891778946,-2.469583749771118,-0.021521274000406265,36.714725,3.1816399,44.93,-1.07,-0.88,1.46,79,218,2.0202887058258057,1.3918497562408447
42,-0.009679990820586681,-2.46991229057312,-0.014070600271224976,36.7147079,3.1816228,42.31,-1.06,-0.88,1.46,79,218,2.0175230503082275,1.3841654062271118
43,-0.06094742193818092,-2.4693965911865234,0.017059650272130966,36.7146933,3.1816081,40.06,-1.07,-0.89,1.46,78,218,2.0244171619415283,1.39537513256073
44,-0.051640309393405914,-2.469235897064209,-0.01812806911766529,36.7146763,3.1815909,37.44,-1.06,-0.89,1.47,78,218,2.0226542949676514,1.3877065181732178
45,-0.015356241725385189,-2.4693260192871094,0.031002864241600037,36.7146617,3.1815761,35.19,-1.05,-0.88,1.47,78,218,2.0181257724761963,1.378732442855835
46,-0.05176395922899246,-2.469733715057373,-0.02166137471795082,36.7146472,3.1815615,32.95,-1.06,-0.87,1.47,77,218,2.01922869682312,1.3780369758605957
47,-0.009268190711736679,-2.4693098068237305,-0.007878084667026997,36.7146302,3.1815443,30.33,-1.06,-0.88,1.48,77,218,2.0303955078125,1.3874073028564453
48,-0.05379357933998108,-2.469818115234375,0.01959189772605896,36.7146155,3.1815295,28.07,-1.06,-0.88,1.47,77,218,2.0235676765441895,1.3800581693649292
49,-0.05396944284439087,-2.4696688652038574,-0.017567945644259453,36.7145985,3.1815124,25.44,-1.06,-0.87,1.47,76,218,2.0181660652160645,1.3763659000396729
50,-0.10057016462087631,-3.0360937118530273,-0.08292320370674133,36.7145807,3.1815005,23.28,-1.77,-0.27,1.18,76,186,2.157529354095459,1.8011852502822876
51,-0.24942414462566376,2.6695263385772705,-0.058154985308647156,36.7145462,3.1815118,22.44,-3.33,1.59,0.0,75,152,3.698469877243042,3.6984658241271973
52,-0.148643359541893,2.67203950881958,-0.019507525488734245,36.7144857,3.1815494,22.54,-4.01,2.05,0.01,75,153,4.508216857910156,4.5081892013549805
53,-0.04800575599074364,2.934943437576294,0.19430609047412872,36.7144329,3.1815774,22.49,-3.58,0.73,0.05,75,168,3.6614437103271484,3.661083221435547
54,-0.4062877595424652,-2.20218563079834,0.08640637248754501,36.7143833,3.181551,22.47,-2.97,-3.74,0.01,74,233,4.783609390258789,4.783576965332031
55,-0.48718148469924927,-2.1431758403778076,0.03294071555137634,36.7143363,3.1814617,22.47,-4.16,-6.61,0.0,74,237,7.821820259094238,7.821816444396973
56,-0.44165536761283875,-2.1471900939941406,-0.02063358761370182,36.714274,3.1813388,22.48,-4.91,-7.66,0.0,73,236,9.107563018798828,9.107563018798828
57,-0.3366582989692688,-2.1528537273406982,0.03230944648385048,36.7141963,3.1811891,22.5,-4.69,-7.21,0.0,73,236,8.609517097473145,8.609515190124512
58,-0.20679284632205963,-2.147467613220215,-0.002350809285417199,36.7141381,3.1810767,22.5,-3.85,-6.05,0.03,73,236,7.175069808959961,7.174985408782959
59,-0.26497775316238403,-2.120757579803467,0.04317620396614075,36.7140822,3.1809634,22.48,-3.38,-5.66,0.01,72,238,6.597286701202393,6.597259998321533
60,-0.2731795310974121,-2.108163595199585,-0.02058814838528633,36.7140374,3.1808684,22.48,-3.28,-5.66,0.01,72,239,6.548031806945801,6.548018455505371
61,-0.13333401083946228,-2.108473539352417,0.016175540164113045,36.7139862,3.180759,22.48,-3.05,-5.23,0.0,71,239,6.063536167144775,6.063535690307617
62,0.1179208904504776,-2.1090993881225586,-0.016623927280306816,36.7139523,3.1806867,22.46,-1.73,-2.95,0.04,71,239,3.429624080657959,3.429375648498535
63,0.14339882135391235,-2.1091232299804688,0.015938853845000267,36.7139398,3.1806597,22.46,-0.24,-0.43,-0.01,71,239,0.49769270420074463,0.4973013997077942
64,-0.025295214727520943,-2.110243558883667,0.07586770504713058,36.7139406,3.1806606,22.44,0.2,0.08,0.03,70,239,0.22201241552829742,0.2187155783176422
