timestamp,pitch,yaw,roll,lat,lon,alt,velocity_x,velocity_y,velocity_z,battery,heading,airspeed,groundspeed
0,-0.00685390317812562,-0.03947586193680763,0.03043304570019245,36.7156066,3.1846299,20.35,-0.02,0.03,0.0,96,357,0.04026100039482117,0.040038976818323135
1,-0.08895067870616913,-0.03260107338428497,0.09419433027505875,36.715608,3.1846327,20.3,0.37,0.6,0.0,95,358,0.7112329602241516,0.7111867666244507
2,-0.17944490909576416,1.4465428590774536,-0.12609818577766418,36.7156207,3.1846563,20.28,1.62,2.4,-0.02,95,82,2.9016666412353516,2.901547908782959
3,-0.13560131192207336,0.9087707996368408,0.008243859745562077,36.7156543,3.184717,20.32,2.41,3.51,-0.03,95,52,4.267001628875732,4.266861438751221
4,-0.022461285814642906,0.9415977001190186,-0.012370050884783268,36.715687,3.1847751,20.34,2.17,3.09,-0.01,94,53,3.7791311740875244,3.779083013534546
5,0.3572252690792084,0.8334091901779175,-0.06815754622220993,36.7157034,3.1848026,20.33,-0.62,-0.95,0.0,94,47,1.139156460762024,1.1391305923461914
6,-0.03739876672625542,-0.8674401044845581,-0.15575742721557617,36.715682,3.1847637,20.37,-2.19,-3.15,-0.02,93,310,3.845496892929077,3.8453943729400635
7,-0.12999078631401062,-2.3484137058258057,0.009582138620316982,36.7156517,3.1847086,20.37,-2.25,-3.26,0.01,93,225,3.970611810684204,3.9705827236175537
8,-0.019512061029672623,-1.5690972805023193,0.2079760730266571,36.7156297,3.1846457,20.35,-0.02,-2.9,0.01,93,270,2.9088358879089355,2.9088096618652344
9,-0.39887553453445435,-0.649582028388977,0.11198384314775467,36.7156552,3.1845976,20.34,3.78,-3.05,0.0,92,322,4.867746829986572,4.867746829986572
10,-0.5268541574478149,-0.6243419647216797,-0.01889851503074169,36.7157416,3.1845215,20.34,6.87,-4.73,0.0,92,324,8.350380897521973,8.350378036499023
11,-0.5127136707305908,-0.6188496351242065,0.026073072105646133,36.7158429,3.184434,20.36,7.87,-5.49,0.0,91,324,9.600170135498047,9.60016918182373
12,-0.37307479977607727,-0.6186846494674683,0.0175862368196249,36.7159495,3.1843404,20.38,7.68,-5.42,-0.01,91,324,9.401958465576172,9.401938438415527
13,-0.08633886277675629,-0.6226792931556702,0.0046598780900239944,36.7160571,3.1842456,20.41,5.49,-3.91,0.04,91,324,6.745904445648193,6.745750427246094
14,0.07827793806791306,-1.0477516651153564,-0.27354326844215393,36.7161083,3.1841904,20.49,1.69,-2.88,-0.19,90,299,3.351754903793335,3.346179723739624
15,-0.3712531328201294,-2.132636070251465,-0.04587298259139061,36.716096,3.1841242,21.47,-2.92,-4.4,-0.91,90,237,5.367584228515625,5.2896342277526855
16,-0.4802446663379669,-2.1628572940826416,-0.026232827454805374,36.7160418,3.184029,23.29,-4.82,-6.88,-1.42,89,236,8.530235290527344,8.409597396850586
17,-0.4939240515232086,-2.1630237102508545,0.0022176385391503572,36.7159702,3.1839004,25.67,-5.51,-8.02,-1.61,89,236,9.866896629333496,9.734432220458984
18,-0.42567580938339233,-2.165377378463745,-0.013611304573714733,36.7158822,3.1837396,28.55,-5.52,-8.17,-1.57,88,235,9.99526596069336,9.870226860046387
19,-0.47611916065216064,-2.1646997928619385,-0.021856503561139107,36.7158073,3.1836004,31.01,-5.52,-8.24,-1.57,88,235,10.047967910766602,9.923102378845215
20,-0.4343312680721283,-2.16469144821167,0.02638973668217659,36.7157202,3.1834381,33.89,-5.54,-8.27,-1.6,87,235,10.096500396728516,9.967580795288086
21,-0.42720621824264526,-2.1636908054351807,-0.021409649401903152,36.715645,3.1832981,36.38,-5.52,-8.28,-1.61,87,236,10.085997581481934,9.956247329711914
22,-0.4908738136291504,-2.1643710136413574,0.006824973504990339,36.7155703,3.1831585,38.88,-5.51,-8.27,-1.61,87,236,10.071826934814453,9.942261695861816
23,-0.4591899812221527,-2.1636929512023926,0.036114051938056946,36.7154956,3.183019,41.38,-5.51,-8.28,-1.61,86,236,10.079780578613281,9.9487886428833
24,-0.46963226795196533,-2.1651763916015625,-0.025932470336556435,36.7154084,3.182856,44.29,-5.52,-8.3,-1.63,86,235,10.10155963897705,9.969122886657715
25,-0.441220223903656,-2.166095495223999,0.04041380062699318,36.7153211,3.1826929,47.21,-5.53,-8.28,-1.63,85,235,10.098138809204102,9.964871406555176
26,-0.43484413623809814,-2.164985418319702,-0.010876170359551907,36.7152465,3.1825532,49.71,-5.49,-8.29,-1.63,85,235,10.085329055786133,9.952563285827637
27,-0.4934457540512085,-2.164496898651123,-0.006412999704480171,36.7151719,3.1824134,52.22,-5.51,-8.32,-1.63,84,235,10.112460136413574,9.979808807373047
28,-0.4256834089756012,-2.164196729660034,0.021263884380459785,36.7150847,3.1822499,55.14,-5.53,-8.29,-1.63,84,236,10.105140686035156,9.971808433532715
29,-0.28413259983062744,-2.1680068969726562,-0.024510104209184647,36.7150126,3.1821162,57.55,-4.91,-7.29,-1.46,83,235,8.915048599243164,8.79464340209961
30,-0.047947801649570465,-2.1618285179138184,0.031362831592559814,36.7149493,3.1819985,59.59,-3.04,-4.61,-0.72,83,236,5.573315143585205,5.525762557983398
31,-0.16242456436157227,-2.1222214698791504,-0.003433044534176588,36.7149153,3.181931,60.24,-2.21,-3.71,-0.19,83,238,4.324456691741943,4.3202595710754395
32,-0.13233911991119385,-2.102151393890381,-0.013072006404399872,36.7148821,3.1818596,60.32,-2.08,-3.67,-0.01,82,239,4.206969738006592,4.206961154937744
33,-0.041629526764154434,-2.103226661682129,0.01069666538387537,36.7148551,3.1818005,60.31,-1.78,-3.16,0.01,82,239,3.6299080848693848,3.6298654079437256
34,0.044703513383865356,-2.2680366039276123,-0.05426774173974991,36.7148351,3.1817609,59.69,-1.24,-1.57,0.95,82,230,2.223046064376831,2.005446672439575
35,-0.01931341178715229,-2.479222059249878,0.024988098070025444,36.7148173,3.1817404,57.19,-1.03,-0.79,1.45,81,217,1.9507962465286255,1.3024375438690186
36,-0.045540228486061096,-2.4720990657806396,-0.020951049402356148,36.7148033,3.1817274,54.95,-1.04,-0.82,1.42,81,218,1.9470683336257935,1.3281786441802979
37,-0.010205741040408611,-2.4701502323150635,-0.00289007811807096,36.7147867,3.1817111,52.34,-1.06,-0.87,1.44,80,218,1.9899814128875732,1.3720165491104126
38,-0.06405255198478699,-2.4698736667633057,0.006020345259457827,36.7147722,3.1816964,50.09,-1.06,-0.88,1.44,80,218,2.0046143531799316,1.3892802000045776
39,-0.01175133977085352,-2.4694762229919434,-0.004285925067961216,36.7147577,3.1816818,47.85,-1.07,-0.87,1.45,80,218,2.0076956748962402,1.386614441871643
40,-0.027330011129379272,-2.4695537090301514,0.025220144540071487,36.7147407,3.1816647,45.24,-1.07,-0.88,1.46,79,218,2.020085096359253,1.391783356666565
41,-0.03660442680120468,-2.469529867172241,-0.02475675381720066,36.714726,3.18165,42.99,-1.07,-0.89,1.46,79,218,2.025045156478882,1.3955714702606201
42,-0.009300438687205315,-2.4699621200561523,0.0037162841763347387,36.714709,3.181633,40.37,-1.07,-0.88,1.47,79,218,2.0244669914245605,1.389665126800537
43,-0.06327275931835175,-2.4691202640533447,-0.0031401286832988262,36.7146945,3.1816182,38.13,-1.06,-0.89,1.47,78,218,2.0267300605773926,1.3888665437698364
44,-0.009486140683293343,-2.4694883823394775,-0.0035486696287989616,36.7146799,3.1816034,35.87,-1.06,-0.88,1.47,78,218,2.0257298946380615,1.3886446952819824
45,-0.03552652895450592,-2.469674587249756,0.031173689290881157,36.7146628,3.1815862,33.25,-1.06,-0.88,1.47,78,218,2.0201363563537598,1.3838632106781006
46,-0.034975457936525345,-2.4697697162628174,-0.020988181233406067,36.7146483,3.1815716,31.01,-1.08,-0.88,1.48,77,218,2.036224842071533,1.3980027437210083
47,-0.041935160756111145,-2.469273805618286,0.025889553129673004,36.7146336,3.1815568,28.75,-1.05,-0.88,1.47,77,218,2.020692825317383,1.3768813610076904
48,-0.062082212418317795,-2.469662666320801,0.003822311758995056,36.7146166,3.1815397,26.13,-1.06,-0.88,1.47,76,218,2.020960569381714,1.3830078840255737
49,-0.006290695630013943,-2.4695324897766113,0.007056721020489931,36.7146021,3.181525,23.88,-1.06,-0.87,1.47,76,218,2.018326997756958,1.3769268989562988
50,-0.10916513949632645,-2.956427812576294,-0.0740799829363823,36.7145825,3.1815099,21.31,-1.69,-0.37,1.26,76,190,2.1493537425994873,1.7370219230651855
51,-0.23202723264694214,2.6709306240081787,-0.06652915477752686,36.7145495,3.1815189,20.33,-3.24,1.51,0.04,75,153,3.576503038406372,3.576242685317993
52,-0.14678123593330383,2.6725237369537354,0.0068710544146597385,36.7144897,3.181556,20.43,-4.0,2.04,0.0,75,153,4.500142574310303,4.5001420974731445
53,-0.05992812663316727,2.8850488662719727,0.15704691410064697,36.7144366,3.1815853,20.39,-3.64,0.93,0.05,75,165,3.762526750564575,3.762068033218384
54,-0.3125304877758026,-2.2985706329345703,0.1736586093902588,36.714393,3.1815728,20.36,-2.91,-2.79,0.02,74,228,4.034542560577393,4.0344648361206055
55,-0.5105546116828918,-2.141136646270752,0.022844435647130013,36.7143402,3.1814787,20.36,-4.05,-6.48,0.01,74,237,7.653223037719727,7.653210163116455
56,-0.44715777039527893,-2.147071599960327,0.0070384591817855835,36.7142787,3.1813575,20.37,-4.89,-7.65,0.0,73,236,9.089677810668945,9.089678764343262
57,-0.3692528307437897,-2.1521008014678955,0.009960307739675045,36.7142009,3.1812069,20.39,-4.73,-7.3,0.0,73,236,8.704397201538086,8.70439338684082
58,-0.20744475722312927,-2.1474404335021973,0.022520093247294426,36.714142,3.181093,20.39,-3.91,-6.11,0.02,73,236,7.258689880371094,7.258628845214844
59,-0.2986491024494171,-2.1259305477142334,-0.005614193622022867,36.7140932,3.1809953,20.36,-3.44,-5.7,0.02,72,238,6.669318199157715,6.669285774230957
60,-0.2534266710281372,-2.108428478240967,0.008951977826654911,36.7140405,3.180884,20.36,-3.28,-5.64,0.0,72,239,6.531215190887451,6.531210422515869
61,-0.23399555683135986,-2.108469247817993,-0.0018088180804625154,36.7139961,3.1807891,20.36,-3.17,-5.47,0.0,71,239,6.329102516174316,6.3291015625
62,0.09454302489757538,-2.1090190410614014,0.015096147544682026,36.7139587,3.1807092,20.36,-2.14,-3.66,0.03,71,239,4.245032787322998,4.244855880737305
63,0.11397156864404678,-2.1090691089630127,0.02884039282798767,36.7139402,3.1806696,20.35,-0.32,-0.57,-0.02,71,239,0.6593765616416931,0.6590128540992737
64,0.013446519151329994,-2.1084890365600586,-0.010661592707037926,36.71394,3.1806689,20.34,0.11,0.15,0.02,70,239,0.19219541549682617,0.18995238840579987
