timestamp,pitch,yaw,roll,lat,lon,alt,velocity_x,velocity_y,velocity_z,battery,heading,airspeed,groundspeed
0,0.02578624151647091,0.03295372799038887,0.011003273539245129,36.7156066,3.1846299,21.94,-0.02,0.02,-0.05,96,1,0.06919822096824646,0.036126986145973206
1,-0.0965476781129837,0.034682776778936386,0.09664136171340942,36.7156079,3.1846326,21.91,0.35,0.59,-0.03,95,1,0.6936050057411194,0.6925482153892517
2,-0.22144046425819397,1.4399800300598145,-0.11163587123155594,36.7156242,3.1846633,21.95,1.76,2.68,-0.03,95,82,3.210207223892212,3.209965705871582
3,-0.11672970652580261,0.9546331763267517,0.003036152571439743,36.7156525,3.1847163,21.95,2.25,3.37,-0.01,95,54,4.064720153808594,4.064683437347412
4,0.03615406155586243,0.9611266255378723,-0.0103890560567379,36.7156825,3.1847712,21.95,1.85,2.73,0.0,94,55,3.303537607192993,3.3035318851470947
5,0.33138543367385864,1.115502119064331,0.025884855538606644,36.7156921,3.1847874,21.97,-1.06,-1.57,-0.01,94,63,1.9019354581832886,1.9018919467926025
6,-0.0499894917011261,2.9593124389648438,0.1788451075553894,36.7156675,3.184743,21.93,-2.25,-3.19,0.03,93,169,3.9130780696868896,3.9129340648651123
7,-0.11095655709505081,-1.9019606113433838,0.0694662556052208,36.7156324,3.1846774,21.98,-1.97,-3.21,0.01,93,251,3.7697653770446777,3.769752025604248
8,-0.08345381170511246,-1.3478349447250366,0.2257940024137497,36.7156205,3.1846254,21.94,0.61,-2.79,0.01,93,282,2.8579158782958984,2.8578946590423584
9,-0.43966537714004517,-0.6579402685165405,0.09624973684549332,36.7156544,3.1845768,21.94,4.35,-3.27,0.0,92,322,5.452057361602783,5.452056884765625
10,-0.47765055298805237,-0.6265534162521362,0.0014725675573572516,36.7157319,3.1845088,21.94,6.85,-4.79,-0.01,92,324,8.367825508117676,8.367817878723145
11,-0.5088284015655518,-0.6225852966308594,0.015230178833007812,36.7158509,3.1844049,21.96,7.87,-5.55,0.0,91,324,9.634720802307129,9.63471794128418
12,-0.3478531241416931,-0.6221397519111633,0.028619330376386642,36.7159564,3.1843118,21.99,7.49,-5.32,-0.02,91,324,9.191987991333008,9.191965103149414
13,-0.03697392717003822,-0.6347801089286804,-0.04275023564696312,36.7160582,3.1842214,22.01,4.87,-3.62,0.04,91,323,6.073348522186279,6.073159217834473
14,-0.00799872912466526,-1.29879629611969,-0.30790412425994873,36.7160989,3.184169,22.17,0.76,-2.9,-0.29,90,285,3.021291971206665,3.007096767425537
15,-0.4152156114578247,-2.1441235542297363,-0.0023222945164889097,36.716075,3.1840974,23.35,-3.42,-4.9,-1.02,90,237,6.072201251983643,5.984391689300537
16,-0.45923852920532227,-2.160365104675293,-0.02446623332798481,36.7160158,3.1839936,25.32,-5.01,-7.23,-1.49,89,236,8.926383972167969,8.799796104431152
17,-0.4747063219547272,-2.1648781299591064,0.031916309148073196,36.71593,3.1838388,28.16,-5.49,-8.06,-1.6,89,235,9.88847541809082,9.758146286010742
18,-0.43219849467277527,-2.1628036499023438,0.009203752502799034,36.7158552,3.1837008,30.62,-5.53,-8.2,-1.57,88,236,10.025490760803223,9.901015281677246
19,-0.4529520273208618,-2.163240909576416,-0.03560516610741615,36.71578,3.1835612,33.09,-5.56,-8.26,-1.58,88,236,10.093185424804688,9.968247413635254
20,-0.45792606472969055,-2.167062520980835,0.03844230994582176,36.7156923,3.1833984,35.97,-5.52,-8.24,-1.6,87,235,10.05401611328125,9.924628257751465
21,-0.41600942611694336,-2.162747859954834,0.005745753645896912,36.7156178,3.183259,38.47,-5.48,-8.27,-1.61,87,236,10.056599617004395,9.926291465759277
22,-0.49336037039756775,-2.1630799770355225,0.005307519808411598,36.7155309,3.1830964,41.38,-5.54,-8.29,-1.61,87,236,10.10642147064209,9.976752281188965
23,-0.48380354046821594,-2.164259910583496,0.0263918936252594,36.7154682,3.1829796,43.46,-5.52,-8.3,-1.62,86,236,10.106388092041016,9.974505424499512
24,-0.43485239148139954,-2.1663594245910645,-0.019772915169596672,36.7153811,3.1828167,46.37,-5.5,-8.27,-1.62,86,235,10.072125434875488,9.939530372619629
25,-0.48712238669395447,-2.1633620262145996,0.028352266177535057,36.7152942,3.1826538,49.3,-5.5,-8.31,-1.62,85,236,10.101131439208984,9.969283103942871
26,-0.42968717217445374,-2.1624810695648193,0.01464221440255642,36.7152193,3.1825135,51.8,-5.53,-8.29,-1.63,85,236,10.100802421569824,9.967243194580078
27,-0.4863364100456238,-2.164604902267456,-0.004719770513474941,36.7151319,3.1823503,54.72,-5.51,-8.27,-1.63,84,235,10.076441764831543,9.943367958068848
28,-0.4392305612564087,-2.165945053100586,0.03347323462367058,36.7150573,3.1822111,57.23,-5.5,-8.25,-1.62,84,235,10.054208755493164,9.921599388122559
29,-0.20104221999645233,-2.1682703495025635,-0.008329617790877819,36.7149871,3.1820806,59.58,-4.65,-6.91,-1.38,83,235,8.451648712158203,8.337913513183594
30,-0.06720570474863052,-2.155348300933838,0.03941480442881584,36.714929,3.1819716,61.38,-2.75,-4.26,-0.6,83,236,5.111319541931152,5.075654029846191
31,-0.13303233683109283,-2.102708101272583,-0.008003546856343746,36.7148975,3.1819073,61.89,-2.11,-3.69,-0.13,83,239,4.258863925933838,4.25683069229126
32,-0.13094189763069153,-2.0862836837768555,0.01830034703016281,36.7148658,3.1818356,61.92,-2.02,-3.72,-0.02,82,240,4.2365803718566895,4.236531734466553
33,-0.009573770686984062,-2.0914933681488037,-0.032454557716846466,36.7148403,3.181778,61.89,-1.59,-2.87,0.11,82,240,3.2893362045288086,3.2874791622161865
34,0.03140462562441826,-2.336576461791992,-0.01982220821082592,36.714822,3.1817437,60.95,-1.19,-1.32,1.2,82,226,2.1557841300964355,1.7851183414459229
35,-0.05292930081486702,-2.4671640396118164,0.01924213021993637,36.714805,3.1817257,58.33,-1.03,-0.79,1.42,81,218,1.9343925714492798,1.303212285041809
36,-0.01695241592824459,-2.470453977584839,-0.008555098436772823,36.7147909,3.1817125,56.09,-1.04,-0.84,1.42,81,218,1.962009072303772,1.345632553100586
37,-0.023370126262307167,-2.469724178314209,0.02548174187541008,36.7147742,3.1816958,53.48,-1.07,-0.87,1.43,80,218,1.9938043355941772,1.3810185194015503
38,-0.04876941815018654,-2.4697725772857666,-0.02262629009783268,36.7147596,3.1816812,51.23,-1.07,-0.88,1.43,80,218,2.004239797592163,1.394875168800354
39,-0.021238330751657486,-2.469416618347168,0.027304252609610558,36.714745,3.1816666,49.0,-1.07,-0.87,1.45,80,218,2.0069868564605713,1.3839950561523438
40,-0.060670603066682816,-2.469794511795044,0.013292446732521057,36.714728,3.1816495,46.38,-1.06,-0.87,1.46,79,218,2.0102553367614746,1.3804316520690918
41,-0.008887769654393196,-2.469719648361206,-0.003419715678319335,36.7147135,3.1816349,44.13,-1.07,-0.88,1.46,79,218,2.0170531272888184,1.3913253545761108
42,-0.02782500348985195,-2.469682455062866,0.028677549213171005,36.7146965,3.1816177,41.51,-1.06,-0.88,1.46,79,218,2.020000457763672,1.3893102407455444
43,-0.028522595763206482,-2.4692094326019287,-0.026414286345243454,36.7146818,3.1816029,39.27,-1.06,-0.88,1.47,78,218,2.026045799255371,1.3879860639572144
44,-0.030974237248301506,-2.4697344303131104,0.028188316151499748,36.7146673,3.1815882,37.02,-1.06,-0.87,1.47,78,218,2.0192246437072754,1.3804423809051514
45,-0.059645045548677444,-2.469404697418213,-0.004773059859871864,36.7146502,3.1815711,34.39,-1.06,-0.88,1.47,78,218,2.0214428901672363,1.3843876123428345
46,-0.011233768425881863,-2.4698760509490967,0.006850214675068855,36.7146357,3.1815564,32.15,-1.06,-0.87,1.48,77,218,2.023874521255493,1.3801076412200928
47,-0.03761870414018631,-2.4694406986236572,0.02504340559244156,36.7146187,3.1815392,29.52,-1.05,-0.88,1.47,77,218,2.0158603191375732,1.3721691370010376
48,-0.027992160990834236,-2.469418525695801,-0.02500051259994507,36.7146041,3.1815244,27.27,-1.07,-0.88,1.47,76,218,2.026747465133667,1.3939507007598877
49,-0.012019944377243519,-2.470911979675293,-0.0006737085059285164,36.7145871,3.1815073,24.65,-1.06,-0.87,1.47,76,218,2.022273540496826,1.3798282146453857
50,-0.17068932950496674,3.128978967666626,-0.12269079685211182,36.7145678,3.1814968,22.55,-1.95,-0.06,1.04,76,179,2.2187225818634033,1.9569833278656006
51,-0.20510827004909515,2.6756255626678467,-0.014288396574556828,36.7145307,3.1815117,21.93,-3.52,1.72,-0.05,75,153,3.920562982559204,3.920170307159424
52,-0.1756591945886612,2.679405689239502,0.020167917013168335,36.7144682,3.1815502,22.03,-4.06,2.03,0.03,75,153,4.546173095703125,4.546009540557861
53,-0.009942540898919106,3.0248162746429443,0.1767636388540268,36.7144155,3.1815755,21.98,-3.51,0.42,0.04,75,173,3.5460033416748047,3.5456550121307373
54,-0.3943351209163666,-2.190727710723877,0.1202593445777893,36.7143665,3.1815413,21.96,-3.06,-4.11,0.01,74,234,5.129545211791992,5.129514217376709
55,-0.4907906949520111,-2.149319887161255,-0.022804144769906998,36.7143175,3.1814471,21.96,-4.28,-6.8,0.0,74,236,8.04368782043457,8.043682098388672
56,-0.4833657443523407,-2.147880792617798,0.011696115136146545,36.7142542,3.1813222,21.97,-4.91,-7.68,0.0,73,236,9.125527381896973,9.125526428222656
57,-0.3147463798522949,-2.153320789337158,-0.021894514560699463,36.7141772,3.1811737,22.0,-4.61,-7.1,0.0,73,236,8.471942901611328,8.471942901611328
58,-0.26063525676727295,-2.1441094875335693,0.027203446254134178,36.7141202,3.1810632,21.99,-3.75,-5.96,0.03,73,237,7.046480655670166,7.046398162841797
59,-0.2669866383075714,-2.111605405807495,-0.015405615791678429,36.7140652,3.1809502,21.97,-3.31,-5.66,0.01,72,239,6.559070110321045,6.559051513671875
60,-0.29972583055496216,-2.09969162940979,0.031371403485536575,36.7140213,3.1808552,21.97,-3.22,-5.65,0.01,72,239,6.511912822723389,6.511902809143066
61,-0.14198264479637146,-2.1001758575439453,-0.026108041405677795,36.7139715,3.1807465,21.97,-2.92,-5.1,0.0,71,239,5.877129554748535,5.8771281242370605
62,0.17451345920562744,-2.100665330886841,0.028195952996611595,36.7139401,3.1806784,21.94,-1.49,-2.61,0.03,71,239,3.0134871006011963,3.013305902481079
63,0.09704584628343582,-2.1005210876464844,-0.02566494606435299,36.71393,3.1806559,21.95,-0.15,-0.28,-0.01,71,239,0.31880903244018555,0.3183748424053192
64,0.0179155133664608,-2.099238872528076,0.06661159545183182,36.7139313,3.1806575,21.92,0.25,0.02,0.03,70,239,0.25649622082710266,0.2540530264377594
