timestamp,pitch,yaw,roll,lat,lon,alt,velocity_x,velocity_y,velocity_z,battery,heading,airspeed,groundspeed
0,-0.018774855881929398,0.0283257644623518,0.021180354058742523,36.7156067,3.1846299,17.68,-0.03,0.03,-0.02,96,1,0.055635638535022736,0.04944044351577759
1,-0.05157958343625069,0.0283721461892128,0.07634035497903824,36.7156078,3.1846324,17.74,0.32,0.56,0.0,95,1,0.6512297987937927,0.6511744856834412
2,-0.21300411224365234,1.3989028930664062,-0.05694591626524925,36.7156201,3.184655,17.69,1.55,2.35,-0.01,95,80,2.818833827972412,2.8188095092773438
3,-0.18179605901241302,0.9503761529922485,0.011015324853360653,36.7156519,3.1847149,17.73,2.27,3.45,-0.02,95,54,4.140085220336914,4.139995098114014
4,0.0516635999083519,0.9588449597358704,-0.007930751889944077,36.7156827,3.1847717,17.74,2.02,2.95,-0.01,94,54,3.5787088871002197,3.578683376312256
5,0.3610774576663971,0.917445719242096,0.015299075283110142,36.7156963,3.184795,17.73,-0.8,-1.21,0.0,94,52,1.457213044166565,1.4572091102600098
6,-0.06621785461902618,-0.8894681334495544,-0.18726257979869843,36.7156737,3.1847536,17.77,-2.22,-3.2,-0.02,93,309,3.9006519317626953,3.900566339492798
7,-0.08063912391662598,-2.353722333908081,0.06976884603500366,36.715643,3.184698,17.76,-2.21,-3.27,0.01,93,225,3.9531028270721436,3.953085422515869
8,-0.06882061809301376,-1.4694229364395142,0.27855291962623596,36.7156235,3.1846355,17.74,0.23,-2.82,0.0,93,275,2.8361072540283203,2.836089611053467
9,-0.3976408839225769,-0.6462287902832031,0.04663536325097084,36.7156528,3.1845873,17.74,4.03,-3.14,0.0,92,322,5.111687183380127,5.111685752868652
10,-0.5394988656044006,-0.6204254627227783,0.021863063797354698,36.7157268,3.1845223,17.74,6.7,-4.65,0.0,92,324,8.167222023010254,8.167217254638672
11,-0.4600291848182678,-0.619259238243103,-0.021757591515779495,36.7158448,3.1844201,17.76,7.86,-5.5,0.0,91,324,9.603981018066406,9.603976249694824
12,-0.4206249415874481,-0.6198031902313232,-0.01192336343228817,36.715951,3.1843269,17.78,7.6,-5.38,-0.01,91,324,9.316411972045898,9.316400527954102
13,-0.02016032487154007,-0.626013457775116,-0.03162083029747009,36.7160563,3.184234,17.81,5.27,-3.79,0.04,91,324,6.496531963348389,6.496345043182373
14,0.0012015707325190306,-1.1267287731170654,-0.2548961043357849,36.7161035,3.1841801,17.92,1.32,-2.87,-0.23,90,295,3.172163963317871,3.1636180877685547
15,-0.3991280496120453,-2.1341235637664795,-0.08343305438756943,36.7160864,3.1841117,18.98,-3.13,-4.6,-0.95,90,237,5.651376247406006,5.5697340965271
16,-0.5078054070472717,-2.159118413925171,0.026265494525432587,36.7160304,3.184013,20.87,-4.9,-7.03,-1.45,89,236,8.702705383300781,8.580687522888184
17,-0.43745866417884827,-2.1638588905334473,0.02958768606185913,36.7159578,3.1838831,23.26,-5.54,-8.03,-1.6,89,236,9.891880989074707,9.760117530822754
18,-0.4900607764720917,-2.1624815464019775,-0.02039380557835102,36.7158701,3.1837222,26.13,-5.51,-8.18,-1.57,88,236,9.998281478881836,9.873068809509277
19,-0.47941145300865173,-2.164001226425171,0.027545174583792686,36.7157952,3.1835832,28.6,-5.55,-8.25,-1.58,88,236,10.076749801635742,9.951224327087402
20,-0.4355677366256714,-2.1661579608917236,-0.019356744363904,36.7157074,3.1834202,31.49,-5.53,-8.27,-1.6,88,235,10.086326599121094,9.95854377746582
21,-0.48237574100494385,-2.1625523567199707,-0.010313835926353931,36.7156328,3.1832805,33.97,-5.47,-8.25,-1.61,87,236,10.030792236328125,9.900460243225098
22,-0.43241623044013977,-2.1637585163116455,0.014958886429667473,36.7155459,3.1831182,36.89,-5.52,-8.26,-1.62,87,236,10.071576118469238,9.94033145904541
23,-0.4542263150215149,-2.1647260189056396,-0.025971440598368645,36.715471,3.1829785,39.39,-5.53,-8.32,-1.62,86,235,10.132538795471191,10.0018949508667
24,-0.48951396346092224,-2.1620819568634033,0.0001221468555741012,36.7153962,3.1828382,41.88,-5.49,-8.29,-1.63,86,236,10.077411651611328,9.944591522216797
25,-0.4281628727912903,-2.1664133071899414,0.011719966307282448,36.715309,3.1826754,44.8,-5.53,-8.26,-1.63,85,235,10.081621170043945,9.948185920715332
26,-0.46408429741859436,-2.1646952629089355,-0.02905464544892311,36.7152343,3.1825358,47.31,-5.52,-8.32,-1.62,85,235,10.122587203979492,9.990901947021484
27,-0.4876100718975067,-2.1641647815704346,0.016550131142139435,36.7151596,3.1823955,49.81,-5.51,-8.3,-1.63,84,236,10.097691535949707,9.964186668395996
28,-0.4150989055633545,-2.165635347366333,-0.003979953471571207,36.7150723,3.1822327,52.73,-5.52,-8.26,-1.63,84,235,10.074650764465332,9.940990447998047
29,-0.2811422348022461,-2.167584180831909,-0.01805751956999302,36.715001,3.1821003,55.13,-4.8,-7.18,-1.42,84,235,8.764261245727539,8.646982192993164
30,-0.032825667411088943,-2.160093307495117,0.012471243739128113,36.7149399,3.1819858,57.07,-2.93,-4.47,-0.66,83,236,5.389334201812744,5.347636699676514
31,-0.1671396791934967,-2.118732213973999,0.0071816351264715195,36.7149067,3.1819197,57.66,-2.19,-3.7,-0.16,83,238,4.313758373260498,4.310543537139893
32,-0.13923272490501404,-2.101590633392334,-0.018478194251656532,36.7148737,3.1818482,57.72,-2.08,-3.69,-0.01,82,239,4.244223117828369,4.244205951690674
33,-0.027696756646037102,-2.10310435295105,0.011659069918096066,36.7148467,3.1817895,57.71,-1.72,-3.04,0.04,82,239,3.50490665435791,3.5046098232269287
34,0.04608948901295662,-2.2969682216644287,-0.05745657533407211,36.7148273,3.1817521,56.97,-1.22,-1.46,1.06,82,228,2.1829569339752197,1.9073436260223389
35,-0.029368454590439796,-2.474626302719116,0.023703405633568764,36.7148099,3.1817327,54.42,-1.02,-0.79,1.44,81,218,1.9450932741165161,1.299978256225586
36,-0.04030666500329971,-2.471881866455078,-0.02410151995718479,36.7147959,3.1817195,52.18,-1.05,-0.83,1.42,81,218,1.9578502178192139,1.3453621864318848
37,-0.011258686892688274,-2.470020294189453,0.006093122065067291,36.7147791,3.181703,49.57,-1.06,-0.86,1.44,81,218,1.9863377809524536,1.3669593334197998
38,-0.061291348189115524,-2.470240354537964,-0.006488537881523371,36.7147646,3.1816885,47.32,-1.06,-0.87,1.44,80,218,1.9955530166625977,1.375656247138977
39,-0.01024231594055891,-2.4696099758148193,0.013538552448153496,36.7147501,3.1816739,45.08,-1.06,-0.87,1.44,80,218,1.9988577365875244,1.378446102142334
40,-0.049922410398721695,-2.4700565338134766,0.026720859110355377,36.7147331,3.1816569,42.46,-1.06,-0.88,1.46,79,218,2.0158486366271973,1.3883981704711914
41,-0.015474310144782066,-2.4699714183807373,-0.01639746129512787,36.7147185,3.1816422,40.22,-1.06,-0.88,1.46,79,218,2.0168895721435547,1.3854670524597168
42,-0.019029047340154648,-2.469884157180786,0.025832919403910637,36.7147015,3.181625,37.59,-1.06,-0.88,1.46,79,218,2.0164284706115723,1.3864614963531494
43,-0.04080040380358696,-2.469496726989746,-0.022855771705508232,36.7146869,3.1816104,35.35,-1.06,-0.88,1.47,78,218,2.0226218700408936,1.3875463008880615
44,-0.0264530498534441,-2.4700794219970703,0.029683567583560944,36.7146723,3.1815957,33.1,-1.06,-0.88,1.47,78,218,2.0252604484558105,1.384184718132019
45,-0.06678896397352219,-2.4699196815490723,0.004957998171448708,36.7146553,3.1815785,30.48,-1.06,-0.89,1.47,78,218,2.0272464752197266,1.3940544128417969
46,-0.004430779255926609,-2.4702861309051514,0.0029158154502511024,36.7146407,3.1815637,28.23,-1.06,-0.88,1.47,77,218,2.022948741912842,1.3851784467697144
47,-0.04740181565284729,-2.4699299335479736,0.03159003332257271,36.7146237,3.1815466,25.61,-1.06,-0.89,1.48,77,218,2.031172513961792,1.3885616064071655
48,-0.023659585043787956,-2.469963312149048,-0.020987113937735558,36.7146091,3.1815319,23.36,-1.06,-0.87,1.47,77,218,2.021721601486206,1.3789337873458862
49,-0.05063142254948616,-2.470261812210083,0.028701920062303543,36.7145946,3.1815173,21.1,-1.05,-0.88,1.47,76,218,2.0182011127471924,1.3804444074630737
50,-0.14495506882667542,-3.028491735458374,-0.12427685409784317,36.7145743,3.1815028,18.57,-1.78,-0.27,1.19,76,186,2.1625945568084717,1.8042441606521606
51,-0.20691518485546112,2.6747052669525146,-0.0034545152448117733,36.7145396,3.181514,17.73,-3.36,1.56,0.0,75,153,3.7110657691955566,3.711063861846924
52,-0.19537542760372162,2.6792006492614746,0.004428025800734758,36.7144784,3.1815514,17.83,-4.07,2.04,0.01,75,153,4.556042671203613,4.556020736694336
53,-0.00181309983599931,2.9313852787017822,0.1597699373960495,36.7144248,3.1815796,17.78,-3.63,0.77,0.05,75,167,3.721592903137207,3.721212148666382
54,-0.38238903880119324,-2.278398036956787,0.16264960169792175,36.7143815,3.1815639,17.76,-2.92,-2.98,0.02,74,229,4.1799235343933105,4.179856777191162
55,-0.46496182680130005,-2.1441683769226074,-0.019128018990159035,36.7143279,3.1814669,17.76,-4.14,-6.59,0.0,74,237,7.785627841949463,7.785622596740723
56,-0.4942750334739685,-2.148083209991455,-0.010645302012562752,36.7142659,3.1813446,17.77,-4.89,-7.68,0.0,73,236,9.108111381530762,9.108110427856445
57,-0.3081424832344055,-2.1524250507354736,-0.004384153988212347,36.7141884,3.1811944,17.79,-4.7,-7.24,0.0,73,236,8.64210033416748,8.642095565795898
58,-0.2611066401004791,-2.1459858417510986,-0.00790761224925518,36.7141301,3.1810817,17.79,-3.87,-6.08,0.03,73,237,7.2170305252075195,7.216958999633789
59,-0.24327193200588226,-2.114391803741455,0.00533228600397706,36.7140743,3.1809681,17.76,-3.34,-5.67,0.01,72,238,6.583917140960693,6.583899021148682
60,-0.30519160628318787,-2.100696325302124,-0.00039998022839426994,36.7140301,3.180873,17.76,-3.21,-5.65,0.01,72,239,6.505623817443848,6.505614280700684
61,-0.17682909965515137,-2.099916696548462,0.021139835938811302,36.7139868,3.1807782,17.77,-3.09,-5.43,0.0,71,239,6.259936332702637,6.259936332702637
62,0.07544736564159393,-2.1009552478790283,-0.034679874777793884,36.7139506,3.1806997,17.76,-2.04,-3.55,0.04,71,239,4.097665786743164,4.097455024719238
63,0.14951962232589722,-2.1010029315948486,-0.009837906807661057,36.7139336,3.1806624,17.75,-0.26,-0.48,-0.01,71,239,0.5508918166160583,0.5506031513214111
64,-0.0018794586649164557,-2.1010706424713135,0.08153045922517776,36.713934,3.1806629,17.74,0.17,0.09,0.01,70,239,0.20419110357761383,0.20349201560020447
