timestamp,pitch,yaw,roll,lat,lon,alt,velocity_x,velocity_y,velocity_z,battery,heading,airspeed,groundspeed
0,0.011090515181422234,0.04036170616745949,-0.021159803494811058,36.7156067,3.1846299,17.14,-0.02,0.02,-0.04,96,2,0.05539841577410698,0.03498648479580879
1,-0.06653966009616852,0.03675821051001549,0.11883749067783356,36.7156078,3.1846322,17.21,0.31,0.52,-0.01,95,2,0.6115143299102783,0.6113958358764648
2,-0.2372293919324875,1.3797863721847534,-0.11760031431913376,36.7156195,3.1846535,17.17,1.5,2.26,0.0,95,79,2.719350576400757,2.7193329334259033
3,-0.16326336562633514,0.9414636492729187,-0.02796485647559166,36.7156518,3.1847126,17.19,2.37,3.47,-0.02,95,53,4.213272571563721,4.213188648223877
4,-0.05002463608980179,0.9479221701622009,0.014841891825199127,36.7156844,3.1847709,17.2,2.23,3.2,-0.01,94,54,3.90712833404541,3.9071106910705566
5,0.34122219681739807,0.877992570400238,-0.04558577388525009,36.7157038,3.184804,17.19,-0.36,-0.58,0.01,94,50,0.6911448240280151,0.6910121440887451
6,-0.004870935343205929,-0.7587555646896362,-0.18630535900592804,36.7156846,3.1847686,17.22,-2.15,-3.09,-0.03,93,316,3.7675187587738037,3.7673535346984863
7,-0.09955263137817383,-2.4025299549102783,0.08720078319311142,36.7156492,3.1847042,17.22,-2.18,-3.25,0.01,93,222,3.9244818687438965,3.924464702606201
8,-0.033973775804042816,-1.6461060047149658,0.17948509752750397,36.7156298,3.1846502,17.21,-0.31,-2.94,0.01,93,265,2.958760976791382,2.958740472793579
9,-0.36821702122688293,-0.6440345048904419,0.11266151070594788,36.7156509,3.1846025,17.2,3.46,-2.96,0.0,92,323,4.56334924697876,4.56334924697876
10,-0.4867875576019287,-0.6098828315734863,-0.01761642098426819,36.7157188,3.1845416,17.2,6.37,-4.44,0.0,92,325,7.767478942871094,7.767477512359619
11,-0.49666064977645874,-0.6153484582901001,0.026214903220534325,36.7158338,3.1844422,17.22,7.82,-5.46,0.0,91,324,9.542998313903809,9.542993545532227
12,-0.4011022746562958,-0.6186988949775696,-0.028193965554237366,36.7159576,3.1843335,17.24,7.6,-5.36,-0.01,91,324,9.306525230407715,9.306510925292969
13,-0.11445344239473343,-0.6224045157432556,0.021908603608608246,36.7160503,3.1842517,17.27,5.75,-4.09,0.03,91,324,7.068835258483887,7.068736553192139
14,0.0943840816617012,-0.9593074321746826,-0.2512049376964569,36.716106,3.1841947,17.32,2.07,-2.9,-0.15,90,305,3.5794787406921387,3.576246500015259
15,-0.3524346649646759,-2.128476858139038,-0.07099296897649765,36.7160994,3.1841305,18.21,-2.66,-4.21,-0.85,90,238,5.05827522277832,4.985566139221191
16,-0.4809805452823639,-2.165114641189575,-0.028220396488904953,36.7160475,3.1840391,19.96,-4.7,-6.73,-1.39,89,235,8.340405464172363,8.222299575805664
17,-0.4670102894306183,-2.163337230682373,0.03660403564572334,36.7159642,3.1838896,22.72,-5.55,-8.01,-1.61,89,236,9.884126663208008,9.751838684082031
18,-0.4254906475543976,-2.1658682823181152,-0.0012004772434011102,36.7158887,3.1837519,25.2,-5.53,-8.15,-1.57,88,235,9.983778953552246,9.858684539794922
19,-0.4726211130619049,-2.16294002532959,-0.02672797441482544,36.715814,3.1836129,27.65,-5.54,-8.25,-1.58,88,236,10.075231552124023,9.949838638305664
20,-0.4378105401992798,-2.1664113998413086,0.03646408021450043,36.7157262,3.1834499,30.54,-5.55,-8.26,-1.6,88,235,10.087944030761719,9.959417343139648
21,-0.4171029031276703,-2.163623094558716,-0.013537758029997349,36.7156513,3.1833103,33.03,-5.48,-8.25,-1.6,87,236,10.041304588317871,9.912203788757324
22,-0.48554158210754395,-2.1634843349456787,0.02024066634476185,36.7155645,3.1831478,35.94,-5.51,-8.27,-1.61,87,236,10.075359344482422,9.945643424987793
23,-0.43087461590766907,-2.1638851165771484,0.02953529730439186,36.7154897,3.1830082,38.43,-5.54,-8.3,-1.63,86,236,10.116793632507324,9.984206199645996
24,-0.48403435945510864,-2.1633858680725098,-0.015963993966579437,36.7154024,3.1828447,41.36,-5.5,-8.28,-1.62,86,236,10.082419395446777,9.951305389404297
25,-0.47210511565208435,-2.167804718017578,0.04070834070444107,36.7153275,3.182705,43.86,-5.53,-8.28,-1.63,85,235,10.098352432250977,9.965632438659668
26,-0.42952394485473633,-2.1636691093444824,0.017910242080688477,36.7152529,3.1825654,46.35,-5.5,-8.31,-1.63,85,236,10.103625297546387,9.969943046569824
27,-0.49236664175987244,-2.163954257965088,-0.005954197607934475,36.7151658,3.182402,49.28,-5.53,-8.29,-1.63,84,236,10.107250213623047,9.974321365356445
28,-0.456496924161911,-2.1655147075653076,0.03850666433572769,36.7150908,3.1822622,51.79,-5.51,-8.28,-1.63,84,235,10.084821701049805,9.951262474060059
29,-0.2679388225078583,-2.1688318252563477,-0.02240663208067417,36.7150072,3.1821067,54.59,-4.8,-7.15,-1.43,83,235,8.735759735107422,8.617125511169434
30,-0.08569973707199097,-2.164310932159424,0.02730429358780384,36.7149531,3.1820055,56.35,-3.15,-4.77,-0.78,83,236,5.779541492462158,5.725819110870361
31,-0.12419120967388153,-2.125720500946045,-0.004359920974820852,36.714918,3.1819367,57.08,-2.23,-3.7,-0.22,83,238,4.332727432250977,4.3270087242126465
32,-0.1458626091480255,-2.101740598678589,0.0319073386490345,36.7148848,3.1818653,57.18,-2.08,-3.68,0.0,82,239,4.23213005065918,4.232123374938965
33,-0.033843331038951874,-2.1030592918395996,-0.02478148229420185,36.7148571,3.1818051,57.18,-1.85,-3.28,0.0,82,239,3.767792224884033,3.7677907943725586
34,0.024401672184467316,-2.23569393157959,-0.023608140647411346,36.7148364,3.1817633,56.67,-1.24,-1.66,0.83,82,231,2.2391674518585205,2.0767760276794434
35,-0.05927414074540138,-2.4843740463256836,0.002850482240319252,36.7148185,3.1817419,54.25,-1.02,-0.79,1.46,81,217,1.9571727514266968,1.2992419004440308
36,-0.0091702900826931,-2.472228765487671,0.00939713604748249,36.7148046,3.1817288,52.01,-1.04,-0.82,1.42,81,218,1.946435809135437,1.3256216049194336
37,-0.04567814618349075,-2.470374584197998,0.029442016035318375,36.7147879,3.1817124,49.39,-1.05,-0.87,1.43,81,218,1.9832792282104492,1.3717542886734009
38,-0.020104099065065384,-2.46966552734375,-0.01980706676840782,36.7147734,3.1816978,47.14,-1.06,-0.88,1.44,80,218,1.9968351125717163,1.383371353149414
39,-0.017743157222867012,-2.469026803970337,0.021845635026693344,36.7147564,3.1816808,44.54,-1.06,-0.87,1.45,80,218,2.0046474933624268,1.379517674446106
40,-0.017049375921487808,-2.4695487022399902,-0.018228156492114067,36.7147443,3.1816686,42.66,-1.07,-0.88,1.46,80,218,2.016785144805908,1.3909984827041626
41,-0.016741331666707993,-2.4694406986236572,0.024443721398711205,36.7147273,3.1816515,40.04,-1.06,-0.88,1.46,79,218,2.0122342109680176,1.384081482887268
42,-0.05779970437288284,-2.4700188636779785,0.01435631513595581,36.7147103,3.1816343,37.43,-1.06,-0.89,1.47,79,218,2.0234808921813965,1.3869991302490234
43,-0.009998317807912827,-2.4692137241363525,-0.0020453014876693487,36.7146957,3.1816196,35.18,-1.07,-0.88,1.47,78,218,2.0280582904815674,1.3923290967941284
44,-0.024955082684755325,-2.469647169113159,0.0295402929186821,36.7146786,3.1816024,32.55,-1.06,-0.88,1.47,78,218,2.02028751373291,1.3844407796859741
45,-0.03777427598834038,-2.46938157081604,-0.02601204439997673,36.7146641,3.1815878,30.31,-1.06,-0.88,1.47,78,218,2.0275020599365234,1.3877508640289307
46,-0.03709965571761131,-2.4697184562683105,0.029857328161597252,36.7146496,3.181573,28.06,-1.05,-0.88,1.47,77,218,2.020773410797119,1.3781427145004272
47,-0.059634242206811905,-2.4695229530334473,-0.0014343054499477148,36.7146325,3.1815558,25.43,-1.06,-0.88,1.47,77,218,2.020409107208252,1.3842731714248657
48,-0.007592379581183195,-2.4691460132598877,0.00927268248051405,36.7146179,3.1815411,23.18,-1.07,-0.87,1.47,77,218,2.020092248916626,1.3842496871948242
49,-0.045947980135679245,-2.469836950302124,0.02835358865559101,36.7146009,3.181524,20.56,-1.06,-0.88,1.48,76,218,2.028148889541626,1.3862321376800537
50,-0.07833198457956314,-2.8687353134155273,-0.12001457810401917,36.7145843,3.1815108,18.34,-1.58,-0.48,1.32,76,195,2.1234207153320312,1.6591922044754028
51,-0.2522592544555664,2.6789820194244385,-0.011177166365087032,36.7145533,3.1815171,17.2,-3.1,1.37,0.1,75,153,3.3960142135620117,3.394362449645996
52,-0.18602342903614044,2.67278790473938,-0.02604476362466812,36.7144946,3.181553,17.29,-4.01,2.04,-0.01,75,153,4.510572910308838,4.510550022125244
53,-0.025888457894325256,2.838374614715576,0.15969090163707733,36.714441,3.1815839,17.25,-3.7,1.14,0.06,75,162,3.884061574935913,3.883558511734009
54,-0.38645994663238525,-2.2593488693237305,0.15046904981136322,36.7143898,3.1815693,17.22,-2.91,-3.11,0.02,74,230,4.266434192657471,4.266373634338379
55,-0.4503464996814728,-2.1403117179870605,0.013666629791259766,36.714345,3.1814888,17.22,-3.96,-6.29,0.01,74,237,7.434520721435547,7.434504508972168
56,-0.4808598756790161,-2.146425247192383,-0.03174383193254471,36.7142847,3.1813693,17.23,-4.84,-7.62,0.0,73,237,9.035426139831543,9.035425186157227
57,-0.34150615334510803,-2.1523935794830322,0.023659132421016693,36.714207,3.1812185,17.25,-4.81,-7.39,0.0,73,236,8.822274208068848,8.822269439697266
58,-0.23429487645626068,-2.1497833728790283,-0.016862310469150543,36.714147,3.1811031,17.25,-4.01,-6.25,0.03,73,236,7.431391716003418,7.431328773498535
59,-0.25189009308815,-2.1230130195617676,0.034631531685590744,36.7140897,3.1809881,17.23,-3.41,-5.67,0.01,72,238,6.62913179397583,6.629105567932129
60,-0.27804866433143616,-2.1096177101135254,-0.016841046512126923,36.7140446,3.1808929,17.23,-3.28,-5.64,0.01,72,239,6.530510425567627,6.530501365661621
61,-0.23373539745807648,-2.1089401245117188,0.030279308557510376,36.7140002,3.180798,17.23,-3.21,-5.53,0.0,71,239,6.405189514160156,6.40518856048584
62,0.06932074576616287,-2.109189987182617,-0.01682845503091812,36.7139566,3.180705,17.21,-2.02,-3.47,0.04,71,239,4.026957035064697,4.02675199508667
63,0.15738821029663086,-2.109187364578247,0.022640155628323555,36.7139406,3.1806707,17.2,-0.42,-0.73,-0.02,71,239,0.8475625514984131,0.8472893238067627
64,-0.02330937050282955,-2.109729290008545,0.04279707372188568,36.7139401,3.1806693,17.2,0.12,0.13,0.03,70,239,0.18889959156513214,0.18556948006153107
