timestamp,pitch,yaw,roll,lat,lon,alt,velocity_x,velocity_y,velocity_z,battery,heading,airspeed,groundspeed
0,0.027440953999757767,-0.0531260184943676,0.01076673623174429,36.7156066,3.1846299,17.19,-0.02,0.02,-0.03,96,356,0.04854574427008629,0.034513961523771286
1,-0.0761137306690216,-0.05761982500553131,0.09163307398557663,36.7156076,3.1846319,17.25,0.27,0.49,-0.01,95,356,0.5634119510650635,0.5632222294807434
2,-0.2050856649875641,1.5277084112167358,-0.1367185413837433,36.7156212,3.1846593,17.21,1.6,2.47,-0.01,95,87,2.954219341278076,2.954174757003784
3,-0.1316366195678711,0.8444781303405762,0.01850881054997444,36.715648,3.1847102,17.24,2.2,3.39,-0.02,95,48,4.046800136566162,4.046728134155273
4,-0.037760861217975616,0.9604911804199219,-0.0068302215076982975,36.715678,3.1847668,17.25,2.03,3.1,0.0,94,55,3.707770586013794,3.707759141921997
5,0.3503366708755493,1.1125422716140747,0.017917506396770477,36.7156937,3.1847959,17.23,-0.57,-0.82,0.01,94,63,1.0034656524658203,1.0033981800079346
6,-0.04297938197851181,2.790512800216675,0.22021114826202393,36.715673,3.1847584,17.27,-2.16,-3.09,-0.02,93,159,3.781491756439209,3.781388759613037
7,-0.13614210486412048,-1.9159576892852783,0.030568843707442284,36.7156378,3.1846939,17.26,-2.16,-3.26,0.01,93,250,3.919976234436035,3.9199633598327637
8,-0.008990831673145294,-1.6099144220352173,0.2103903442621231,36.7156198,3.1846403,17.24,-0.07,-2.93,0.0,93,267,2.9311084747314453,2.9310951232910156
9,-0.40722551941871643,-0.6637161374092102,0.10685347020626068,36.7156445,3.184592,17.24,3.71,-3.04,0.0,92,321,4.804006576538086,4.8040056228637695
10,-0.4636608362197876,-0.6200749278068542,0.014645129442214966,36.7157149,3.1845287,17.24,6.49,-4.53,0.0,92,324,7.915713787078857,7.915712356567383
11,-0.5282285213470459,-0.621418297290802,0.009752615354955196,36.7158306,3.1844282,17.26,7.85,-5.5,0.0,91,324,9.591672897338867,9.591672897338867
12,-0.3516545295715332,-0.6238889694213867,-0.013786593452095985,36.7159542,3.1843193,17.28,7.51,-5.35,-0.02,91,324,9.223325729370117,9.223289489746094
13,-0.09900737553834915,-0.6255563497543335,-0.01854121685028076,36.7160445,3.1842391,17.3,5.48,-3.93,0.03,91,324,6.746373653411865,6.746284484863281
14,0.08523979038000107,-1.056983232498169,-0.25573888421058655,36.7160953,3.1841837,17.38,1.67,-2.89,-0.2,90,299,3.356127977371216,3.350024700164795
15,-0.39657384157180786,-2.1286048889160156,-0.04316099360585213,36.7160832,3.1841169,18.37,-2.91,-4.41,-0.91,90,238,5.3744096755981445,5.296138286590576
16,-0.4500715732574463,-2.163217544555664,-0.012781697325408459,36.7160287,3.1840214,20.2,-4.84,-6.88,-1.43,89,236,8.541857719421387,8.420310020446777
17,-0.49080774188041687,-2.1651418209075928,0.023144135251641273,36.7159444,3.1838706,22.99,-5.54,-8.04,-1.6,89,235,9.901350021362305,9.770296096801758
18,-0.4291814863681793,-2.163832187652588,0.021495897322893143,36.7158692,3.1837327,25.45,-5.52,-8.2,-1.58,88,236,10.023585319519043,9.897439002990723
19,-0.43870216608047485,-2.1639888286590576,-0.0320056714117527,36.7157942,3.1835931,27.91,-5.54,-8.26,-1.59,88,236,10.083097457885742,9.95656681060791
20,-0.4643520414829254,-2.164696216583252,0.04007969796657562,36.7157065,3.1834302,30.8,-5.52,-8.26,-1.6,88,235,10.069832801818848,9.940346717834473
21,-0.42548704147338867,-2.1630523204803467,0.011164509691298008,36.7156317,3.1832907,33.29,-5.51,-8.23,-1.61,87,236,10.042647361755371,9.911434173583984
22,-0.4983275830745697,-2.1646604537963867,0.004111382644623518,36.7155449,3.1831285,36.19,-5.51,-8.29,-1.62,87,235,10.091952323913574,9.960346221923828
23,-0.4509877562522888,-2.1640100479125977,0.03613997623324394,36.7154702,3.1829884,38.69,-5.52,-8.3,-1.64,86,236,10.112635612487793,9.978482246398926
24,-0.4625205099582672,-2.1635189056396484,-0.03088563308119774,36.7153827,3.182825,41.61,-5.52,-8.29,-1.63,86,236,10.095660209655762,9.961872100830078
25,-0.48931482434272766,-2.16546368598938,0.02485935017466545,36.7153079,3.1826855,44.11,-5.5,-8.24,-1.63,85,235,10.049304962158203,9.914956092834473
26,-0.4412875175476074,-2.163501501083374,0.027580872178077698,36.7152332,3.1825457,46.62,-5.51,-8.3,-1.64,85,236,10.099604606628418,9.965510368347168
27,-0.4816270172595978,-2.1640522480010986,-0.023278923705220222,36.7151462,3.1823823,49.55,-5.52,-8.28,-1.62,84,236,10.085651397705078,9.953083038330078
28,-0.4731714129447937,-2.166364908218384,0.03310846909880638,36.7150714,3.1822428,52.05,-5.52,-8.28,-1.63,84,235,10.095146179199219,9.961566925048828
29,-0.23023216426372528,-2.1685452461242676,-0.022689256817102432,36.7149885,3.1820889,54.83,-4.68,-6.96,-1.39,83,235,8.511799812316895,8.39595890045166
30,-0.09316182881593704,-2.161691188812256,0.025421451777219772,36.7149366,3.1819916,56.49,-3.01,-4.6,-0.72,83,236,5.5551652908325195,5.5076904296875
31,-0.11787724494934082,-2.1106674671173096,0.003129754913970828,36.714903,3.1819244,57.14,-2.17,-3.71,-0.19,83,239,4.314851760864258,4.310445308685303
32,-0.14876359701156616,-2.085578441619873,0.030232559889554977,36.7148707,3.1818524,57.22,-2.0,-3.68,0.0,82,240,4.197344779968262,4.197336673736572
33,-0.013493533246219158,-2.087132215499878,-0.02728906460106373,36.7148445,3.181793,57.22,-1.7,-3.14,0.02,82,240,3.575606346130371,3.5755128860473633
34,0.03873724862933159,-2.3290791511535645,-0.04509952291846275,36.7148226,3.1817498,56.3,-1.2,-1.36,1.18,82,226,2.17208194732666,1.8203378915786743
35,-0.06059214845299721,-2.4791407585144043,-0.007252223324030638,36.7148076,3.1817335,54.07,-1.03,-0.8,1.45,81,217,1.9613105058670044,1.3119515180587769
36,-0.012829340994358063,-2.4724531173706055,0.012256721034646034,36.7147936,3.1817204,51.82,-1.04,-0.82,1.42,81,218,1.953844428062439,1.3316528797149658
37,-0.04842072352766991,-2.47078537940979,0.027545131742954254,36.7147769,3.181704,49.21,-1.06,-0.87,1.44,81,218,1.993161916732788,1.3779199123382568
38,-0.02213861234486103,-2.470116138458252,-0.02160230092704296,36.7147624,3.1816895,46.97,-1.07,-0.88,1.44,80,218,2.0085537433624268,1.3915414810180664
39,-0.018082711845636368,-2.4693167209625244,0.020810944959521294,36.7147454,3.1816724,44.35,-1.07,-0.87,1.45,80,218,2.0126328468322754,1.387637972831726
40,-0.060171663761138916,-2.4697940349578857,-0.012310798279941082,36.7147309,3.1816578,42.11,-1.07,-0.88,1.46,79,218,2.0265183448791504,1.3970571756362915
41,-0.01568537950515747,-2.469740390777588,0.020974712446331978,36.7147163,3.1816432,39.87,-1.07,-0.88,1.47,79,218,2.028749942779541,1.391283392906189
42,-0.05688809975981712,-2.470521926879883,0.020112816244363785,36.7146992,3.1816259,37.25,-1.06,-0.87,1.47,79,218,2.020548105239868,1.3786487579345703
43,-0.00827950332313776,-2.4696450233459473,-0.010404666885733604,36.7146846,3.1816112,35.0,-1.06,-0.88,1.47,78,218,2.0247178077697754,1.385044813156128
44,-0.019255973398685455,-2.4696784019470215,0.023772230371832848,36.7146676,3.1815941,32.37,-1.06,-0.87,1.47,78,218,2.020219087600708,1.3774265050888062
45,-0.04465509206056595,-2.4697067737579346,-0.02259504795074463,36.714653,3.1815794,30.12,-1.06,-0.88,1.47,78,218,2.027538776397705,1.388837456703186
46,-0.025130437687039375,-2.469925880432129,0.023656535893678665,36.7146385,3.1815646,27.87,-1.06,-0.87,1.47,77,218,2.017906665802002,1.3771328926086426
47,-0.06004820019006729,-2.4699361324310303,0.010210868902504444,36.7146214,3.1815475,25.25,-1.06,-0.88,1.47,77,218,2.023059368133545,1.3836466073989868
48,-0.010052438825368881,-2.4697539806365967,-0.003707880387082696,36.7146069,3.1815328,23.0,-1.07,-0.87,1.48,77,218,2.0295262336730957,1.3866310119628906
49,-0.0299686249345541,-2.470191240310669,0.02587975561618805,36.7145898,3.1815156,20.38,-1.05,-0.87,1.48,76,218,2.0238840579986572,1.3773635625839233
50,-0.11094885319471359,-2.966003179550171,-0.13288243114948273,36.7145725,3.1815031,18.19,-1.7,-0.36,1.25,76,190,2.149332284927368,1.7460790872573853
51,-0.1960701048374176,2.6742279529571533,-0.02201801910996437,36.7145316,3.1815169,17.24,-3.47,1.67,-0.03,75,153,3.86283540725708,3.8626346588134766
52,-0.19651806354522705,2.6798155307769775,-0.009663907811045647,36.7144787,3.1815493,17.33,-4.07,2.03,0.0,75,153,4.554277420043945,4.554276943206787
53,-0.01087656058371067,2.88944149017334,0.15996214747428894,36.7144249,3.1815785,17.29,-3.69,0.94,0.05,75,165,3.8162686824798584,3.8158135414123535
54,-0.3881446421146393,-2.226093053817749,0.15580381453037262,36.7143742,3.1815582,17.26,-2.96,-3.37,0.02,74,232,4.491374969482422,4.491323471069336
55,-0.4545181095600128,-2.140993118286133,-0.012661025859415531,36.7143279,3.1814736,17.26,-4.04,-6.43,0.01,74,237,7.600762367248535,7.6007466316223145
56,-0.49816226959228516,-2.146808624267578,-0.02365626022219658,36.7142666,3.1813527,17.27,-4.85,-7.65,0.0,73,237,9.062699317932129,9.062699317932129
57,-0.32183200120925903,-2.151487112045288,-0.002110132947564125,36.7141894,3.1812026,17.29,-4.74,-7.34,0.0,73,236,8.744793891906738,8.744790077209473
58,-0.25323858857154846,-2.1475160121917725,-0.008465529419481754,36.7141301,3.1810883,17.29,-3.93,-6.17,0.02,73,236,7.325358867645264,7.325311183929443
59,-0.24236071109771729,-2.1157591342926025,0.008812852203845978,36.7140738,3.1809739,17.26,-3.34,-5.66,0.01,72,238,6.580036640167236,6.580021381378174
60,-0.30283087491989136,-2.1002137660980225,-0.007435918785631657,36.7140297,3.1808788,17.26,-3.21,-5.64,0.0,72,239,6.495523452758789,6.495519638061523
61,-0.15328946709632874,-2.100189208984375,-0.01554473489522934,36.7139792,3.1807686,17.26,-3.04,-5.32,0.0,71,239,6.1359028816223145,6.13590145111084
62,0.0479879193007946,-2.1005821228027344,-0.023716818541288376,36.7139491,3.1807034,17.25,-2.13,-3.71,0.03,71,239,4.289205551147461,4.289061546325684
63,0.14854468405246735,-2.100912570953369,-0.01330646127462387,36.7139308,3.1806633,17.24,-0.33,-0.58,-0.02,71,239,0.6789865493774414,0.6785585880279541
64,0.01097751222550869,-2.10056734085083,0.06758583337068558,36.7139306,3.1806624,17.23,0.16,0.11,0.04,70,239,0.2020297348499298,0.19753754138946533
