timestamp,pitch,yaw,roll,lat,lon,alt,velocity_x,velocity_y,velocity_z,battery,heading,airspeed,groundspeed
0,0.027684492990374565,-0.02288741059601307,-0.002392061287537217,36.7156067,3.1846299,18.54,-0.02,0.02,0.03,96,358,0.05068855360150337,0.03811734914779663
1,-0.07455740869045258,-0.028958303853869438,0.10101883858442307,36.7156074,3.1846319,18.54,0.23,0.48,0.0,95,358,0.5425089001655579,0.5424593687057495
2,-0.2252563238143921,1.557162880897522,-0.12125534564256668,36.71562,3.184659,18.5,1.48,2.51,-0.02,95,89,2.9198193550109863,2.9197278022766113
3,-0.14287295937538147,0.8729920983314514,0.006530766375362873,36.7156453,3.1847115,18.54,2.09,3.52,-0.03,95,50,4.0990400314331055,4.098867893218994
4,0.03223182260990143,1.005861759185791,0.030341802164912224,36.7156785,3.1847798,18.58,1.83,3.05,-0.01,94,57,3.566985607147217,3.5669422149658203
5,0.3312823176383972,1.3110406398773193,0.08617265522480011,36.7156911,3.1848061,18.57,-0.39,-0.46,0.01,94,75,0.6153703331947327,0.6152270436286926
6,-0.0650092139840126,2.890019416809082,0.21931160986423492,36.715672,3.184772,18.6,-2.12,-3.03,-0.03,93,165,3.7041194438934326,3.7039880752563477
7,-0.14796999096870422,-1.924902319908142,0.018677519634366035,36.7156369,3.184708,18.6,-2.2,-3.27,0.0,93,249,3.9447579383850098,3.944746494293213
8,-0.002346260705962777,-1.683080792427063,0.18873722851276398,36.7156169,3.184654,18.58,-0.37,-2.98,0.0,93,263,3.0067100524902344,3.0066981315612793
9,-0.3905261754989624,-0.6503984332084656,0.10358968377113342,36.7156454,3.1845972,18.58,3.98,-3.13,0.0,92,322,5.072351455688477,5.0723490715026855
10,-0.46491196751594543,-0.6149005889892578,0.017909495159983635,36.7157042,3.1845445,18.58,6.31,-4.41,0.0,92,324,7.701869487762451,7.701869487762451
11,-0.5331442356109619,-0.6176896095275879,-0.0022941138595342636,36.7158183,3.1844457,18.59,7.82,-5.45,0.0,91,324,9.541561126708984,9.541559219360352
12,-0.3683937191963196,-0.6217561364173889,-0.013713925145566463,36.7159421,3.1843367,18.62,7.6,-5.4,-0.02,91,324,9.331155776977539,9.331114768981934
13,-0.12291204929351807,-0.6249020099639893,-0.012942489236593246,36.7160346,3.1842544,18.64,5.73,-4.11,0.02,91,324,7.054120063781738,7.054061412811279
14,0.03544475510716438,-1.144021987915039,-0.29348504543304443,36.7160937,3.1841892,18.75,1.31,-2.88,-0.24,90,294,3.177006244659424,3.1676347255706787
15,-0.3958401381969452,-2.125436782836914,-0.06319258362054825,36.7160833,3.1841328,19.59,-2.65,-4.22,-0.85,90,238,5.065585613250732,4.992390155792236
16,-0.4768378436565399,-2.1596181392669678,-0.030963853001594543,36.7160203,3.1840215,21.71,-4.91,-7.04,-1.46,89,236,8.715182304382324,8.591625213623047
17,-0.501919150352478,-2.163755178451538,-0.0025241405237466097,36.715948,3.183892,24.11,-5.54,-8.01,-1.6,89,236,9.878548622131348,9.7471284866333
18,-0.44387200474739075,-2.1643052101135254,0.039841558784246445,36.7158726,3.1837545,26.58,-5.52,-8.2,-1.58,88,236,10.019190788269043,9.893221855163574
19,-0.47268933057785034,-2.1631007194519043,-0.034415729343891144,36.7157852,3.1835915,29.45,-5.54,-8.25,-1.59,88,236,10.070847511291504,9.944150924682617
20,-0.4851495921611786,-2.1683576107025146,0.027651017531752586,36.7157099,3.1834522,31.92,-5.53,-8.24,-1.6,88,235,10.060946464538574,9.932148933410645
21,-0.4369484484195709,-2.1636247634887695,0.043122243136167526,36.7156352,3.1833127,34.41,-5.48,-8.27,-1.61,87,236,10.058127403259277,9.927593231201172
22,-0.4802236258983612,-2.162656545639038,-0.02240571193397045,36.7155486,3.1831502,37.31,-5.53,-8.28,-1.62,87,236,10.095905303955078,9.964202880859375
23,-0.48353034257888794,-2.1641249656677246,0.034522585570812225,36.7154736,3.1830104,39.81,-5.53,-8.3,-1.63,86,236,10.11142349243164,9.97773551940918
24,-0.4353688061237335,-2.1631920337677,-0.023830143734812737,36.7153862,3.182847,42.72,-5.51,-8.28,-1.64,86,236,10.086194038391113,9.951875686645508
25,-0.4915625751018524,-2.1657285690307617,-0.005360650829970837,36.7153115,3.1827075,45.23,-5.5,-8.24,-1.63,85,235,10.051392555236816,9.917984008789062
26,-0.4379270672798157,-2.16404390335083,0.034237176179885864,36.7152244,3.1825444,48.16,-5.52,-8.3,-1.63,85,236,10.10866928100586,9.975005149841309
27,-0.4486672878265381,-2.16424822807312,-0.031432367861270905,36.7151497,3.1824042,50.66,-5.52,-8.28,-1.63,84,236,10.088642120361328,9.955187797546387
28,-0.4920845031738281,-2.165900468826294,0.0069943866692483425,36.7150749,3.1822648,53.16,-5.52,-8.29,-1.63,84,235,10.095335960388184,9.96236801147461
29,-0.23184531927108765,-2.167881965637207,-0.0033140480518341064,36.7149911,3.182109,55.97,-4.8,-7.14,-1.43,83,235,8.731066703796387,8.611722946166992
30,-0.08694428205490112,-2.163247585296631,-0.010592672973871231,36.7149372,3.1820082,57.72,-3.14,-4.77,-0.78,83,236,5.776504039764404,5.722935676574707
31,-0.12073302268981934,-2.107017993927002,-0.0009203726658597589,36.7148976,3.1819291,58.5,-2.16,-3.72,-0.16,83,239,4.308040618896484,4.304777145385742
32,-0.17895551025867462,-2.08595609664917,0.01135867740958929,36.71487,3.1818673,58.57,-1.99,-3.67,0.0,82,240,4.184998035430908,4.184993743896484
33,0.0013951744185760617,-2.0873186588287354,-0.0021459097042679787,36.7148434,3.1818073,58.56,-1.77,-3.24,0.0,82,240,3.7007064819335938,3.7007060050964355
34,0.015378754585981369,-2.293858528137207,-0.02313285879790783,36.7148208,3.1817615,57.79,-1.2,-1.46,1.08,82,228,2.1824944019317627,1.8950122594833374
35,-0.028792720288038254,-2.484286308288574,-0.029624683782458305,36.7148057,3.1817442,55.61,-1.03,-0.81,1.46,81,217,1.972570538520813,1.3155972957611084
36,-0.010702072642743587,-2.4712014198303223,0.010377878323197365,36.7147893,3.1817288,52.99,-1.04,-0.82,1.43,81,218,1.9576388597488403,1.3354086875915527
37,-0.0608043447136879,-2.4699912071228027,-0.010875644162297249,36.7147749,3.1817149,50.75,-1.05,-0.87,1.44,81,218,1.9914233684539795,1.375131368637085
38,-0.01310247927904129,-2.4695122241973877,0.020846422761678696,36.7147604,3.1817004,48.51,-1.06,-0.87,1.44,80,218,2.003122568130493,1.384016513824463
39,-0.06090398505330086,-2.4694182872772217,0.016758684068918228,36.7147435,3.1816833,45.89,-1.07,-0.89,1.45,80,218,2.0172061920166016,1.3934154510498047
40,-0.01570717617869377,-2.469648599624634,-0.016050245612859726,36.7147289,3.1816686,43.65,-1.07,-0.89,1.46,79,218,2.0279054641723633,1.397889494895935
41,-0.02851913869380951,-2.4693028926849365,0.029990708455443382,36.7147119,3.1816514,41.03,-1.06,-0.88,1.47,79,218,2.0254642963409424,1.3865740299224854
42,-0.04351598396897316,-2.4695663452148438,-0.02101084589958191,36.7146972,3.1816368,38.79,-1.06,-0.88,1.47,79,218,2.027123212814331,1.3887304067611694
43,-0.03977922722697258,-2.469280481338501,0.030504148453474045,36.7146827,3.1816221,36.54,-1.06,-0.88,1.47,78,218,2.022249698638916,1.3816657066345215
44,-0.06298908591270447,-2.469376564025879,0.0022105383686721325,36.7146657,3.1816049,33.91,-1.06,-0.89,1.47,78,218,2.0288004875183105,1.3896000385284424
45,-0.01137430127710104,-2.469097375869751,0.014875751920044422,36.7146511,3.1815902,31.66,-1.06,-0.88,1.47,78,218,2.0253751277923584,1.3850442171096802
46,-0.043826181441545486,-2.4698033332824707,0.028195291757583618,36.7146341,3.181573,29.04,-1.06,-0.88,1.47,77,218,2.0195224285125732,1.379621148109436
47,-0.019068611785769463,-2.469393253326416,-0.020737111568450928,36.7146195,3.1815583,26.79,-1.06,-0.88,1.47,77,218,2.021574020385742,1.3824186325073242
48,-0.05114402621984482,-2.4696242809295654,0.025841860100626945,36.7146049,3.1815436,24.54,-1.06,-0.88,1.48,77,218,2.0280191898345947,1.3829387426376343
49,-0.01518769096583128,-2.4694743156433105,-0.010204168036580086,36.7145903,3.1815289,22.29,-1.06,-0.88,1.48,76,218,2.02848219871521,1.385869026184082
50,-0.07475051283836365,-2.8768770694732666,-0.07668692618608475,36.7145713,3.1815131,19.7,-1.59,-0.47,1.32,76,195,2.126549005508423,1.6648743152618408
51,-0.2493758350610733,2.674353837966919,-0.006034513469785452,36.7145325,3.1815239,18.57,-3.38,1.58,0.0,75,153,3.7357523441314697,3.735743522644043
52,-0.14688041806221008,2.679431438446045,-0.005451479461044073,36.7144804,3.1815558,18.67,-4.07,2.03,-0.01,75,153,4.550736904144287,4.5507025718688965
53,-0.06972087919712067,2.8326332569122314,0.13462403416633606,36.7144262,3.1815864,18.63,-3.77,1.15,0.05,75,162,3.942929267883301,3.9424781799316406
54,-0.3425307273864746,-2.2608683109283447,0.11719003319740295,36.7143745,3.1815721,18.6,-2.95,-3.05,0.02,74,230,4.250252723693848,4.250196933746338
55,-0.49554750323295593,-2.1421914100646973,0.03499118238687515,36.7143293,3.1814921,18.6,-3.94,-6.25,0.01,74,237,7.398698806762695,7.398677349090576
56,-0.4472431242465973,-2.148310899734497,-0.027705788612365723,36.7142581,3.1813517,18.61,-4.86,-7.69,0.0,73,236,9.109606742858887,9.10960578918457
57,-0.3960556983947754,-2.151440143585205,0.005803077016025782,36.7141917,3.1812227,18.62,-4.81,-7.45,0.0,73,236,8.873605728149414,8.873602867126465
58,-0.22450166940689087,-2.1476571559906006,0.027439849451184273,36.7141316,3.1811066,18.63,-4.02,-6.27,0.02,73,236,7.4514546394348145,7.45142126083374
59,-0.2977764904499054,-2.1190459728240967,0.028525276109576225,36.7140744,3.1809914,18.6,-3.36,-5.66,0.01,72,238,6.594712257385254,6.594693660736084
60,-0.25218871235847473,-2.100396156311035,0.02182464674115181,36.7140301,3.1808963,18.6,-3.21,-5.62,0.0,72,239,6.483061790466309,6.483059883117676
61,-0.21274146437644958,-2.099548101425171,0.016671983525156975,36.7139795,3.1807857,18.6,-3.07,-5.41,0.0,71,239,6.228764533996582,6.228762149810791
62,0.11712426692247391,-2.101278066635132,-0.018251141533255577,36.7139436,3.1807079,18.59,-2.0,-3.47,0.03,71,239,4.007866859436035,4.007689476013184
63,0.1257079541683197,-2.100452184677124,0.026174180209636688,36.7139272,3.1806719,18.59,-0.24,-0.46,-0.02,71,239,0.529854416847229,0.529378354549408
64,-0.0015561548061668873,-2.1007049083709717,-0.00416553532704711,36.7139272,3.1806718,18.58,0.13,0.13,0.03,70,239,0.18810494244098663,0.18422041833400726
