timestamp,pitch,yaw,roll,lat,lon,alt,velocity_x,velocity_y,velocity_z,battery,heading,airspeed,groundspeed
0,0.02162976749241352,0.04017128422856331,-0.012366918846964836,36.7156067,3.1846299,22.59,-0.02,0.02,-0.09,96,2,0.10361254215240479,0.036831725388765335
1,-0.07221207022666931,0.03556937724351883,0.11872986704111099,36.7156077,3.1846323,22.58,0.28,0.55,-0.04,95,2,0.6313924789428711,0.6298301219940186
2,-0.21089661121368408,1.4746729135513306,-0.11904620379209518,36.7156186,3.1846549,22.62,1.4,2.34,-0.04,95,84,2.736086845397949,2.7357304096221924
3,-0.14740633964538574,0.9518856406211853,-0.01933610811829567,36.7156478,3.1847155,22.62,2.1,3.54,-0.01,95,54,4.119001388549805,4.118982315063477
4,-0.018686894327402115,0.9986009001731873,0.016101136803627014,36.7156766,3.1847742,22.61,1.92,3.13,0.0,94,57,3.6783270835876465,3.6783268451690674
5,0.2972233295440674,1.396713137626648,0.13448062539100647,36.7156906,3.1848025,22.62,-0.68,-0.94,-0.02,94,80,1.1680560111999512,1.1677706241607666
6,-0.053085170686244965,3.017082691192627,0.1779475063085556,36.715669,3.1847637,22.6,-2.18,-3.1,0.05,93,172,3.801948308944702,3.8015224933624268
7,-0.10878736525774002,-1.9552744626998901,0.05529133230447769,36.7156339,3.1846991,22.64,-2.15,-3.25,0.0,93,247,3.898676872253418,3.898669719696045
8,-0.05131605640053749,-1.5677523612976074,0.19979776442050934,36.7156167,3.1846457,22.6,-0.01,-2.92,0.02,93,270,2.925022602081299,2.9249370098114014
9,-0.3859819769859314,-0.6529770493507385,0.11411210149526596,36.7156419,3.1845976,22.59,3.75,-3.07,0.0,92,322,4.855609893798828,4.855609893798828
10,-0.5377669930458069,-0.6271936893463135,-0.0028994912281632423,36.715728,3.1845209,22.59,6.86,-4.76,0.0,92,324,8.354657173156738,8.354655265808105
11,-0.49625322222709656,-0.6206454038619995,0.030092649161815643,36.7158293,3.1844331,22.61,7.85,-5.5,-0.01,91,324,9.594765663146973,9.594759941101074
12,-0.36810821294784546,-0.621180534362793,-0.00221826764754951,36.7159357,3.1843395,22.63,7.64,-5.43,-0.02,91,324,9.383878707885742,9.383852005004883
13,-0.06964259594678879,-0.6262484788894653,0.007988310419023037,36.7160426,3.1842445,22.65,5.42,-3.91,0.03,91,324,6.687197208404541,6.687083721160889
14,0.05635226145386696,-1.0685755014419556,-0.28137561678886414,36.7160927,3.1841893,22.74,1.59,-2.9,-0.2,90,298,3.31866717338562,3.3121020793914795
15,-0.362002968788147,-2.133991241455078,-0.05600561574101448,36.7160792,3.1841224,23.74,-2.98,-4.44,-0.92,90,237,5.429774761199951,5.350263595581055
16,-0.49373963475227356,-2.161851644515991,-0.025586619973182678,36.7160243,3.1840261,25.58,-4.84,-6.91,-1.44,89,236,8.56924057006836,8.446999549865723
17,-0.4503622353076935,-2.163475751876831,0.03489328548312187,36.7159403,3.1838752,28.37,-5.54,-8.05,-1.61,89,236,9.909560203552246,9.776927947998047
18,-0.43862125277519226,-2.1656692028045654,-0.02079472318291664,36.7158649,3.183737,30.83,-5.53,-8.21,-1.58,88,235,10.029579162597656,9.90365219116211
19,-0.48858991265296936,-2.164700508117676,-0.012766252271831036,36.7157899,3.1835975,33.3,-5.53,-8.25,-1.58,88,235,10.06442642211914,9.938055038452148
20,-0.4224288761615753,-2.1617345809936523,0.013828037306666374,36.7157025,3.1834346,36.19,-5.52,-8.25,-1.6,87,236,10.057185173034668,9.927738189697266
21,-0.4477559030056,-2.1643919944763184,-0.02726147323846817,36.7156276,3.1832953,38.67,-5.53,-8.25,-1.61,87,235,10.067156791687012,9.936920166015625
22,-0.4544442594051361,-2.163994073867798,0.03486510366201401,36.7155404,3.1831326,41.59,-5.49,-8.26,-1.62,87,236,10.05506420135498,9.923540115356445
23,-0.4414988160133362,-2.164524555206299,0.03078332543373108,36.7154782,3.1830163,43.67,-5.5,-8.28,-1.62,86,235,10.077638626098633,9.945660591125488
24,-0.4824933707714081,-2.1656627655029297,-0.02374766767024994,36.7153913,3.1828535,46.58,-5.51,-8.29,-1.62,86,235,10.09046745300293,9.958636283874512
25,-0.436003178358078,-2.1631836891174316,0.029395602643489838,36.7153041,3.18269,49.5,-5.51,-8.29,-1.64,85,236,10.09858512878418,9.96435546875
26,-0.44221460819244385,-2.1643662452697754,-0.025818144902586937,36.7152293,3.1825504,51.99,-5.54,-8.3,-1.64,85,236,10.11572551727295,9.98078441619873
27,-0.46602147817611694,-2.164821147918701,0.03486667573451996,36.7151418,3.182387,54.92,-5.51,-8.29,-1.64,84,235,10.092931747436523,9.957990646362305
28,-0.4205363392829895,-2.165254592895508,0.013532680459320545,36.7150671,3.1822473,57.43,-5.5,-8.28,-1.64,84,235,10.081089973449707,9.94654655456543
29,-0.2862362861633301,-2.1683661937713623,-0.024008439853787422,36.7149954,3.1821138,59.84,-4.89,-7.26,-1.45,83,235,8.879379272460938,8.758611679077148
30,-0.038789052516222,-2.160339832305908,0.02838589996099472,36.7149328,3.1819969,61.86,-3.0,-4.57,-0.71,83,236,5.516546249389648,5.470428466796875
31,-0.16737842559814453,-2.1114563941955566,0.007791318465024233,36.7148994,3.18193,62.5,-2.17,-3.7,-0.18,83,239,4.299567222595215,4.29567813873291
32,-0.13122478127479553,-2.086062431335449,-0.015186890959739685,36.7148672,3.1818583,62.58,-1.99,-3.68,0.0,82,240,4.1887030601501465,4.188698768615723
33,-0.038588445633649826,-2.087568759918213,0.012393921613693237,36.7148411,3.1817991,62.56,-1.7,-3.13,0.03,82,240,3.565730094909668,3.565549373626709
34,0.044519297778606415,-2.269503116607666,-0.05841374769806862,36.7148218,3.1817601,61.9,-1.22,-1.55,0.99,82,229,2.216005563735962,1.9798145294189453
35,-0.017137428745627403,-2.4780068397521973,0.021489279344677925,36.7148042,3.1817399,59.39,-1.04,-0.8,1.45,81,218,1.9634863138198853,1.3151546716690063
36,-0.0519690066576004,-2.4721174240112305,-0.022681433707475662,36.7147901,3.1817267,57.15,-1.04,-0.82,1.43,81,218,1.9581162929534912,1.334612488746643
37,-0.011220058426260948,-2.470261812210083,-0.006659277249127626,36.7147735,3.1817104,54.53,-1.06,-0.87,1.44,80,218,1.9935122728347778,1.375637412071228
38,-0.060714300721883774,-2.469691038131714,0.012151116505265236,36.714759,3.1816959,52.29,-1.06,-0.88,1.44,80,218,2.0027003288269043,1.3843417167663574
39,-0.011288447305560112,-2.469419002532959,-0.007482809945940971,36.7147445,3.1816812,50.04,-1.07,-0.88,1.45,80,218,2.015336513519287,1.3961049318313599
40,-0.06497781723737717,-2.469507932662964,0.008093969896435738,36.7147299,3.1816665,47.8,-1.08,-0.89,1.45,79,218,2.0247409343719482,1.4037710428237915
41,-0.037803784012794495,-2.469557285308838,-0.024940023198723793,36.7147128,3.1816494,45.18,-1.07,-0.88,1.46,79,218,2.018604040145874,1.3913697004318237
42,-0.011016490869224072,-2.4700653553009033,0.000932219554670155,36.7146958,3.1816324,42.56,-1.07,-0.88,1.46,79,218,2.0216519832611084,1.3883979320526123
43,-0.06441114097833633,-2.46909761428833,-0.0042727249674499035,36.7146814,3.1816177,40.32,-1.06,-0.89,1.47,78,218,2.032381534576416,1.3931523561477661
44,-0.03870108351111412,-2.469517946243286,-0.02646959014236927,36.7146643,3.1816004,37.7,-1.07,-0.89,1.48,78,218,2.037137746810913,1.3989511728286743
45,-0.041304346174001694,-2.4695334434509277,0.026071367785334587,36.7146497,3.1815856,35.45,-1.07,-0.88,1.47,78,218,2.0305368900299072,1.3904235363006592
46,-0.0315370075404644,-2.469764232635498,-0.021592047065496445,36.714635,3.1815709,33.19,-1.07,-0.88,1.47,77,218,2.029010534286499,1.3898714780807495
47,-0.010419593192636967,-2.4693522453308105,0.006341281812638044,36.714618,3.1815538,30.57,-1.06,-0.87,1.47,77,218,2.0204267501831055,1.3796732425689697
48,-0.06415677070617676,-2.469377040863037,-0.002592648146674037,36.7146035,3.1815391,28.31,-1.05,-0.88,1.47,76,218,2.0175559520721436,1.3786641359329224
49,-0.009798245504498482,-2.469287157058716,0.012553280219435692,36.714589,3.1815243,26.07,-1.06,-0.88,1.47,76,218,2.0222034454345703,1.3857953548431396
50,-0.11997940391302109,-2.9786975383758545,-0.07640229910612106,36.7145691,3.1815095,23.51,-1.71,-0.35,1.23,76,189,2.14778995513916,1.7558953762054443
51,-0.22910872101783752,2.675851821899414,-0.05216008052229881,36.7145354,3.1815192,22.59,-3.3,1.51,0.02,75,153,3.6353988647460938,3.6352779865264893
52,-0.15063239634037018,2.679729461669922,0.016759412363171577,36.7144749,3.1815561,22.69,-4.07,2.03,0.0,75,153,4.5599589347839355,4.5599493980407715
53,-0.057355284690856934,2.891493320465088,0.13912415504455566,36.714421,3.1815852,22.64,-3.7,0.9,0.05,75,165,3.8165218830108643,3.816063165664673
54,-0.34937363862991333,-2.215059518814087,0.10513003170490265,36.7143703,3.1815639,22.61,-2.96,-3.45,0.01,74,233,4.552805423736572,4.552762508392334
55,-0.5156126022338867,-2.141120672225952,0.014332025311887264,36.714324,3.1814784,22.61,-4.07,-6.46,0.01,74,237,7.6433210372924805,7.6433000564575195
56,-0.4498838782310486,-2.147242307662964,0.022394053637981415,36.7142624,3.1813571,22.62,-4.86,-7.65,0.0,73,236,9.072331428527832,9.072331428527832
57,-0.3738906681537628,-2.1516103744506836,-0.0027790297754108906,36.714185,3.1812068,22.64,-4.73,-7.31,0.0,73,236,8.711287498474121,8.711283683776855
58,-0.22209790349006653,-2.146247386932373,0.03463228419423103,36.7141261,3.1810929,22.64,-3.91,-6.13,0.02,73,237,7.2730207443237305,7.272967338562012
59,-0.2973058223724365,-2.1164212226867676,0.02122241072356701,36.7140698,3.1809789,22.61,-3.34,-5.67,0.01,72,238,6.584023952484131,6.584011077880859
60,-0.25684797763824463,-2.099729299545288,0.022678134962916374,36.7140257,3.1808839,22.61,-3.21,-5.63,0.0,72,239,6.489599704742432,6.489594459533691
61,-0.23060393333435059,-2.099992275238037,-0.015845702961087227,36.7139823,3.1807891,22.61,-3.12,-5.5,0.0,71,239,6.329003810882568,6.32900333404541
62,0.1465756893157959,-2.101306915283203,-0.02254515141248703,36.713941,3.1806991,22.6,-1.83,-3.18,0.03,71,239,3.6701297760009766,3.669921636581421
63,0.10104253143072128,-2.100874662399292,0.014304128475487232,36.7139273,3.1806693,22.6,-0.3,-0.55,-0.02,71,239,0.6361131072044373,0.6357386112213135
64,-0.01667870581150055,-2.101318359375,0.017445869743824005,36.7139275,3.1806691,22.58,0.15,0.11,0.04,70,239,0.19357424974441528,0.1889587938785553
