timestamp,pitch,yaw,roll,lat,lon,alt,velocity_x,velocity_y,velocity_z,battery,heading,airspeed,groundspeed
0,0.02757379412651062,0.015511428005993366,-0.002327351365238428,36.7156067,3.1846299,22.24,-0.03,0.02,-0.07,96,0,0.08259930461645126,0.037894077599048615
1,-0.08200214803218842,0.010730394162237644,0.1081073135137558,36.7156078,3.1846323,22.22,0.3,0.55,-0.04,95,0,0.6332899928092957,0.6319934725761414
2,-0.19483530521392822,1.4403835535049438,-0.10933840274810791,36.7156193,3.1846546,22.25,1.44,2.32,-0.04,95,82,2.7389912605285645,2.738621950149536
3,-0.13009124994277954,0.9417672753334045,-0.0122106047347188,36.715649,3.1847138,22.26,2.13,3.43,-0.01,95,53,4.03941011428833,4.0393829345703125
4,0.0029165116138756275,0.9788737297058105,0.004168946761637926,36.7156779,3.18477,22.25,1.88,2.92,0.0,94,56,3.4793410301208496,3.479337215423584
5,0.30812734365463257,1.2884442806243896,0.08359168469905853,36.7156897,3.1847922,22.27,-0.86,-1.25,-0.01,94,73,1.5281826257705688,1.5280619859695435
6,-0.04758425056934357,2.9747097492218018,0.17785659432411194,36.7156668,3.1847506,22.24,-2.21,-3.16,0.04,93,170,3.8616013526916504,3.8612916469573975
7,-0.1379159539937973,-1.9241315126419067,-0.006209264509379864,36.7156366,3.184695,22.28,-2.18,-3.26,-0.02,93,249,3.934075355529785,3.933979034423828
8,-0.06474659591913223,-1.4690189361572266,0.20870782434940338,36.7156167,3.1846327,22.24,0.25,-2.86,0.01,93,275,2.872368097305298,2.8723175525665283
9,-0.40349024534225464,-0.6551110148429871,0.10958465933799744,36.7156461,3.1845843,22.24,4.04,-3.14,0.0,92,322,5.124970436096191,5.124968528747559
10,-0.5359868407249451,-0.6281619668006897,-0.01104163657873869,36.7157354,3.1845057,22.24,7.0,-4.85,0.0,92,324,8.521637916564941,8.521634101867676
11,-0.5039510726928711,-0.6196931004524231,0.021545162424445152,36.7158376,3.1844169,22.26,7.86,-5.53,0.0,91,324,9.612085342407227,9.61208438873291
12,-0.3598620295524597,-0.6220309734344482,0.0009933487745001912,36.7159437,3.1843231,22.28,7.55,-5.4,-0.02,91,324,9.292417526245117,9.292386054992676
13,-0.05923254415392876,-0.6288424730300903,-0.007722707465291023,36.7160482,3.1842302,22.31,5.19,-3.77,0.04,91,323,6.415099143981934,6.414933204650879
14,0.02923390455543995,-1.1628875732421875,-0.30648884177207947,36.7160943,3.1841765,22.42,1.22,-2.9,-0.24,90,293,3.161863327026367,3.1525204181671143
15,-0.3758399188518524,-2.1353695392608643,-0.04091222584247589,36.716076,3.1841073,23.51,-3.18,-4.64,-0.97,90,237,5.716672897338867,5.633247375488281
16,-0.4875657260417938,-2.1593527793884277,-0.031226592138409615,36.7160193,3.184008,25.4,-4.91,-7.09,-1.46,89,236,8.754133224487305,8.630082130432129
17,-0.4885502755641937,-2.1626853942871094,0.01457265019416809,36.7159468,3.1838776,27.81,-5.53,-8.05,-1.61,89,236,9.899991035461426,9.76762866973877
18,-0.43117567896842957,-2.164945363998413,-0.01895332895219326,36.7158589,3.1837166,30.69,-5.55,-8.19,-1.57,88,235,10.021880149841309,9.896862030029297
19,-0.4792959690093994,-2.163512945175171,-0.022774910554289818,36.7157837,3.1835771,33.16,-5.52,-8.23,-1.57,88,236,10.039519309997559,9.914430618286133
20,-0.43149009346961975,-2.165699005126953,0.023159997537732124,36.7156966,3.183415,36.03,-5.54,-8.28,-1.61,87,235,10.095198631286621,9.96573257446289
21,-0.43381547927856445,-2.163790464401245,-0.037930771708488464,36.7156217,3.1832752,38.53,-5.51,-8.25,-1.61,87,236,10.05896282196045,9.928616523742676
22,-0.49079450964927673,-2.163335084915161,0.00934189185500145,36.715547,3.1831356,41.03,-5.49,-8.28,-1.61,87,236,10.074417114257812,9.944388389587402
23,-0.4525519013404846,-2.1641769409179688,0.036618608981370926,36.7154724,3.182996,43.52,-5.52,-8.29,-1.62,86,236,10.092235565185547,9.96071720123291
24,-0.4739885628223419,-2.1626970767974854,-0.028291253373026848,36.7153853,3.1828329,46.43,-5.51,-8.29,-1.63,86,236,10.098739624023438,9.96613883972168
25,-0.4358120262622833,-2.1652181148529053,0.033665407449007034,36.7152977,3.1826696,49.36,-5.52,-8.29,-1.63,85,235,10.103309631347656,9.969778060913086
26,-0.4387860894203186,-2.165158987045288,-0.024216923862695694,36.715223,3.1825299,51.86,-5.5,-8.27,-1.63,85,235,10.07498550415039,9.941604614257812
27,-0.4955475330352783,-2.164469003677368,-0.0005636662826873362,36.7151484,3.1823902,54.36,-5.51,-8.3,-1.63,84,235,10.096813201904297,9.96367073059082
28,-0.4109877943992615,-2.1651854515075684,0.007511621341109276,36.7150611,3.182227,57.29,-5.51,-8.27,-1.63,84,235,10.07968521118164,9.945893287658691
29,-0.2681063115596771,-2.1682047843933105,-0.021756138652563095,36.7149901,3.1820951,59.67,-4.78,-7.11,-1.42,83,235,8.694482803344727,8.577404022216797
30,-0.03598792105913162,-2.1577799320220947,0.021377835422754288,36.7149296,3.1819818,61.59,-2.89,-4.43,-0.65,83,236,5.332233428955078,5.291290760040283
31,-0.16242270171642303,-2.106271266937256,0.010745314881205559,36.714897,3.1819159,62.17,-2.13,-3.7,-0.15,83,239,4.283422946929932,4.280580043792725
32,-0.13871872425079346,-2.0863192081451416,-0.022379521280527115,36.714865,3.1818443,62.22,-2.01,-3.69,-0.01,82,240,4.210766792297363,4.210751533508301
33,-0.026075465604662895,-2.0882158279418945,0.015461644157767296,36.7148393,3.181786,62.21,-1.65,-3.02,0.06,82,240,3.4489800930023193,3.4483938217163086
34,0.04003356769680977,-2.3009722232818604,-0.06635600328445435,36.7148205,3.1817488,61.42,-1.21,-1.45,1.1,82,228,2.1937739849090576,1.8979344367980957
35,-0.010606645606458187,-2.4726927280426025,0.016880657523870468,36.7148031,3.1817296,58.85,-1.03,-0.79,1.44,81,218,1.9438130855560303,1.3046516180038452
36,-0.05643269419670105,-2.4715397357940674,-0.016509314998984337,36.714789,3.1817165,56.61,-1.04,-0.83,1.42,81,218,1.9552010297775269,1.3359051942825317
37,-0.01529216393828392,-2.4704723358154297,-0.015520766377449036,36.7147724,3.1817002,54.0,-1.07,-0.87,1.44,80,218,2.0003936290740967,1.385426640510559
38,-0.05742652714252472,-2.4699885845184326,0.016159817576408386,36.7147578,3.1816855,51.75,-1.06,-0.88,1.44,80,218,2.0013043880462646,1.3840733766555786
39,-0.01651744544506073,-2.4699349403381348,-0.01555153913795948,36.7147433,3.1816709,49.51,-1.07,-0.88,1.45,80,218,2.0105676651000977,1.3910090923309326
40,-0.017855675891041756,-2.4699463844299316,0.018642617389559746,36.7147263,3.1816538,46.9,-1.06,-0.88,1.46,79,218,2.0180866718292236,1.3885668516159058
41,-0.04922148212790489,-2.4698212146759033,-0.0215253047645092,36.7147117,3.1816391,44.65,-1.07,-0.88,1.46,79,218,2.0235648155212402,1.3935580253601074
42,-0.012745274230837822,-2.4704034328460693,-0.00934907142072916,36.7146946,3.1816221,42.03,-1.07,-0.88,1.47,79,218,2.026819944381714,1.3935877084732056
43,-0.06122921034693718,-2.469500780105591,0.00868422444909811,36.7146801,3.1816073,39.79,-1.06,-0.88,1.47,78,218,2.022671937942505,1.384010672569275
44,-0.013125855475664139,-2.47006893157959,-0.01627848669886589,36.7146655,3.1815926,37.53,-1.06,-0.88,1.47,78,218,2.0218982696533203,1.3851500749588013
45,-0.021812763065099716,-2.4699058532714844,0.026111571118235588,36.7146485,3.1815754,34.91,-1.06,-0.88,1.47,78,218,2.016528367996216,1.3803539276123047
46,-0.0477917417883873,-2.4700655937194824,-0.020223330706357956,36.7146339,3.1815608,32.67,-1.07,-0.88,1.47,77,218,2.033656597137451,1.395308017730713
47,-0.011571747250854969,-2.4700236320495605,-0.006100604776293039,36.7146169,3.1815435,30.04,-1.06,-0.88,1.47,77,218,2.024883270263672,1.3862643241882324
48,-0.059206850826740265,-2.4700822830200195,0.015472320839762688,36.7146023,3.1815288,27.78,-1.06,-0.88,1.47,77,218,2.0178117752075195,1.37969970703125
49,-0.005960025824606419,-2.4699552059173584,-0.007286084350198507,36.7145877,3.1815142,25.54,-1.06,-0.87,1.47,76,218,2.0159642696380615,1.37539803981781
50,-0.11388549208641052,-3.0632362365722656,-0.08082929253578186,36.7145672,3.1815001,23.01,-1.82,-0.23,1.16,76,184,2.1737489700317383,1.8377021551132202
51,-0.24357056617736816,2.675917387008667,-0.055935706943273544,36.7145319,3.1815121,22.23,-3.4,1.61,-0.01,75,153,3.771432638168335,3.771390676498413
52,-0.1447574347257614,2.679456949234009,-0.0075530786998569965,36.7144704,3.1815498,22.33,-4.07,2.04,0.02,75,153,4.557553768157959,4.557503700256348
53,-0.053952865302562714,2.9432854652404785,0.18809673190116882,36.7144171,3.1815774,22.28,-3.61,0.7,0.05,75,168,3.688072681427002,3.6876821517944336
54,-0.32324865460395813,-2.2501204013824463,0.13860462605953217,36.7143739,3.1815597,22.26,-2.95,-3.12,0.02,74,231,4.2958221435546875,4.295770645141602
55,-0.5015823245048523,-2.145102024078369,0.03455698862671852,36.7143197,3.1814608,22.26,-4.15,-6.63,0.01,74,237,7.833305835723877,7.833298683166504
56,-0.4335648715496063,-2.1471827030181885,-0.007265439722687006,36.7142574,3.1813378,22.27,-4.9,-7.68,0.0,73,236,9.121411323547363,9.121408462524414
57,-0.3487682640552521,-2.1524784564971924,0.0215590950101614,36.7141797,3.1811876,22.29,-4.66,-7.2,0.0,73,236,8.588601112365723,8.588597297668457
58,-0.2013903260231018,-2.145092487335205,0.013634990900754929,36.7141218,3.1810754,22.29,-3.81,-6.01,0.03,73,237,7.127728462219238,7.127659320831299
59,-0.3023396134376526,-2.1185553073883057,0.00553877791389823,36.714074,3.1809784,22.26,-3.37,-5.68,0.01,72,238,6.613208293914795,6.613180160522461
60,-0.2579944133758545,-2.1001691818237305,-0.009435515850782394,36.7140223,3.1808672,22.27,-3.23,-5.65,0.0,72,239,6.513808727264404,6.513802528381348
61,-0.21463291347026825,-2.10083270072937,0.012066828086972237,36.7139788,3.1807724,22.27,-3.07,-5.4,0.0,71,239,6.220881462097168,6.220881462097168
62,0.13671618700027466,-2.1013131141662598,-0.029117923229932785,36.7139392,3.180686,22.24,-1.66,-2.91,0.03,71,239,3.3588788509368896,3.3586618900299072
63,0.11642524600028992,-2.101006507873535,0.027244819328188896,36.7139272,3.1806597,22.25,-0.23,-0.43,-0.01,71,239,0.4930851459503174,0.4926840364933014
64,-0.03564777970314026,-2.102729320526123,0.0540953055024147,36.7139277,3.1806603,22.23,0.19,0.07,0.04,70,239,0.18825282156467438,0.1843239814043045
