timestamp,pitch,yaw,roll,lat,lon,alt,velocity_x,velocity_y,velocity_z,battery,heading,airspeed,groundspeed
0,-0.026001814752817154,-0.048681337386369705,0.011574260890483856,36.7156066,3.18463,17.88,-0.01,0.02,-0.01,96,357,0.03341596573591232,0.02913297340273857
1,-0.051559191197156906,-0.031217627227306366,0.08716177940368652,36.7156081,3.1846328,17.92,0.41,0.6,0.0,95,358,0.7315945029258728,0.7315889000892639
2,-0.2148502767086029,1.440240502357483,-0.0954541489481926,36.715622,3.1846577,17.88,1.78,2.48,-0.01,95,82,3.06351900100708,3.0634710788726807
3,-0.19000625610351562,0.899169385433197,0.01908828131854534,36.7156583,3.1847196,17.92,2.59,3.54,-0.03,95,51,4.387280464172363,4.387172222137451
4,0.036880966275930405,0.918874979019165,-0.010812997817993164,36.7156929,3.1847777,17.94,2.25,3.07,-0.01,94,52,3.8156380653381348,3.8156135082244873
5,0.35301074385643005,0.5790806412696838,-0.1094156876206398,36.7157102,3.1848053,17.93,-0.16,-0.32,0.01,94,42,0.36356139183044434,0.36329761147499084
6,-0.08909019082784653,-1.0363478660583496,-0.18185538053512573,36.7156879,3.1847639,17.97,-2.2,-3.17,-0.02,93,300,3.864940643310547,3.8648645877838135
7,-0.07937045395374298,-2.414616107940674,0.05052652209997177,36.7156575,3.1847086,17.97,-2.22,-3.27,0.01,93,221,3.9617319107055664,3.961699962615967
8,-0.042776986956596375,-1.595466136932373,0.2761785089969635,36.7156361,3.184646,17.95,0.05,-2.87,0.01,93,268,2.8771955966949463,2.877152919769287
9,-0.4032544791698456,-0.6604542136192322,0.052401281893253326,36.7156627,3.1845979,17.94,3.84,-3.09,0.0,92,322,4.934470176696777,4.934469699859619
10,-0.5174247622489929,-0.6249631643295288,0.04654867202043533,36.7157344,3.1845335,17.94,6.6,-4.58,0.0,92,324,8.038859367370605,8.038856506347656
11,-0.489004909992218,-0.6223598718643188,-0.028164125978946686,36.7158511,3.1844322,17.96,7.85,-5.5,0.0,91,324,9.588128089904785,9.588127136230469
12,-0.4357411563396454,-0.6225838661193848,0.01836458034813404,36.7159572,3.1843387,17.98,7.65,-5.42,-0.01,91,324,9.378089904785156,9.37807559967041
13,-0.04942954331636429,-0.6273011565208435,-0.04309823736548424,36.7160632,3.1842446,18.01,5.37,-3.86,0.04,91,324,6.618923664093018,6.618767261505127
14,0.044556137174367905,-1.093569278717041,-0.23111511766910553,36.7161122,3.1841898,18.1,1.49,-2.87,-0.21,90,297,3.2473175525665283,3.239975929260254
15,-0.42683228850364685,-2.1274003982543945,-0.07823259383440018,36.7160977,3.1841221,19.13,-3.02,-4.51,-0.93,90,238,4.933590888977051,4.863175868988037
16,-0.4621075689792633,-2.159998655319214,0.03356250375509262,36.7160425,3.1840251,20.99,-4.91,-6.95,-1.44,89,236,8.634345054626465,8.512307167053223
17,-0.4342305362224579,-2.1638314723968506,-0.025043688714504242,36.7159702,3.183896,23.37,-5.53,-8.01,-1.61,89,236,9.879358291625977,9.746936798095703
18,-0.47176888585090637,-2.1645684242248535,0.03644523397088051,36.7158823,3.1837354,26.24,-5.51,-8.2,-1.58,88,235,10.013776779174805,9.887990951538086
19,-0.4290178418159485,-2.1633694171905518,0.013787751086056232,36.7158074,3.1835961,28.7,-5.54,-8.26,-1.6,88,236,10.082714080810547,9.954798698425293
20,-0.48762354254722595,-2.163323163986206,-0.00038178820977918804,36.7157199,3.1834332,31.59,-5.51,-8.25,-1.6,88,236,10.052024841308594,9.923198699951172
21,-0.4576963484287262,-2.1644115447998047,0.0473538339138031,36.715645,3.1832937,34.09,-5.51,-8.25,-1.6,87,235,10.057272911071777,9.927680015563965
22,-0.43220099806785583,-2.1650214195251465,-0.01766551285982132,36.7155705,3.1831542,36.58,-5.51,-8.26,-1.61,87,235,10.064016342163086,9.933308601379395
23,-0.4831036329269409,-2.164156436920166,-0.021672075614333153,36.7154959,3.1830149,39.06,-5.52,-8.29,-1.63,86,236,10.102264404296875,9.969666481018066
24,-0.4296952188014984,-2.166900873184204,0.028454404324293137,36.7154084,3.1828516,41.99,-5.51,-8.28,-1.63,86,235,10.085256576538086,9.9517240524292
25,-0.4887060225009918,-2.1635773181915283,-0.012705662287771702,36.7153214,3.1826886,44.91,-5.49,-8.26,-1.62,85,236,10.071882247924805,9.938817977905273
26,-0.4731515645980835,-2.1625375747680664,0.03291887044906616,36.715247,3.1825489,47.41,-5.53,-8.32,-1.64,85,236,10.132447242736816,9.998530387878418
27,-0.42586249113082886,-2.165050506591797,-9.257956844521686e-05,36.715172,3.1824086,49.91,-5.55,-8.29,-1.64,84,235,10.122454643249512,9.988303184509277
28,-0.48298242688179016,-2.164843797683716,0.006721322890371084,36.7150845,3.1822455,52.84,-5.49,-8.26,-1.63,84,235,10.06193733215332,9.92858600616455
29,-0.25199878215789795,-2.1681017875671387,0.031153038144111633,36.715013,3.1821127,55.24,-4.86,-7.24,-1.45,83,235,8.840522766113281,8.72011661529541
30,-0.09054455161094666,-2.160318613052368,0.004913402255624533,36.7149511,3.1819969,57.23,-2.96,-4.53,-0.69,83,236,5.463261127471924,5.418393135070801
31,-0.11163375526666641,-2.1086699962615967,0.017454253509640694,36.714918,3.1819302,57.86,-2.16,-3.7,-0.17,83,239,4.296721458435059,4.293128490447998
32,-0.17865173518657684,-2.086235761642456,-0.006400830578058958,36.7148904,3.1818688,57.93,-2.0,-3.68,0.0,82,240,4.1949052810668945,4.1949028968811035
33,0.004374712705612183,-2.0879290103912354,-0.025420164689421654,36.7148597,3.1817994,57.92,-1.69,-3.09,0.04,82,240,3.533522367477417,3.533266305923462
34,0.0023527333978563547,-2.2767584323883057,-0.033617470413446426,36.7148406,3.181761,57.22,-1.2,-1.5,1.02,82,229,2.188491106033325,1.9318028688430786
35,-0.058069515973329544,-2.4763216972351074,-0.01118035614490509,36.7148231,3.1817412,54.68,-1.03,-0.8,1.45,81,218,1.9531934261322021,1.308224081993103
36,-0.013964288868010044,-2.4714319705963135,0.018944205716252327,36.7148091,3.1817281,52.45,-1.04,-0.81,1.43,81,218,1.9558749198913574,1.3269119262695312
37,-0.05918614938855171,-2.47050142288208,-0.01099841296672821,36.7147947,3.181714,50.2,-1.06,-0.87,1.44,81,218,1.9939340353012085,1.3767547607421875
38,-0.016682105138897896,-2.469575881958008,-0.020725201815366745,36.7147778,3.181697,47.59,-1.07,-0.88,1.44,80,218,2.007230758666992,1.3893123865127563
39,-0.05120745673775673,-2.469489336013794,0.02392788603901863,36.7147633,3.1816824,45.35,-1.06,-0.88,1.46,80,218,2.0143892765045166,1.3852086067199707
40,-0.06007068604230881,-2.469655752182007,-0.010286135599017143,36.7147463,3.1816654,42.73,-1.07,-0.88,1.46,79,218,2.023198127746582,1.3917711973190308
41,-0.016002599149942398,-2.469388961791992,0.02352653071284294,36.7147317,3.1816507,40.48,-1.06,-0.88,1.46,79,218,2.0165963172912598,1.3835687637329102
42,-0.054673027247190475,-2.469527006149292,-0.01763363555073738,36.7147172,3.181636,38.24,-1.07,-0.89,1.47,79,218,2.0322771072387695,1.3967101573944092
43,-0.010151136666536331,-2.4691669940948486,-0.014386714436113834,36.7147001,3.1816187,35.62,-1.07,-0.88,1.47,78,218,2.0288102626800537,1.3883930444717407
44,-0.05394116789102554,-2.4695229530334473,0.02157062478363514,36.7146855,3.181604,33.36,-1.06,-0.87,1.47,78,218,2.0204453468322754,1.37959885597229
45,-0.05368293821811676,-2.4693732261657715,-0.020937571302056313,36.7146685,3.181587,30.74,-1.07,-0.88,1.48,78,218,2.0326006412506104,1.3921873569488525
46,-0.016754819080233574,-2.469482898712158,0.024985140189528465,36.7146539,3.1815722,28.49,-1.06,-0.88,1.48,77,218,2.025827169418335,1.383243441581726
47,-0.04314227029681206,-2.4689836502075195,-0.02468314953148365,36.7146393,3.1815574,26.24,-1.06,-0.88,1.47,77,218,2.020310878753662,1.3815841674804688
48,-0.015117156319320202,-2.4695606231689453,-0.016229763627052307,36.7146224,3.1815402,23.61,-1.06,-0.87,1.47,77,218,2.016568422317505,1.3769395351409912
49,-0.06222927197813988,-2.46960711479187,0.017754478380084038,36.7146078,3.1815256,21.37,-1.07,-0.88,1.48,76,218,2.0304861068725586,1.3892897367477417
50,-0.12923173606395721,-3.0017645359039307,-0.1297711879014969,36.7145876,3.1815109,18.81,-1.75,-0.31,1.21,76,188,2.1536178588867188,1.7790576219558716
51,-0.2132454663515091,2.6749837398529053,-0.004906133282929659,36.7145536,3.1815215,17.93,-3.31,1.54,0.01,75,153,3.656081199645996,3.6560580730438232
52,-0.19035516679286957,2.679920196533203,-0.025514552369713783,36.714502,3.1815527,18.03,-4.07,2.02,-0.02,75,153,4.552012920379639,4.5519490242004395
53,-0.007326884660869837,2.9119396209716797,0.14557133615016937,36.7144391,3.181587,17.98,-3.66,0.87,0.05,75,166,3.764618396759033,3.7642500400543213
54,-0.36979153752326965,-2.297086477279663,0.17290066182613373,36.7143953,3.181573,17.96,-2.93,-2.87,0.02,74,228,4.108039379119873,4.107978343963623
55,-0.47491782903671265,-2.1437909603118896,-0.02325688675045967,36.7143419,3.1814778,17.96,-4.1,-6.52,0.01,74,237,7.709622859954834,7.709611892700195
56,-0.49526917934417725,-2.147228479385376,-0.0003357327659614384,36.7142803,3.1813561,17.97,-4.86,-7.67,0.0,73,236,9.088553428649902,9.088553428649902
57,-0.3217431902885437,-2.1512231826782227,-0.0272537712007761,36.7142029,3.1812057,17.99,-4.72,-7.29,-0.01,73,236,8.688355445861816,8.688347816467285
58,-0.26091325283050537,-2.147164821624756,0.016078200191259384,36.7141442,3.1810925,17.99,-3.89,-6.11,0.02,73,236,7.251933574676514,7.251883029937744
59,-0.24463461339473724,-2.1190905570983887,0.022493701428174973,36.7140957,3.1809945,17.96,-3.39,-5.68,0.01,72,238,6.621888637542725,6.621862411499023
60,-0.30578866600990295,-2.100465774536133,0.023261845111846924,36.714044,3.1808833,17.96,-3.2,-5.63,0.0,72,239,6.488382816314697,6.488376140594482
61,-0.1744551807641983,-2.1000709533691406,-0.011302116326987743,36.7140006,3.1807884,17.96,-3.11,-5.45,0.0,71,239,6.284613132476807,6.284613609313965
62,0.13498534262180328,-2.100919485092163,0.02950919233262539,36.7139598,3.1806998,17.95,-1.79,-3.12,0.03,71,239,3.604759454727173,3.6045520305633545
63,0.11845989525318146,-2.1005799770355225,-0.026819564402103424,36.7139466,3.1806708,17.95,-0.3,-0.53,-0.02,71,239,0.6197857856750488,0.6193724274635315
64,0.006817582529038191,-2.1001312732696533,0.042701806873083115,36.7139464,3.1806702,17.94,0.12,0.15,0.03,70,239,0.19917424023151398,0.19637241959571838
