timestamp,pitch,yaw,roll,lat,lon,alt,velocity_x,velocity_y,velocity_z,battery,heading,airspeed,groundspeed
0,-0.01394534483551979,-0.0017196913249790668,-0.015574664808809757,36.7156066,3.1846299,22.62,-0.02,0.03,-0.09,96,359,0.10009261965751648,0.0415961854159832
1,-0.040012720972299576,0.012649201788008213,0.11512633413076401,36.7156081,3.1846327,22.61,0.36,0.61,-0.04,95,0,0.7144014239311218,0.7127471566200256
2,-0.2427206188440323,1.4645345211029053,-0.09614313393831253,36.7156209,3.1846571,22.65,1.61,2.47,-0.04,95,83,2.953761577606201,2.953451156616211
3,-0.18974816799163818,0.9472082853317261,-0.009650859981775284,36.715654,3.1847194,22.65,2.34,3.54,-0.01,95,54,4.25059700012207,4.250582218170166
4,0.043256647884845734,0.9608291387557983,0.014144918881356716,36.7156856,3.1847776,22.63,2.05,3.04,0.0,94,55,3.669576644897461,3.669576406478882
5,0.34146204590797424,0.9883321523666382,0.007565517444163561,36.7157008,3.1848045,22.65,-0.27,-0.41,-0.03,94,56,0.5007646679878235,0.49968624114990234
6,-0.053669221699237823,2.8200571537017822,0.1434880644083023,36.7156776,3.1847622,22.62,-2.2,-3.13,0.04,93,161,3.8292646408081055,3.8289849758148193
7,-0.09924657642841339,-1.9936635494232178,0.02543824352324009,36.7156472,3.1847065,22.66,-2.19,-3.26,-0.02,93,245,3.934054374694824,3.9339497089385986
8,-0.06933032721281052,-1.5510390996932983,0.26472413539886475,36.7156263,3.1846446,22.62,0.12,-2.87,0.01,93,271,2.87397837638855,2.8739113807678223
9,-0.38959765434265137,-0.6571304202079773,0.04979191720485687,36.7156538,3.1845966,22.62,3.91,-3.1,0.0,92,322,4.996538162231445,4.99653434753418
10,-0.5372750163078308,-0.6237990856170654,0.02884071134030819,36.7157265,3.1845321,22.62,6.63,-4.61,0.0,92,324,8.077356338500977,8.077354431152344
11,-0.475364625453949,-0.6172138452529907,-0.02769109606742859,36.7158434,3.1844312,22.64,7.88,-5.49,0.0,91,324,9.609064102172852,9.609063148498535
12,-0.44015929102897644,-0.6192964315414429,-0.008922231383621693,36.7159499,3.1843377,22.66,7.66,-5.43,-0.01,91,324,9.399543762207031,9.399526596069336
13,-0.030904902145266533,-0.624809205532074,-0.037429485470056534,36.716057,3.1842434,22.69,5.36,-3.84,0.04,91,324,6.606085777282715,6.605915546417236
14,0.03264942020177841,-1.080985426902771,-0.23185686767101288,36.716106,3.1841891,22.78,1.48,-2.88,-0.21,90,298,3.2483081817626953,3.2412047386169434
15,-0.42179226875305176,-2.129424571990967,-0.09255103021860123,36.7160915,3.184122,23.8,-3.03,-4.5,-0.93,90,238,5.507533073425293,5.42791223526001
16,-0.47344285249710083,-2.160855770111084,0.041244782507419586,36.716036,3.1840249,25.65,-4.85,-6.94,-1.44,89,236,8.598739624023438,8.475632667541504
17,-0.4248010218143463,-2.1628425121307373,-0.01781156100332737,36.7159641,3.1838957,28.04,-5.49,-8.01,-1.6,89,236,9.846439361572266,9.71438980102539
18,-0.4872601628303528,-2.1644771099090576,0.0251424852758646,36.7158766,3.1837355,30.9,-5.53,-8.22,-1.58,88,235,10.033665657043457,9.908341407775879
19,-0.4309391975402832,-2.163896083831787,0.029912231490015984,36.7158014,3.1835958,33.37,-5.54,-8.26,-1.59,88,236,10.086557388305664,9.959036827087402
20,-0.48547089099884033,-2.163626194000244,-0.015870269387960434,36.715714,3.1834331,36.27,-5.51,-8.24,-1.59,87,236,10.049193382263184,9.92175006866455
21,-0.4754474461078644,-2.163994550704956,0.04301829636096954,36.7156394,3.1832939,38.74,-5.52,-8.28,-1.61,87,236,10.089502334594727,9.959299087524414
22,-0.4230380356311798,-2.1642825603485107,-0.004800280090421438,36.7155645,3.1831539,41.24,-5.53,-8.27,-1.62,87,236,10.082151412963867,9.950366973876953
23,-0.46696382761001587,-2.1634819507598877,-0.03252537548542023,36.7154896,3.1830143,43.74,-5.51,-8.27,-1.62,86,236,10.072665214538574,9.940868377685547
24,-0.44243478775024414,-2.165698766708374,0.03630634769797325,36.7154026,3.1828517,46.65,-5.51,-8.3,-1.63,86,235,10.106633186340332,9.97351360321045
25,-0.48248451948165894,-2.1652138233184814,-0.019226420670747757,36.7153155,3.1826885,49.58,-5.52,-8.28,-1.62,85,235,10.09139347076416,9.959041595458984
26,-0.47390463948249817,-2.164275884628296,0.034509219229221344,36.7152406,3.1825483,52.09,-5.51,-8.29,-1.63,85,236,10.087993621826172,9.955267906188965
27,-0.42657923698425293,-2.163039207458496,0.009943502955138683,36.715166,3.1824086,54.58,-5.51,-8.29,-1.63,84,236,10.096476554870605,9.963489532470703
28,-0.4872542917728424,-2.1635849475860596,-0.005491375923156738,36.7150789,3.1822457,57.5,-5.53,-8.3,-1.63,84,236,10.113808631896973,9.980522155761719
29,-0.2571435570716858,-2.1680853366851807,0.03205493465065956,36.7150068,3.1821121,59.92,-4.87,-7.21,-1.45,83,235,8.822517395019531,8.702522277832031
30,-0.08996327221393585,-2.161698818206787,0.002077264478430152,36.7149447,3.1819961,61.91,-2.97,-4.54,-0.69,83,236,5.477474689483643,5.4329352378845215
31,-0.11873435229063034,-2.120250701904297,0.02093270793557167,36.7149113,3.1819295,62.53,-2.21,-3.71,-0.18,83,238,4.324453830718994,4.320699691772461
32,-0.17304499447345734,-2.1019678115844727,-0.015575233846902847,36.7148827,3.181868,62.61,-2.07,-3.68,0.0,82,239,4.230785369873047,4.230780124664307
33,0.004731097724288702,-2.103409767150879,-0.023176290094852448,36.7148509,3.1817988,62.59,-1.76,-3.1,0.03,82,239,3.5747427940368652,3.574575185775757
34,0.0047471001744270325,-2.2793831825256348,-0.034289516508579254,36.7148313,3.1817603,61.93,-1.22,-1.51,1.0,82,229,2.196967363357544,1.9513026475906372
35,-0.05419732257723808,-2.4773967266082764,-0.014362531714141369,36.7148136,3.1817404,59.39,-1.03,-0.8,1.45,81,218,1.9556117057800293,1.3083491325378418
36,-0.012422391213476658,-2.4723498821258545,0.020797397941350937,36.7147996,3.1817274,57.15,-1.03,-0.82,1.42,81,218,1.9454444646835327,1.3253445625305176
37,-0.058149561285972595,-2.4706640243530273,-0.015142017975449562,36.7147854,3.1817133,54.91,-1.05,-0.87,1.43,81,218,1.9898027181625366,1.3750193119049072
38,-0.017025114968419075,-2.470097541809082,-0.019575951620936394,36.7147685,3.1816964,52.3,-1.08,-0.88,1.44,80,218,2.012983798980713,1.4001619815826416
39,-0.04722544178366661,-2.470022201538086,0.024032847955822945,36.7147538,3.1816817,50.05,-1.06,-0.87,1.44,80,218,2.001814126968384,1.3803871870040894
40,-0.061041153967380524,-2.4695942401885986,-0.011958757415413857,36.7147369,3.1816647,47.44,-1.06,-0.88,1.45,79,218,2.0101661682128906,1.382020354270935
41,-0.014136051759123802,-2.4697377681732178,0.01961851678788662,36.7147224,3.1816501,45.2,-1.07,-0.87,1.46,79,218,2.0212972164154053,1.3880562782287598
42,-0.05473240837454796,-2.4697275161743164,-0.01682489551603794,36.7147077,3.1816353,42.94,-1.06,-0.89,1.46,79,218,2.01951265335083,1.3878531455993652
43,-0.016562340781092644,-2.4695754051208496,-0.014721022918820381,36.7146907,3.1816181,40.32,-1.07,-0.87,1.46,78,218,2.019352436065674,1.3861618041992188
44,-0.049494825303554535,-2.4705097675323486,0.0262397862970829,36.7146762,3.1816035,38.08,-1.06,-0.88,1.47,78,218,2.024604082107544,1.3861299753189087
45,-0.059443168342113495,-2.46988582611084,-0.012673960998654366,36.7146591,3.1815863,35.45,-1.07,-0.89,1.47,78,218,2.032691478729248,1.3949979543685913
46,-0.012783900834619999,-2.4700725078582764,0.019074849784374237,36.7146445,3.1815715,33.2,-1.06,-0.87,1.47,77,218,2.0154643058776855,1.3748605251312256
47,-0.052759066224098206,-2.4693729877471924,-0.01656293496489525,36.71463,3.1815569,30.96,-1.07,-0.88,1.47,77,218,2.0284523963928223,1.390451431274414
48,-0.019573990255594254,-2.469966173171997,-0.021873604506254196,36.7146129,3.1815397,28.33,-1.06,-0.88,1.47,76,218,2.0285584926605225,1.3894953727722168
49,-0.04931994900107384,-2.470299243927002,0.025747748091816902,36.7145983,3.1815249,26.08,-1.05,-0.88,1.47,76,218,2.014392137527466,1.3721284866333008
50,-0.13748769462108612,-2.989621162414551,-0.12270121276378632,36.7145785,3.1815103,23.52,-1.73,-0.33,1.22,76,188,2.1552071571350098,1.7697665691375732
51,-0.2050454318523407,2.669071912765503,-0.019252661615610123,36.7145448,3.1815204,22.61,-3.28,1.55,0.01,75,152,3.633967876434326,3.6339266300201416
52,-0.19172772765159607,2.6733665466308594,-0.015406831167638302,36.7144936,3.181552,22.7,-4.01,2.03,-0.02,75,153,4.503039360046387,4.50294828414917
53,-0.018379265442490578,2.9173004627227783,0.13718748092651367,36.7144317,3.1815862,22.66,-3.62,0.83,0.05,75,167,3.7241406440734863,3.723700523376465
54,-0.3696729242801666,-2.2866933345794678,0.17860707640647888,36.7143882,3.1815714,22.64,-2.95,-2.95,0.02,74,228,4.176379680633545,4.176307201385498
55,-0.4907045364379883,-2.1480376720428467,-0.02605815976858139,36.7143339,3.1814748,22.64,-4.14,-6.54,0.01,74,236,7.749466419219971,7.749456405639648
56,-0.49430039525032043,-2.1515719890594482,0.01427949033677578,36.7142715,3.1813529,22.65,-4.91,-7.65,0.0,73,236,9.096786499023438,9.096785545349121
57,-0.34083956480026245,-2.1569039821624756,-0.029313525184988976,36.7141934,3.1812032,22.67,-4.77,-7.27,0.0,73,236,8.89979362487793,8.89979076385498
58,-0.2520129382610321,-2.1509549617767334,0.03567435219883919,36.7141342,3.18109,22.67,-3.9,-6.08,0.03,73,236,7.230716705322266,7.230652809143066
59,-0.24558307230472565,-2.121119976043701,0.005828178022056818,36.7140856,3.1809924,22.65,-3.38,-5.66,0.02,72,238,6.603940486907959,6.603903293609619
60,-0.2877146899700165,-2.1003224849700928,0.0394718237221241,36.714034,3.1808817,22.65,-3.21,-5.66,0.01,72,239,6.512209415435791,6.5121989250183105
61,-0.1879090666770935,-2.1005072593688965,-0.02352125756442547,36.7139905,3.1807865,22.65,-3.12,-5.46,0.0,71,239,6.296416282653809,6.29641580581665
62,0.15707021951675415,-2.1011905670166016,0.013053099624812603,36.7139497,3.1806979,22.63,-1.76,-3.06,0.03,71,239,3.5360889434814453,3.53587007522583
63,0.09856700897216797,-2.1004934310913086,-0.016489561647176743,36.7139369,3.1806697,22.63,-0.28,-0.5,-0.02,71,239,0.583906888961792,0.5834975242614746
64,0.02270534448325634,-2.0993802547454834,0.040851570665836334,36.7139369,3.1806694,22.62,0.12,0.15,0.03,70,239,0.19630123674869537,0.19367273151874542
