timestamp,pitch,yaw,roll,lat,lon,alt,velocity_x,velocity_y,velocity_z,battery,heading,airspeed,groundspeed
0,0.0242154598236084,0.04016899690032005,-0.01303806621581316,36.7156066,3.1846299,19.75,-0.01,0.02,0.03,96,2,0.04762117192149162,0.032105572521686554
1,-0.04602249711751938,0.03984663262963295,0.1178264245390892,36.7156079,3.1846325,19.69,0.31,0.54,0.0,95,2,0.6300594806671143,0.6300594210624695
2,-0.2370063066482544,1.4305778741836548,-0.09329424798488617,36.7156191,3.1846542,19.66,1.41,2.26,-0.02,95,81,2.670025587081909,2.6699109077453613
3,-0.16495336592197418,0.9573366641998291,-0.029599670320749283,36.715649,3.1847129,19.71,2.17,3.42,-0.04,95,54,4.05272912979126,4.05251932144165
4,-0.005568545777350664,0.9764364361763,0.028428131714463234,36.7156787,3.1847697,19.74,1.99,3.05,-0.02,94,55,3.648104429244995,3.6480095386505127
5,0.3185949921607971,1.1620618104934692,0.07079748809337616,36.7156935,3.1847973,19.74,-0.65,-0.92,0.0,94,66,1.1346542835235596,1.134643316268921
6,-0.02618294768035412,2.836981773376465,0.17857833206653595,36.7156722,3.1847588,19.77,-2.18,-3.1,-0.02,93,162,3.7991299629211426,3.7990143299102783
7,-0.151882141828537,-1.9771931171417236,-0.0035122439730912447,36.715642,3.1847033,19.77,-2.23,-3.27,0.0,93,246,3.963815927505493,3.963804244995117
8,-0.061200954020023346,-1.5783472061157227,0.21144351363182068,36.7156199,3.1846408,19.75,0.0,-2.91,0.0,93,269,2.917876720428467,2.917869806289673
9,-0.37624239921569824,-0.6574035882949829,0.10856332629919052,36.7156456,3.1845924,19.74,3.79,-3.08,0.0,92,322,4.889623165130615,4.889620780944824
10,-0.5348525047302246,-0.6283076405525208,0.00151901226490736,36.7157323,3.1845153,19.75,6.87,-4.76,-0.01,92,324,8.364558219909668,8.364551544189453
11,-0.4977630376815796,-0.6215106844902039,0.030135327950119972,36.7158331,3.1844276,19.77,7.85,-5.5,0.0,91,324,9.59317684173584,9.593172073364258
12,-0.3800891935825348,-0.622955858707428,-0.005382312461733818,36.7159395,3.1843339,19.79,7.66,-5.46,-0.02,91,324,9.412862777709961,9.412837982177734
13,-0.07864163815975189,-0.6263694763183594,0.0009612004505470395,36.7160465,3.1842391,19.82,5.38,-3.88,0.04,91,324,6.6403937339782715,6.640258312225342
14,0.06447229534387589,-1.079366683959961,-0.27938592433929443,36.7160961,3.1841843,19.9,1.55,-2.9,-0.21,90,298,3.30023455619812,3.293429136276245
15,-0.3775188624858856,-2.1316580772399902,-0.04191123694181442,36.7160823,3.1841172,20.92,-3.0,-4.49,-0.92,90,237,5.484109401702881,5.404747486114502
16,-0.47190597653388977,-2.1594316959381104,-0.032801296561956406,36.716027,3.1840202,22.75,-4.84,-6.95,-1.44,89,236,8.596924781799316,8.473992347717285
17,-0.5001377463340759,-2.1629984378814697,-0.004321725573390722,36.7159552,3.1838915,25.14,-5.52,-8.01,-1.61,89,236,9.867663383483887,9.735072135925293
18,-0.4288666546344757,-2.1642329692840576,-0.0021179059986025095,36.7158675,3.183731,28.02,-5.54,-8.21,-1.58,88,236,10.036580085754395,9.911432266235352
19,-0.4583519697189331,-2.1639740467071533,-0.032828040421009064,36.7157922,3.1835915,30.48,-5.54,-8.25,-1.59,88,236,10.072973251342773,9.945812225341797
20,-0.44714370369911194,-2.164700746536255,0.03954433649778366,36.7157048,3.1834286,33.38,-5.51,-8.25,-1.6,87,235,10.060750961303711,9.931530952453613
21,-0.4251459240913391,-2.1629691123962402,-0.0029606102034449577,36.7156303,3.1832893,35.87,-5.5,-8.27,-1.6,87,236,10.070898056030273,9.941471099853516
22,-0.4793992340564728,-2.1621546745300293,-0.02931860461831093,36.7155555,3.1831495,38.35,-5.52,-8.28,-1.61,87,236,10.088631629943848,9.958438873291016
23,-0.4364347457885742,-2.164020299911499,0.034592993557453156,36.715468,3.1829866,41.26,-5.52,-8.27,-1.64,86,236,10.081092834472656,9.946786880493164
24,-0.43201902508735657,-2.1635687351226807,-0.018527474254369736,36.7153936,3.1828471,43.77,-5.5,-8.3,-1.63,86,236,10.099353790283203,9.966885566711426
25,-0.4899710714817047,-2.164959669113159,0.026478730142116547,36.7153065,3.1826838,46.69,-5.52,-8.28,-1.63,85,235,10.090755462646484,9.95783805847168
26,-0.43940457701683044,-2.164815664291382,0.02835414558649063,36.7152315,3.1825438,49.18,-5.52,-8.27,-1.64,85,235,10.086311340332031,9.951047897338867
27,-0.4361300468444824,-2.1653025150299072,-0.02214924618601799,36.7151565,3.1824039,51.69,-5.5,-8.28,-1.64,84,235,10.088165283203125,9.95328140258789
28,-0.4797881841659546,-2.1629250049591064,0.02763083018362522,36.71507,3.1822414,54.62,-5.51,-8.31,-1.63,84,236,10.108716011047363,9.97590160369873
29,-0.2417869120836258,-2.168633460998535,0.015384305268526077,36.7149978,3.1821077,57.02,-4.91,-7.24,-1.45,83,235,8.874542236328125,8.75368881225586
30,-0.08978264033794403,-2.161280393600464,0.026504600420594215,36.7149355,3.1819913,59.02,-2.97,-4.55,-0.7,83,236,5.486598014831543,5.4406657218933105
31,-0.11549019813537598,-2.1095175743103027,0.012477890588343143,36.7149023,3.1819246,59.66,-2.16,-3.7,-0.18,83,239,4.296651840209961,4.292860507965088
32,-0.17915260791778564,-2.086094617843628,-0.0035425578244030476,36.7148745,3.181863,59.74,-1.99,-3.68,0.0,82,240,4.189384937286377,4.1893815994262695
33,0.001139212865382433,-2.0878748893737793,-0.027570310980081558,36.714844,3.1817935,59.72,-1.7,-3.11,0.03,82,240,3.545919895172119,3.545715808868408
34,-0.0014630842488259077,-2.2720139026641846,-0.03260459378361702,36.7148248,3.181755,59.05,-1.21,-1.52,1.01,82,229,2.1976242065429688,1.9504966735839844
35,-0.0482640378177166,-2.47714900970459,-0.02022436447441578,36.7148072,3.181735,56.52,-1.03,-0.8,1.45,81,218,1.959410548210144,1.3149274587631226
36,-0.020747670903801918,-2.4718661308288574,0.029698703438043594,36.7147932,3.1817219,54.28,-1.02,-0.82,1.43,81,218,1.9464964866638184,1.3169636726379395
37,-0.047276999801397324,-2.4704692363739014,-0.021712152287364006,36.714779,3.1817079,52.03,-1.07,-0.88,1.43,81,218,1.998052954673767,1.3874343633651733
38,-0.006911143660545349,-2.4698383808135986,-0.0016266369493678212,36.7147621,3.1816909,49.42,-1.07,-0.88,1.44,80,218,2.0062077045440674,1.3910696506500244
39,-0.06258806586265564,-2.4692044258117676,-0.004125320818275213,36.7147475,3.1816762,47.18,-1.07,-0.88,1.45,80,218,2.0180938243865967,1.3943043947219849
40,-0.03056938759982586,-2.46952223777771,-0.02626008540391922,36.7147305,3.1816591,44.56,-1.06,-0.87,1.46,79,218,2.014902114868164,1.3839350938796997
41,-0.04958229139447212,-2.4698567390441895,0.026303565129637718,36.7147159,3.1816446,42.31,-1.07,-0.89,1.46,79,218,2.023613214492798,1.3974629640579224
42,-0.05819622427225113,-2.469752311706543,-0.013141241855919361,36.7146989,3.1816273,39.7,-1.07,-0.88,1.47,79,218,2.02858304977417,1.3917940855026245
43,-0.022415000945329666,-2.4690535068511963,0.027568407356739044,36.7146843,3.1816125,37.45,-1.06,-0.88,1.47,78,218,2.0245347023010254,1.3856104612350464
44,-0.05303165316581726,-2.4694838523864746,-0.019022122025489807,36.7146697,3.1815979,35.2,-1.08,-0.88,1.47,78,218,2.032862663269043,1.4003371000289917
45,-0.009740259498357773,-2.4694905281066895,-0.007414128631353378,36.7146527,3.1815807,32.58,-1.07,-0.88,1.47,78,218,2.0287935733795166,1.3883084058761597
46,-0.06163788586854935,-2.4700887203216553,0.011118887923657894,36.7146381,3.181566,30.33,-1.06,-0.88,1.47,77,218,2.027024269104004,1.3858388662338257
47,-0.034562528133392334,-2.469513177871704,-0.023238714784383774,36.7146211,3.1815488,27.7,-1.06,-0.88,1.47,77,218,2.022904396057129,1.3868868350982666
48,-0.038010481745004654,-2.469573736190796,0.028971120715141296,36.7146065,3.1815341,25.45,-1.06,-0.88,1.47,77,218,2.024726390838623,1.3890554904937744
49,-0.024496741592884064,-2.4696733951568604,-0.029930710792541504,36.7145919,3.1815193,23.21,-1.07,-0.87,1.48,76,218,2.0265438556671143,1.3821334838867188
50,-0.08520692586898804,-2.9939239025115967,-0.09270606935024261,36.714572,3.1815046,20.65,-1.73,-0.32,1.22,76,188,2.149955987930298,1.767759084701538
51,-0.2588338255882263,2.6766273975372314,-0.04478074982762337,36.7145382,3.1815147,19.74,-3.31,1.53,0.01,75,153,3.6519346237182617,3.651886224746704
52,-0.14394228160381317,2.6795051097869873,-0.01820639707148075,36.7144772,3.1815517,19.85,-4.06,2.03,0.01,75,153,4.5451531410217285,4.545139312744141
53,-0.06727663427591324,2.8072681427001953,0.09307155013084412,36.7144321,3.1815774,19.81,-3.79,1.27,0.06,75,160,4.006216049194336,4.005712509155273
54,-0.3120418190956116,-2.29343318939209,0.14821043610572815,36.71438,3.1815672,19.77,-2.94,-2.83,0.02,74,228,4.0903825759887695,4.090307235717773
55,-0.4900510311126709,-2.1428756713867188,0.03490137681365013,36.7143264,3.1814721,19.77,-4.08,-6.49,0.01,74,237,7.671566963195801,7.671558380126953
56,-0.4349960684776306,-2.147151231765747,0.0048795901238918304,36.7142649,3.1813507,19.78,-4.85,-7.65,0.0,73,236,9.068072319030762,9.068072319030762
57,-0.36817800998687744,-2.1525864601135254,0.016749033704400063,36.7141875,3.1812007,19.8,-4.74,-7.31,-0.01,73,236,8.718609809875488,8.71860122680664
58,-0.2059033215045929,-2.1459312438964844,0.027090899646282196,36.7141286,3.1810869,19.8,-3.89,-6.12,0.02,73,237,7.255905628204346,7.255855560302734
59,-0.2940460443496704,-2.1199419498443604,-0.0058995019644498825,36.7140802,3.1809889,19.77,-3.37,-5.66,0.02,72,238,6.597197532653809,6.597164630889893
60,-0.2517853081226349,-2.0999062061309814,0.014996658079326153,36.7140286,3.1808782,19.77,-3.21,-5.65,0.0,72,239,6.5097479820251465,6.5097432136535645
61,-0.22998018562793732,-2.0999631881713867,-0.011905727908015251,36.7139851,3.1807831,19.77,-3.12,-5.48,0.0,71,239,6.315245151519775,6.315245151519775
62,0.09323732554912567,-2.100322723388672,0.025566285476088524,36.7139483,3.1807032,19.76,-2.09,-3.63,0.03,71,239,4.193129062652588,4.192951679229736
63,0.09918351471424103,-2.1005334854125977,0.014164368622004986,36.7139306,3.1806644,19.76,-0.3,-0.54,-0.02,71,239,0.6205368638038635,0.6201322078704834
64,-0.013292628340423107,-2.101285934448242,0.018074192106723785,36.7139308,3.1806643,19.74,0.17,0.09,0.04,70,239,0.20160722732543945,0.19708597660064697
