timestamp,pitch,yaw,roll,lat,lon,alt,velocity_x,velocity_y,velocity_z,battery,heading,airspeed,groundspeed
0,-0.024817489087581635,0.01395847462117672,0.005797459278255701,36.7156066,3.18463,17.46,-0.01,0.02,-0.02,96,0,0.04341154918074608,0.0316939502954483
1,-0.03339887410402298,0.012089728377759457,0.07957695424556732,36.7156078,3.184632,17.52,0.3,0.48,-0.01,95,0,0.5741588473320007,0.5739797353744507
2,-0.18076926469802856,1.4117077589035034,-0.09026607871055603,36.7156227,3.1846589,17.48,1.71,2.47,-0.02,95,80,3.0077593326568604,3.0076887607574463
3,-0.196552112698555,0.9072223901748657,0.007795069366693497,36.7156513,3.18471,17.51,2.38,3.41,-0.02,95,51,4.166325569152832,4.166225433349609
4,-0.0022413707338273525,0.9340781569480896,-0.0022624030243605375,36.7156842,3.1847673,17.52,2.24,3.14,-0.01,94,53,3.864992380142212,3.864966869354248
5,0.3684629499912262,0.8045017123222351,-0.02322418987751007,36.7157037,3.1847999,17.51,-0.37,-0.59,0.01,94,46,0.6984778642654419,0.6983268857002258
6,-0.05211864784359932,-0.7886690497398376,-0.21625515818595886,36.7156845,3.1847646,17.54,-2.13,-3.08,-0.03,93,314,3.751185178756714,3.7510390281677246
7,-0.08030165731906891,-2.413606882095337,0.029508031904697418,36.7156492,3.1847001,17.54,-2.19,-3.27,0.01,93,221,3.9416720867156982,3.941650867462158
8,-0.037251170724630356,-1.6633816957473755,0.24193666875362396,36.7156299,3.184646,17.53,-0.31,-2.93,0.01,93,264,2.947559356689453,2.9475131034851074
9,-0.38345035910606384,-0.6489161849021912,0.06240040063858032,36.715651,3.1845983,17.52,3.49,-2.99,0.0,92,322,4.602486610412598,4.602486610412598
10,-0.47717344760894775,-0.6220343112945557,0.03203214704990387,36.7157341,3.1845243,17.52,6.7,-4.66,-0.01,92,324,8.170010566711426,8.170001983642578
11,-0.49207407236099243,-0.6149223446846008,-0.03551427647471428,36.7158342,3.1844379,17.54,7.83,-5.45,0.0,91,324,9.54560375213623,9.545602798461914
12,-0.39084193110466003,-0.6201106309890747,0.034221477806568146,36.7159579,3.1843292,17.57,7.6,-5.4,-0.01,91,324,9.328768730163574,9.328756332397461
13,-0.07866788655519485,-0.6223580837249756,-0.027875903993844986,36.7160508,3.1842471,17.6,5.74,-4.07,0.04,91,324,7.041628837585449,7.041502952575684
14,0.06782853603363037,-0.9573128819465637,-0.1959429532289505,36.7161062,3.1841905,17.65,2.04,-2.9,-0.15,90,305,3.5558855533599854,3.552610397338867
15,-0.40949809551239014,-2.1253662109375,-0.09581157565116882,36.7160993,3.1841265,18.54,-2.67,-4.22,-0.85,90,238,5.0786824226379395,5.005734443664551
16,-0.46109867095947266,-2.164062738418579,0.03493014723062515,36.7160472,3.1840347,20.29,-4.7,-6.76,-1.4,89,236,8.354734420776367,8.236518859863281
17,-0.4610171914100647,-2.162027597427368,-0.03256988897919655,36.7159638,3.1838849,23.05,-5.51,-8.01,-1.61,89,236,9.81486701965332,9.681784629821777
18,-0.4763064682483673,-2.164479970932007,0.0336807481944561,36.7158885,3.1837473,25.52,-5.52,-8.16,-1.58,88,235,9.982939720153809,9.856623649597168
19,-0.4331217110157013,-2.1625871658325195,0.015136280097067356,36.7158135,3.1836082,27.99,-5.54,-8.23,-1.58,88,236,10.057821273803711,9.931988716125488
20,-0.4892265796661377,-2.165659189224243,-0.002400166355073452,36.715726,3.1834457,30.87,-5.53,-8.26,-1.59,88,235,10.078152656555176,9.95103931427002
21,-0.4687061905860901,-2.163752555847168,0.0371173731982708,36.7156513,3.1833062,33.36,-5.51,-8.25,-1.6,87,236,10.054948806762695,9.925541877746582
22,-0.46489834785461426,-2.1648590564727783,-0.02196625992655754,36.7155642,3.1831434,36.27,-5.5,-8.29,-1.6,87,235,10.079303741455078,9.950197219848633
23,-0.476666659116745,-2.1657426357269287,-0.018425345420837402,36.715502,3.1830271,38.35,-5.51,-8.3,-1.61,86,235,10.10318660736084,9.973466873168945
24,-0.4324227571487427,-2.162576913833618,0.029063761234283447,36.7154148,3.1828637,41.26,-5.51,-8.3,-1.63,86,236,10.10128402709961,9.96829891204834
25,-0.48757028579711914,-2.165313720703125,-0.016815824434161186,36.7153276,3.1827008,44.19,-5.52,-8.3,-1.62,85,235,10.104243278503418,9.973023414611816
26,-0.4693560004234314,-2.1641032695770264,0.031220760196447372,36.7152527,3.1825608,46.69,-5.51,-8.29,-1.62,85,236,10.092676162719727,9.960354804992676
27,-0.44572263956069946,-2.1663732528686523,-0.02351062372326851,36.7151653,3.1823976,49.6,-5.5,-8.28,-1.63,84,235,10.081408500671387,9.948073387145996
28,-0.49267295002937317,-2.1659624576568604,0.006884370464831591,36.7150908,3.1822581,52.11,-5.49,-8.29,-1.63,84,235,10.078096389770508,9.944926261901855
29,-0.2887081205844879,-2.1679635047912598,0.032176293432712555,36.7150184,3.1821231,54.55,-5.04,-7.46,-1.48,84,235,9.127396583557129,9.006255149841309
30,-0.08855781704187393,-2.1641147136688232,0.0011048567248508334,36.7149528,3.1820011,56.67,-3.15,-4.77,-0.78,83,236,5.772315502166748,5.719217777252197
31,-0.11846354603767395,-2.125399112701416,0.022470146417617798,36.7149179,3.1819325,57.4,-2.23,-3.69,-0.22,83,238,4.325439453125,4.319637298583984
32,-0.1756570190191269,-2.1020140647888184,0.030077172443270683,36.7148847,3.181861,57.5,-2.07,-3.68,0.0,82,239,4.231776714324951,4.231770038604736
33,-0.0069989957846701145,-2.1032049655914307,-0.019013497978448868,36.7148571,3.181801,57.5,-1.86,-3.27,0.0,82,239,3.765730381011963,3.765723943710327
34,0.03766481578350067,-2.298978567123413,-0.026570424437522888,36.7148336,3.1817549,56.75,-1.22,-1.45,1.06,82,228,2.181084394454956,1.9006701707839966
35,-0.05018274113535881,-2.4839985370635986,-0.018576575443148613,36.7148185,3.1817378,54.56,-1.02,-0.79,1.46,81,217,1.9599030017852783,1.3011925220489502
36,-0.01977771893143654,-2.472285270690918,0.0255588311702013,36.7148046,3.1817247,52.31,-1.03,-0.82,1.41,81,218,1.937881588935852,1.3213074207305908
37,-0.05952528491616249,-2.470625638961792,0.017230963334441185,36.7147878,3.1817084,49.7,-1.06,-0.87,1.43,81,218,1.9909965991973877,1.3765532970428467
38,-0.014678158797323704,-2.469729423522949,-0.009005345404148102,36.7147734,3.1816938,47.45,-1.07,-0.88,1.43,80,218,2.0036423206329346,1.3947604894638062
39,-0.05630865320563316,-2.4697206020355225,0.01703863963484764,36.7147588,3.1816792,45.21,-1.06,-0.87,1.44,80,218,1.9971449375152588,1.3796870708465576
40,-0.05178850516676903,-2.469402313232422,-0.01883542537689209,36.7147418,3.1816622,42.6,-1.07,-0.87,1.45,79,218,2.0126123428344727,1.3869187831878662
41,-0.026816928759217262,-2.4694766998291016,0.029014648869633675,36.7147273,3.1816475,40.36,-1.06,-0.88,1.46,79,218,2.0175652503967285,1.38577139377594
42,-0.05774213746190071,-2.4701316356658936,0.011290602385997772,36.7147103,3.1816303,37.73,-1.07,-0.89,1.46,79,218,2.0259220600128174,1.3982105255126953
43,-0.006840521469712257,-2.4691267013549805,-0.0021971133537590504,36.7146956,3.1816155,35.49,-1.06,-0.87,1.47,78,218,2.0208754539489746,1.3838553428649902
44,-0.02574971504509449,-2.46939754486084,0.030559521168470383,36.7146786,3.1815984,32.87,-1.06,-0.87,1.47,78,218,2.0189709663391113,1.3768186569213867
45,-0.03958462178707123,-2.4696216583251953,-0.025119535624980927,36.7146641,3.1815838,30.62,-1.06,-0.88,1.47,78,218,2.024425506591797,1.386964201927185
46,-0.029680386185646057,-2.469639539718628,0.028240645304322243,36.7146495,3.181569,28.37,-1.06,-0.88,1.47,77,218,2.0228989124298096,1.382811427116394
47,-0.06489195674657822,-2.4695372581481934,0.0026762080378830433,36.7146325,3.1815517,25.75,-1.06,-0.88,1.47,77,218,2.026573419570923,1.3882837295532227
48,-0.007707933895289898,-2.469496726989746,-0.002297894563525915,36.7146178,3.181537,23.49,-1.06,-0.87,1.47,77,218,2.0191075801849365,1.3810679912567139
49,-0.02945459447801113,-2.469568967819214,0.02759234420955181,36.7146008,3.1815199,20.87,-1.06,-0.87,1.47,76,218,2.0190632343292236,1.3844269514083862
50,-0.09424345195293427,-2.870546817779541,-0.12389133125543594,36.7145843,3.1815067,18.66,-1.59,-0.48,1.32,76,195,2.1347572803497314,1.670968770980835
51,-0.23906327784061432,2.67840576171875,-0.009427898563444614,36.7145532,3.1815131,17.52,-3.1,1.37,0.1,75,153,3.400320053100586,3.3988449573516846
52,-0.19366177916526794,2.672807216644287,-0.00972655601799488,36.7144943,3.1815492,17.61,-4.01,2.04,-0.01,75,153,4.503713607788086,4.503676414489746
53,-0.011962167918682098,2.8419995307922363,0.1377273052930832,36.7144407,3.18158,17.57,-3.7,1.13,0.06,75,162,3.872030019760132,3.8715293407440186
54,-0.3731811046600342,-2.2553493976593018,0.17640438675880432,36.7143897,3.1815651,17.54,-2.9,-3.12,0.02,74,230,4.271822929382324,4.271759033203125
55,-0.45835649967193604,-2.141880512237549,-0.016937008127570152,36.7143449,3.1814844,17.54,-3.96,-6.3,0.01,74,237,7.450821876525879,7.450805187225342
56,-0.4989680349826813,-2.146223545074463,-0.01613140106201172,36.7142844,3.1813646,17.55,-4.83,-7.61,0.0,73,237,9.020267486572266,9.02026653289795
57,-0.3277244567871094,-2.1517066955566406,-0.010650543496012688,36.7142066,3.1812138,17.57,-4.79,-7.38,0.0,73,236,8.811684608459473,8.811680793762207
58,-0.2689209580421448,-2.1497089862823486,-0.0006227791309356689,36.7141468,3.1810986,17.57,-3.99,-6.23,0.03,73,236,7.410492897033691,7.4104132652282715
59,-0.25122886896133423,-2.1235947608947754,-0.0015094563132151961,36.7140896,3.1809839,17.55,-3.43,-5.69,0.02,72,238,6.647449493408203,6.647412300109863
60,-0.3061924874782562,-2.1091229915618896,0.006478792987763882,36.7140444,3.1808886,17.55,-3.28,-5.65,0.01,72,239,6.5429558753967285,6.54293966293335
61,-0.19611629843711853,-2.1083106994628906,0.009452779777348042,36.714,3.1807935,17.55,-3.22,-5.54,0.0,71,239,6.4175872802734375,6.417585849761963
62,0.08794568479061127,-2.1094648838043213,0.030508141964673996,36.7139563,3.1807005,17.53,-2.02,-3.44,0.04,71,239,3.9968976974487305,3.9966719150543213
63,0.15075530111789703,-2.1090519428253174,-0.023288002237677574,36.7139406,3.1806666,17.52,-0.41,-0.71,-0.02,71,239,0.8287084698677063,0.8284592032432556
64,0.024477500468492508,-2.1082041263580322,0.04135784134268761,36.7139402,3.1806653,17.52,0.13,0.14,0.03,70,239,0.20055587589740753,0.19736500084400177
