timestamp,pitch,yaw,roll,lat,lon,alt,velocity_x,velocity_y,velocity_z,battery,heading,airspeed,groundspeed
0,0.028822796419262886,-0.03856424614787102,0.012940610758960247,36.7156066,3.1846299,18.13,-0.03,0.02,0.0,96,357,0.04604337364435196,0.046019747853279114
1,-0.08526443690061569,-0.0352003239095211,0.1070931926369667,36.7156078,3.1846327,18.15,0.32,0.62,0.0,95,357,0.7015591263771057,0.7015532851219177
2,-0.18085044622421265,1.5176374912261963,-0.13020238280296326,36.7156195,3.1846576,18.11,1.49,2.53,-0.01,95,86,2.938566207885742,2.9385108947753906
3,-0.128507599234581,0.9148003458976746,0.011513946577906609,36.7156499,3.1847208,18.16,2.15,3.62,-0.03,95,52,4.2172064781188965,4.217081546783447
4,0.008272168226540089,0.9994014501571655,-0.006513834930956364,36.7156787,3.1847799,18.18,1.84,3.05,-0.01,94,57,3.5665948390960693,3.5665643215179443
5,0.2840246260166168,1.5310759544372559,0.15028025209903717,36.7156896,3.1848032,18.17,-0.91,-1.25,0.0,94,87,1.5578466653823853,1.5578466653823853
6,-0.08793102204799652,-3.130526065826416,0.171659916639328,36.7156663,3.1847615,18.21,-2.24,-3.18,-0.01,93,180,3.8943846225738525,3.894334554672241
7,-0.12607498466968536,-1.9312307834625244,-0.008753729984164238,36.7156362,3.1847059,18.2,-2.19,-3.27,0.0,93,249,3.945894956588745,3.945885181427002
8,-0.05303100496530533,-1.4497891664505005,0.22927339375019073,36.7156168,3.1846437,18.18,0.29,-2.86,0.0,93,276,2.8796935081481934,2.879686117172241
9,-0.4254838526248932,-0.6535347700119019,0.10075177997350693,36.7156467,3.1845952,18.18,4.08,-3.15,0.0,92,322,5.158365726470947,5.158364295959473
10,-0.5172474384307861,-0.6274252533912659,-0.020152997225522995,36.7157365,3.1845161,18.18,7.01,-4.87,0.0,92,324,8.540401458740234,8.540398597717285
11,-0.5117329359054565,-0.6205530166625977,0.011754688806831837,36.7158387,3.1844272,18.2,7.86,-5.52,0.0,91,324,9.616141319274902,9.616138458251953
12,-0.35811394453048706,-0.6216254234313965,0.01931132934987545,36.7159448,3.1843337,18.22,7.55,-5.37,-0.02,91,324,9.272356986999512,9.272319793701172
13,-0.06658419221639633,-0.6285672187805176,-0.02446095272898674,36.716049,3.1842412,18.24,5.15,-3.75,0.04,91,323,6.379130840301514,6.378968238830566
14,0.03922654315829277,-1.1797270774841309,-0.29453855752944946,36.7160944,3.1841875,18.37,1.18,-2.9,-0.24,90,292,3.14917254447937,3.1392650604248047
15,-0.39148905873298645,-2.1372501850128174,-0.02880319394171238,36.7160756,3.1841182,19.46,-3.22,-4.66,-0.97,90,237,5.749390125274658,5.6654815673828125
16,-0.46831199526786804,-2.1607160568237305,-0.02639765851199627,36.7160186,3.1840185,21.36,-4.92,-7.1,-1.47,89,236,8.775212287902832,8.650938987731934
17,-0.49321499466896057,-2.162353038787842,-0.009273916482925415,36.7159461,3.1838879,23.77,-5.52,-8.05,-1.6,89,236,9.89639663696289,9.764657020568848
18,-0.42545509338378906,-2.165332317352295,-0.0003446833579801023,36.7158581,3.1837268,26.65,-5.54,-8.17,-1.57,88,235,10.005983352661133,9.880833625793457
19,-0.46433478593826294,-2.164156675338745,-0.027205023914575577,36.715783,3.1835874,29.12,-5.52,-8.24,-1.58,88,236,10.049539566040039,9.924430847167969
20,-0.44817501306533813,-2.1656103134155273,0.03493691235780716,36.715696,3.1834253,32.0,-5.53,-8.27,-1.61,88,235,10.087980270385742,9.958453178405762
21,-0.41824933886528015,-2.162858724594116,-0.01619465835392475,36.715621,3.1832853,34.49,-5.51,-8.28,-1.61,87,236,10.07772159576416,9.947516441345215
22,-0.48851898312568665,-2.1622135639190674,-0.011607147753238678,36.7155463,3.1831456,36.99,-5.51,-8.27,-1.61,87,236,10.07546329498291,9.945859909057617
23,-0.47359949350357056,-2.1634016036987305,0.03356432914733887,36.7154716,3.1830061,39.48,-5.52,-8.27,-1.62,86,236,10.078022003173828,9.946508407592773
24,-0.4531557559967041,-2.1650850772857666,-0.026565544307231903,36.7153843,3.1828431,42.39,-5.52,-8.3,-1.63,86,235,10.10530948638916,9.972082138061523
25,-0.4563165307044983,-2.166879653930664,0.042545996606349945,36.715297,3.1826799,45.32,-5.53,-8.27,-1.63,85,235,10.090564727783203,9.956838607788086
26,-0.42707619071006775,-2.164813756942749,-0.0006975802243687212,36.7152224,3.1825403,47.82,-5.49,-8.29,-1.63,85,235,10.080743789672852,9.947399139404297
27,-0.4869347810745239,-2.163424253463745,0.024153247475624084,36.7151354,3.1823771,50.74,-5.51,-8.32,-1.64,84,236,10.123494148254395,9.98952579498291
28,-0.4215713441371918,-2.1645970344543457,0.027937928214669228,36.7150606,3.1822371,53.25,-5.52,-8.27,-1.63,84,235,10.082741737365723,9.948795318603516
29,-0.24827930331230164,-2.1685657501220703,-0.023995473980903625,36.7149895,3.1821053,55.63,-4.78,-7.08,-1.42,83,235,8.663703918457031,8.546040534973145
30,-0.04423791542649269,-2.15765118598938,0.03893495723605156,36.7149291,3.1819924,57.54,-2.87,-4.41,-0.65,83,236,5.313358306884766,5.2726359367370605
31,-0.156187504529953,-2.1061882972717285,-0.0035982157569378614,36.7148967,3.1819268,58.11,-2.13,-3.69,-0.15,83,239,4.271174907684326,4.268340110778809
32,-0.12969739735126495,-2.086151599884033,-0.007463353220373392,36.7148648,3.1818552,58.16,-2.0,-3.69,-0.01,82,240,4.203057289123535,4.203037261962891
33,-0.03211670368909836,-2.088704824447632,-0.002955156844109297,36.7148391,3.181797,58.14,-1.64,-3.01,0.06,82,240,3.438136339187622,3.4374616146087646
34,0.04684358462691307,-2.304879665374756,-0.04894145205616951,36.7148204,3.1817602,57.35,-1.21,-1.44,1.1,82,227,2.1950738430023193,1.8937525749206543
35,-0.025425393134355545,-2.4719297885894775,0.026962094008922577,36.7148029,3.1817411,54.76,-1.03,-0.79,1.43,81,218,1.9437477588653564,1.3061505556106567
36,-0.042568694800138474,-2.471360921859741,-0.021697644144296646,36.7147889,3.181728,52.53,-1.04,-0.83,1.42,81,218,1.9548137187957764,1.337064504623413
37,-0.009750199504196644,-2.4698398113250732,0.00019463380158413202,36.7147723,3.1817115,49.92,-1.06,-0.87,1.44,81,218,1.9985074996948242,1.3832728862762451
38,-0.05905738100409508,-2.469815254211426,0.00027640341431833804,36.7147577,3.1816969,47.67,-1.06,-0.88,1.44,80,218,2.002345561981201,1.3869295120239258
39,-0.011283270083367825,-2.469416618347168,-0.0022974179591983557,36.7147432,3.1816823,45.43,-1.07,-0.88,1.45,80,218,2.0092267990112305,1.3897918462753296
40,-0.028661148622632027,-2.4694716930389404,0.026332831010222435,36.7147261,3.1816651,42.82,-1.07,-0.89,1.46,79,218,2.022006034851074,1.3950092792510986
41,-0.032735493034124374,-2.469731569290161,-0.024924511089920998,36.7147115,3.1816505,40.57,-1.07,-0.88,1.46,79,218,2.0242371559143066,1.3946988582611084
42,-0.012335591949522495,-2.4700570106506348,0.003393006045371294,36.7146945,3.1816335,37.95,-1.07,-0.87,1.47,79,218,2.019805431365967,1.3830410242080688
43,-0.05845246464014053,-2.469146728515625,-0.006217636168003082,36.7146799,3.1816187,35.7,-1.06,-0.9,1.47,78,218,2.030637264251709,1.3948338031768799
44,-0.008247802034020424,-2.469439744949341,0.0011558980913832784,36.7146654,3.1816039,33.45,-1.06,-0.88,1.47,78,218,2.0239851474761963,1.386991024017334
45,-0.04022308439016342,-2.4695534706115723,0.02980329841375351,36.7146484,3.1815867,30.82,-1.06,-0.88,1.47,78,218,2.0179169178009033,1.3817137479782104
46,-0.03018183261156082,-2.469935417175293,-0.025178181007504463,36.7146338,3.1815721,28.59,-1.07,-0.88,1.48,77,218,2.0317203998565674,1.3915772438049316
47,-0.009036900475621223,-2.469461679458618,0.0047207362949848175,36.7146167,3.1815548,25.96,-1.06,-0.88,1.47,77,218,2.024951696395874,1.385240077972412
48,-0.06225578486919403,-2.4693779945373535,-0.002020480576902628,36.7146021,3.1815402,23.7,-1.05,-0.88,1.47,77,218,2.016491651535034,1.3765637874603271
49,-0.007311496417969465,-2.469428539276123,0.011517846025526524,36.7145877,3.1815254,21.46,-1.06,-0.87,1.47,76,218,2.017007827758789,1.3760452270507812
50,-0.13351309299468994,-3.0710792541503906,-0.07795728743076324,36.7145669,3.1815114,18.94,-1.84,-0.21,1.15,76,184,2.182675361633301,1.8536196947097778
51,-0.22501087188720703,2.6749398708343506,-0.05120626464486122,36.7145314,3.1815238,18.17,-3.42,1.62,-0.01,75,153,3.789257049560547,3.789205312728882
52,-0.14277248084545135,2.6794116497039795,0.00889800675213337,36.7144698,3.1815616,18.27,-4.06,2.04,0.02,75,153,4.549654483795166,4.5496439933776855
53,-0.0524970181286335,2.9522762298583984,0.16724061965942383,36.7144165,3.1815889,18.22,-3.61,0.68,0.05,75,169,3.679412603378296,3.6790146827697754
54,-0.3311103582382202,-2.244276523590088,0.15195593237876892,36.7143734,3.1815706,18.2,-2.94,-3.15,0.02,74,231,4.319137096405029,4.319087028503418
55,-0.5141914486885071,-2.1462295055389404,0.025322752073407173,36.714319,3.181471,18.2,-4.18,-6.66,0.01,74,237,7.868231296539307,7.868220329284668
56,-0.4343067407608032,-2.1467342376708984,0.01595466583967209,36.7142566,3.1813477,18.21,-4.9,-7.69,0.0,73,237,9.1200590133667,9.1200590133667
57,-0.35700729489326477,-2.15282940864563,0.009363815188407898,36.714179,3.1811979,18.23,-4.66,-7.2,0.0,73,236,8.58088493347168,8.580883026123047
58,-0.20789317786693573,-2.1446850299835205,0.03433359041810036,36.7141212,3.1810858,18.23,-3.8,-6.01,0.03,73,237,7.117430686950684,7.117358684539795
59,-0.2918621003627777,-2.1177451610565186,-0.008253330364823341,36.7140735,3.1809888,18.2,-3.38,-5.69,0.01,72,238,6.621903896331787,6.6218743324279785
60,-0.2517656981945038,-2.099377393722534,0.0047724549658596516,36.7140217,3.1808775,18.21,-3.22,-5.65,0.0,72,239,6.508302211761475,6.508296012878418
61,-0.2133004367351532,-2.0999574661254883,-0.005883915349841118,36.7139783,3.1807828,18.21,-3.06,-5.39,0.0,71,239,6.207668781280518,6.207668304443359
62,0.15461908280849457,-2.1016077995300293,-0.028981879353523254,36.7139388,3.1806968,18.18,-1.64,-2.88,0.03,71,239,3.322993516921997,3.3227765560150146
63,0.09875469654798508,-2.100947856903076,0.023607995361089706,36.7139271,3.180671,18.19,-0.22,-0.41,-0.02,71,239,0.4708094298839569,0.47036999464035034
64,0.022305719554424286,-2.099752902984619,0.0056388801895082,36.7139273,3.1806714,18.18,0.12,0.13,0.03,70,239,0.1884801983833313,0.18465185165405273
