timestamp,pitch,yaw,roll,lat,lon,alt,velocity_x,velocity_y,velocity_z,battery,heading,airspeed,groundspeed
0,0.021293766796588898,0.03209812566637993,0.023575615137815475,36.7156067,3.18463,21.89,-0.03,0.02,-0.06,96,1,0.07490923255681992,0.04354129359126091
1,-0.08102679997682571,0.024726321920752525,0.06685925275087357,36.7156077,3.1846321,21.86,0.29,0.51,-0.03,95,1,0.5899949669837952,0.5890992879867554
2,-0.180256187915802,1.4708985090255737,-0.12070970982313156,36.7156222,3.1846603,21.89,1.63,2.54,-0.04,95,84,3.019996404647827,3.019699811935425
3,-0.1424853801727295,0.9288700819015503,0.028747474774718285,36.7156487,3.1847114,21.9,2.16,3.37,-0.01,95,53,4.004533290863037,4.004487037658691
4,0.06997320055961609,0.9854387044906616,0.003811934730038047,36.715682,3.1847745,21.89,1.66,2.53,0.0,94,56,3.0357067584991455,3.0357017517089844
5,0.3627188205718994,1.201784372329712,0.07698363065719604,36.7156896,3.1847882,21.92,-0.87,-1.29,-0.01,94,68,1.560202717781067,1.5600923299789429
6,-0.09329129755496979,2.923253297805786,0.16085247695446014,36.7156667,3.1847465,21.89,-2.23,-3.16,0.04,93,167,3.8719661235809326,3.871697425842285
7,-0.10678067803382874,-1.9171812534332275,0.01916688308119774,36.7156314,3.1846815,21.94,-2.08,-3.25,0.0,93,250,3.861943483352661,3.861942768096924
8,-0.05671241134405136,-1.4557207822799683,0.2698964476585388,36.7156168,3.1846288,21.89,0.3,-2.85,0.01,93,276,2.873722791671753,2.8736751079559326
9,-0.4625745117664337,-0.6479766368865967,0.06035797670483589,36.7156563,3.1845711,21.89,4.62,-3.38,0.0,92,322,5.7315754890441895,5.731575012207031
10,-0.5259695053100586,-0.6253138184547424,0.032646626234054565,36.7157211,3.1845142,21.89,6.72,-4.67,0.0,92,324,8.19106388092041,8.191059112548828
11,-0.4794975221157074,-0.619076132774353,-0.03576988726854324,36.7158392,3.1844118,21.9,7.86,-5.51,0.0,91,324,9.603960037231445,9.603955268859863
12,-0.3511331081390381,-0.6229760646820068,0.029011541977524757,36.715962,3.1843034,21.94,7.37,-5.24,-0.02,91,324,9.047683715820312,9.047654151916504
13,-0.019548507407307625,-0.6307637691497803,-0.05030631646513939,36.7160491,3.184226,21.95,5.16,-3.76,0.04,91,323,6.38784122467041,6.387674808502197
14,-0.06709058582782745,-1.426268458366394,-0.26771116256713867,36.7160963,3.1841642,22.16,0.41,-2.95,-0.34,90,278,3.0034379959106445,2.9831960201263428
15,-0.42009884119033813,-2.1347501277923584,-0.08512917160987854,36.7160756,3.1841028,23.18,-3.23,-4.67,-0.98,90,237,5.7687458992004395,5.6848931312561035
16,-0.4995383620262146,-2.1585171222686768,0.029684070497751236,36.7160185,3.1840027,25.09,-4.95,-7.1,-1.46,89,236,8.78495979309082,8.661101341247559
17,-0.43003901839256287,-2.1649582386016846,-0.01826556958258152,36.715933,3.1838496,27.9,-5.55,-8.04,-1.6,89,235,9.909440994262695,9.777798652648926
18,-0.4889236390590668,-2.1645045280456543,-0.012213299982249737,36.7158577,3.1837113,30.36,-5.52,-8.21,-1.58,88,235,10.025007247924805,9.89875316619873
19,-0.43094608187675476,-2.162827491760254,0.024848250672221184,36.7157703,3.1835487,33.25,-5.53,-8.26,-1.59,88,236,10.072871208190918,9.946090698242188
20,-0.43826428055763245,-2.1616222858428955,-0.029705913737416267,36.7156956,3.1834091,35.72,-5.51,-8.26,-1.6,87,236,10.061966896057129,9.933658599853516
21,-0.48063087463378906,-2.161680221557617,-0.028713645413517952,36.7156208,3.1832695,38.2,-5.51,-8.24,-1.61,87,236,10.048377990722656,9.917418479919434
22,-0.43469056487083435,-2.163987398147583,0.025460125878453255,36.7155336,3.1831074,41.12,-5.51,-8.28,-1.62,87,236,10.085411071777344,9.953603744506836
23,-0.4460783302783966,-2.1638710498809814,-0.028489990159869194,36.7154587,3.1829673,43.62,-5.53,-8.32,-1.62,86,236,10.129557609558105,9.998383522033691
24,-0.47150248289108276,-2.1643025875091553,0.030420273542404175,36.7153714,3.1828038,46.53,-5.49,-8.27,-1.63,86,236,10.066322326660156,9.932134628295898
25,-0.42756494879722595,-2.1625313758850098,0.016581833362579346,36.715297,3.1826641,49.03,-5.49,-8.28,-1.64,85,236,10.075992584228516,9.941438674926758
26,-0.44906356930732727,-2.1639325618743896,-0.023448629304766655,36.7152224,3.1825247,51.54,-5.54,-8.29,-1.63,85,236,10.110370635986328,9.977167129516602
27,-0.47009825706481934,-2.1648316383361816,0.03604836389422417,36.7151349,3.1823615,54.46,-5.51,-8.29,-1.64,84,235,10.095499992370605,9.960840225219727
28,-0.41096922755241394,-2.1651785373687744,0.01176039781421423,36.71506,3.1822216,56.97,-5.51,-8.28,-1.63,84,235,10.085591316223145,9.951464653015137
29,-0.23085561394691467,-2.1668684482574463,-0.0017279491294175386,36.7149788,3.1820703,59.71,-4.5,-6.73,-1.34,83,235,8.212693214416504,8.10245132446289
30,-0.043634116649627686,-2.1574387550354004,0.03247518464922905,36.7149291,3.181977,61.25,-2.88,-4.4,-0.65,83,236,5.303671836853027,5.262946605682373
31,-0.15055054426193237,-2.105506181716919,-0.008134360425174236,36.7148966,3.1819114,61.82,-2.13,-3.69,-0.15,83,239,4.271666049957275,4.268867492675781
32,-0.12439831346273422,-2.0856146812438965,0.004037333186715841,36.7148646,3.1818399,61.87,-2.0,-3.69,-0.01,82,240,4.2069621086120605,4.206947326660156
33,-0.027459856122732162,-2.088231086730957,-0.01301710307598114,36.7148389,3.1817815,61.85,-1.63,-3.0,0.07,82,240,3.4249227046966553,3.4241883754730225
34,0.02844703383743763,-2.3669703006744385,-0.06325115263462067,36.7148176,3.1817411,60.74,-1.18,-1.25,1.29,82,224,2.156113386154175,1.7244529724121094
35,-0.048243448138237,-2.4724483489990234,0.02355031669139862,36.7148028,3.1817259,58.47,-1.04,-0.79,1.44,81,218,1.9514535665512085,1.313757300376892
36,-0.013322158716619015,-2.471543550491333,-0.017353937029838562,36.7147888,3.1817128,56.23,-1.04,-0.82,1.42,81,218,1.9552440643310547,1.3357319831848145
37,-0.024969663470983505,-2.4700376987457275,0.02590937167406082,36.7147722,3.1816963,53.62,-1.05,-0.87,1.44,81,218,1.9967875480651855,1.375761866569519
38,-0.039944812655448914,-2.4700121879577637,-0.028995398432016373,36.7147577,3.1816817,51.38,-1.07,-0.88,1.45,80,218,2.013292074203491,1.3957500457763672
39,-0.01174379326403141,-2.4694700241088867,0.008909913711249828,36.7147407,3.1816646,48.76,-1.08,-0.87,1.45,80,218,2.015265941619873,1.394593596458435
40,-0.05818276107311249,-2.4698309898376465,-0.005276653449982405,36.714726,3.18165,46.52,-1.07,-0.88,1.46,79,218,2.021670341491699,1.392351746559143
41,-0.011321388185024261,-2.4697763919830322,0.013793460093438625,36.7147115,3.1816353,44.27,-1.06,-0.87,1.46,79,218,2.0164291858673096,1.3809990882873535
42,-0.05107994005084038,-2.470547914505005,0.02295735478401184,36.7146945,3.1816182,41.65,-1.07,-0.89,1.46,79,218,2.023953437805176,1.3938981294631958
43,-0.008401758968830109,-2.4694676399230957,-0.005947513040155172,36.7146799,3.1816035,39.41,-1.07,-0.88,1.47,78,218,2.0294384956359863,1.3914768695831299
44,-0.024901825934648514,-2.4697039127349854,0.027347039431333542,36.7146628,3.1815863,36.78,-1.06,-0.87,1.47,78,218,2.0206871032714844,1.3772810697555542
45,-0.03630440682172775,-2.4697556495666504,-0.02563900500535965,36.7146483,3.1815716,34.53,-1.06,-0.88,1.47,78,218,2.025885581970215,1.3895856142044067
46,-0.03672041743993759,-2.4701600074768066,0.02913258597254753,36.7146337,3.1815569,32.28,-1.06,-0.87,1.47,77,218,2.018836736679077,1.3770015239715576
47,-0.05731924995779991,-2.469827890396118,-0.0028217099606990814,36.7146167,3.1815397,29.67,-1.05,-0.88,1.48,77,218,2.0259366035461426,1.3790785074234009
48,-0.009582136757671833,-2.469785451889038,0.013722823932766914,36.7146021,3.181525,27.41,-1.06,-0.87,1.47,77,218,2.0209243297576904,1.3790569305419922
49,-0.05374924838542938,-2.469452142715454,-0.023306000977754593,36.7145875,3.1815103,25.16,-1.06,-0.88,1.47,76,218,2.0225274562835693,1.3835031986236572
50,-0.10407537966966629,-3.0782015323638916,-0.12710170447826385,36.7145667,3.1814965,22.64,-1.83,-0.2,1.14,76,183,2.174915075302124,1.8481500148773193
51,-0.2532994747161865,2.675065279006958,-0.00286312447860837,36.7145312,3.1815091,21.88,-3.41,1.6,-0.01,75,153,3.770106077194214,3.7700612545013428
52,-0.17235048115253448,2.6796939373016357,-0.033881623297929764,36.7144697,3.1815465,21.98,-4.07,2.04,0.02,75,153,4.565677165985107,4.565626621246338
53,-0.027899492532014847,2.9557671546936035,0.20734040439128876,36.7144164,3.1815739,21.93,-3.61,0.67,0.05,75,169,3.679011821746826,3.678659677505493
54,-0.41771742701530457,-2.2024271488189697,0.10053768008947372,36.7143668,3.1815459,21.91,-3.0,-3.78,0.01,74,233,4.831155776977539,4.831121444702148
55,-0.4696830213069916,-2.1451048851013184,0.03704959526658058,36.7143191,3.1814563,21.91,-4.17,-6.64,0.0,74,237,7.844697952270508,7.844693660736084
56,-0.4400854706764221,-2.1482796669006348,-0.018645701929926872,36.7142567,3.1813332,21.92,-4.88,-7.69,0.0,73,236,9.119532585144043,9.119531631469727
57,-0.33853375911712646,-2.1528666019439697,0.028584390878677368,36.7141794,3.1811834,21.94,-4.66,-7.21,-0.01,73,236,8.590723991394043,8.590716361999512
58,-0.21135316789150238,-2.144987106323242,0.0035589884500950575,36.7141217,3.1810715,21.94,-3.83,-6.03,0.02,73,237,7.152426719665527,7.152365684509277
59,-0.2775200605392456,-2.11376953125,0.042765941470861435,36.7140661,3.1809579,21.91,-3.33,-5.66,0.01,72,238,6.568541526794434,6.568531036376953
60,-0.2590407431125641,-2.1001498699188232,-0.008309739641845226,36.7140219,3.1808628,21.91,-3.22,-5.63,0.0,72,239,6.494531154632568,6.49452543258667
61,-0.15735386312007904,-2.1002252101898193,0.030601153150200844,36.7139718,3.1807535,21.91,-2.96,-5.21,0.0,71,239,5.993833065032959,5.993832111358643
62,0.15437333285808563,-2.10115122795105,-0.025038404390215874,36.7139389,3.180682,21.89,-1.65,-2.9,0.03,71,239,3.3410017490386963,3.340796947479248
63,0.10303305089473724,-2.100796699523926,0.02646651118993759,36.7139271,3.180656,21.9,-0.22,-0.41,-0.02,71,239,0.47707659006118774,0.4765678644180298
64,-0.027818473055958748,-2.1025333404541016,0.03726473078131676,36.7139277,3.1806566,21.88,0.21,0.07,0.03,70,239,0.22679482400417328,0.22347208857536316
