timestamp,pitch,yaw,roll,lat,lon,alt,velocity_x,velocity_y,velocity_z,battery,heading,airspeed,groundspeed
0,-0.02427656203508377,0.039300788193941116,0.011350658722221851,36.7156066,3.1846299,19.11,-0.02,0.02,0.05,96,2,0.06493879109621048,0.03685455769300461
1,-0.062350478023290634,0.06151963397860527,0.10010446608066559,36.7156081,3.184633,19.08,0.39,0.65,0.0,95,3,0.7654476761817932,0.7654439806938171
2,-0.2144918292760849,1.4533734321594238,-0.06434416770935059,36.7156222,3.1846601,19.04,1.7,2.67,-0.03,95,83,3.17047381401062,3.1703286170959473
3,-0.18362873792648315,0.995341956615448,0.008119087666273117,36.7156551,3.1847241,19.1,2.28,3.53,-0.03,95,57,4.213965892791748,4.2137956619262695
4,0.1260996311903,0.9815405607223511,-0.0047540380619466305,36.7156846,3.1847796,19.13,1.74,2.63,-0.01,94,56,3.164917230606079,3.164870500564575
5,0.2988353669643402,1.442626953125,0.17180512845516205,36.7156903,3.1847899,19.13,-1.27,-1.84,-0.01,94,82,2.2444159984588623,2.2443294525146484
6,-0.09327206015586853,-3.122605800628662,0.09445095807313919,36.7156644,3.1847432,19.17,-2.27,-3.23,0.0,93,181,3.954376697540283,3.9543652534484863
7,-0.06932089477777481,-1.9221794605255127,0.058832425624132156,36.7156346,3.1846874,19.16,-2.05,-3.24,0.0,93,249,3.8397490978240967,3.8397438526153564
8,-0.17477411031723022,-1.21517813205719,0.2814392149448395,36.7156216,3.1846268,19.14,0.95,-2.77,0.0,93,290,2.93111252784729,2.931098222732544
9,-0.41982948780059814,-0.6456948518753052,0.027142684906721115,36.7156603,3.1845768,19.14,4.62,-3.4,0.0,92,323,5.738468647003174,5.738468170166016
10,-0.5440500974655151,-0.6295065879821777,0.023134870454669,36.7157405,3.1845062,19.14,7.03,-4.85,0.0,92,323,8.544875144958496,8.54487133026123
11,-0.4626533091068268,-0.6203509569168091,-0.013603752478957176,36.7158606,3.184402,19.16,7.88,-5.54,0.0,91,324,9.637681007385254,9.637679100036621
12,-0.33437278866767883,-0.6240947842597961,0.025404134765267372,36.7159818,3.1842948,19.2,7.15,-5.1,-0.01,91,324,8.788423538208008,8.788400650024414
13,0.031894609332084656,-0.6494607329368591,-0.07535179704427719,36.716064,3.1842216,19.19,4.58,-3.49,0.03,91,322,5.766190528869629,5.766098499298096
14,-0.11601255089044571,-1.4204349517822266,-0.27252039313316345,36.7160998,3.18417,19.41,0.37,-2.96,-0.35,90,278,3.006030321121216,2.985243082046509
15,-0.4332699477672577,-2.153740167617798,-0.06487566232681274,36.7160708,3.1840947,20.7,-3.65,-5.1,-1.08,90,236,6.368142604827881,6.274973392486572
16,-0.5091962814331055,-2.164102554321289,0.033257048577070236,36.7160097,3.1839879,22.73,-5.13,-7.35,-1.52,89,236,9.099224090576172,8.970730781555176
17,-0.4203794598579407,-2.1656394004821777,-0.01551871933043003,36.7159234,3.1838323,25.58,-5.51,-8.07,-1.59,89,235,9.902362823486328,9.772921562194824
18,-0.4931812882423401,-2.16381573677063,-0.010914715006947517,36.7158483,3.1836938,28.03,-5.53,-8.23,-1.58,88,236,10.048591613769531,9.923382759094238
19,-0.4742613732814789,-2.163512706756592,0.03489892929792404,36.7157731,3.1835541,30.5,-5.53,-8.25,-1.59,88,236,10.062068939208984,9.934521675109863
20,-0.44955509901046753,-2.1668572425842285,-0.028990088030695915,36.7156858,3.1833917,33.4,-5.51,-8.24,-1.6,88,235,10.050918579101562,9.921920776367188
21,-0.49381986260414124,-2.1632204055786133,-0.003756187856197357,36.7156115,3.1832525,35.87,-5.51,-8.3,-1.62,87,236,10.102627754211426,9.971760749816895
22,-0.42204755544662476,-2.1631717681884766,0.0008827615529298782,36.715524,3.183089,38.79,-5.53,-8.26,-1.63,87,236,10.08124828338623,9.947709083557129
23,-0.4637507200241089,-2.163939952850342,-0.027175050228834152,36.715449,3.1829494,41.29,-5.5,-8.26,-1.63,86,236,10.065827369689941,9.932621955871582
24,-0.489935040473938,-2.165907621383667,0.020137492567300797,36.7153745,3.18281,43.79,-5.49,-8.28,-1.62,86,235,10.073990821838379,9.941337585449219
25,-0.4280988276004791,-2.1655960083007812,-0.011710340157151222,36.7152874,3.1826467,46.71,-5.52,-8.31,-1.63,85,235,10.120908737182617,9.987780570983887
26,-0.47757622599601746,-2.1637895107269287,-0.02067432925105095,36.7152126,3.1825066,49.22,-5.51,-8.28,-1.63,85,236,10.08404541015625,9.951416969299316
27,-0.434569776058197,-2.164858818054199,0.034007806330919266,36.7151252,3.1823437,52.14,-5.51,-8.28,-1.63,84,235,10.087945938110352,9.953780174255371
28,-0.4038616120815277,-2.162407398223877,-0.032390110194683075,36.7150508,3.1822041,54.64,-5.46,-8.2,-1.62,84,236,9.988431930541992,9.855463981628418
29,-0.23213739693164825,-2.167254686355591,0.0012859106063842773,36.7149818,3.1820762,56.96,-4.52,-6.71,-1.34,84,235,8.20753002166748,8.096745491027832
30,-0.04794497787952423,-2.151139736175537,-0.0004926451365463436,36.714926,3.1819713,58.65,-2.68,-4.17,-0.55,83,236,4.995676040649414,4.964797496795654
31,-0.15689653158187866,-2.099499464035034,0.03327202424407005,36.714895,3.181907,59.1,-2.09,-3.69,-0.1,83,239,4.24374532699585,4.242384910583496
32,-0.15997198224067688,-2.086836576461792,-0.022141408175230026,36.7148631,3.1818352,59.12,-1.99,-3.7,-0.01,82,240,4.205057621002197,4.205020427703857
33,0.030726978555321693,-2.096544027328491,0.008130067028105259,36.7148384,3.1817793,59.07,-1.53,-2.71,0.17,82,239,3.124300479888916,3.119539737701416
34,0.015654344111680984,-2.367919683456421,-0.07091788202524185,36.7148207,3.1817474,57.98,-1.17,-1.25,1.29,82,224,2.1554269790649414,1.719345211982727
35,-0.008755400776863098,-2.4639973640441895,-0.002929040929302573,36.7148037,3.1817299,55.33,-1.03,-0.79,1.43,81,218,1.9390193223953247,1.3085802793502808
36,-0.061604298651218414,-2.4695773124694824,0.005758389830589294,36.7147896,3.1817165,53.1,-1.03,-0.83,1.43,81,218,1.9577128887176514,1.3334195613861084
37,-0.034074392169713974,-2.4700567722320557,-0.025204326957464218,36.7147729,3.1817,50.49,-1.07,-0.88,1.44,81,218,2.006007671356201,1.3912774324417114
38,-0.04151859134435654,-2.4699556827545166,0.026853473857045174,36.7147583,3.1816855,48.25,-1.07,-0.88,1.45,80,218,2.012782335281372,1.386451005935669
39,-0.028777174651622772,-2.469839096069336,-0.024777185171842575,36.7147437,3.1816708,46.01,-1.07,-0.89,1.46,80,218,2.023397445678711,1.3975341320037842
40,-0.04622849076986313,-2.469994306564331,0.026850242167711258,36.7147292,3.1816562,43.76,-1.06,-0.88,1.46,80,218,2.017451763153076,1.3847787380218506
41,-0.059045735746622086,-2.4698565006256104,-0.011272928677499294,36.7147122,3.181639,41.14,-1.06,-0.89,1.47,79,218,2.022787570953369,1.3894199132919312
42,-0.021154647693037987,-2.470329523086548,-0.018076051026582718,36.7146951,3.1816219,38.52,-1.07,-0.88,1.47,79,218,2.029507875442505,1.3954899311065674
43,-0.05436364561319351,-2.4696078300476074,0.017643475905060768,36.7146806,3.1816072,36.27,-1.05,-0.89,1.47,78,218,2.018132448196411,1.3814444541931152
44,-0.017328079789876938,-2.4701623916625977,-0.018815450370311737,36.714666,3.1815925,34.02,-1.07,-0.88,1.47,78,218,2.028517484664917,1.3927643299102783
45,-0.016060160472989082,-2.4696924686431885,0.01847412995994091,36.714649,3.1815753,31.4,-1.06,-0.88,1.47,78,218,2.0240628719329834,1.383115530014038
46,-0.053022295236587524,-2.469907283782959,-0.021405905485153198,36.7146344,3.1815606,29.15,-1.06,-0.89,1.47,77,218,2.0267412662506104,1.386118769645691
47,-0.0071052550338208675,-2.46981143951416,-0.008906501345336437,36.7146174,3.1815435,26.53,-1.06,-0.88,1.48,77,218,2.0327517986297607,1.388230323791504
48,-0.0588054284453392,-2.4700443744659424,0.016019653528928757,36.7146028,3.1815287,24.28,-1.06,-0.89,1.48,77,218,2.030595302581787,1.387662649154663
49,-0.014289679005742073,-2.4700441360473633,-0.0073200915940105915,36.7145882,3.181514,22.02,-1.06,-0.88,1.47,76,218,2.026406764984131,1.385987401008606
50,-0.14867587387561798,3.0407373905181885,-0.08227843046188354,36.7145654,3.1815025,19.62,-2.06,0.09,0.93,76,174,2.2695558071136475,2.068776845932007
51,-0.22990840673446655,2.6767001152038574,-0.033157117664813995,36.7145263,3.1815202,19.14,-3.61,1.76,-0.06,75,153,4.026520729064941,4.026055335998535
52,-0.11520201712846756,2.6809685230255127,0.02041279710829258,36.7144634,3.1815587,19.23,-4.04,2.01,0.04,75,153,4.520182132720947,4.519947528839111
53,-0.05680377408862114,3.0950069427490234,0.21620379388332367,36.7144115,3.1815813,19.17,-3.45,0.13,0.04,75,177,3.455540418624878,3.4552595615386963
54,-0.403717041015625,-2.188636302947998,0.06062907725572586,36.7143628,3.1815402,19.16,-3.13,-4.39,0.01,74,234,5.401295185089111,5.401259422302246
55,-0.5137395262718201,-2.155813694000244,0.02774699777364731,36.7143122,3.1814426,19.16,-4.35,-6.95,0.0,74,236,8.208263397216797,8.208258628845215
56,-0.43231627345085144,-2.149355411529541,0.020522527396678925,36.7142487,3.1813174,19.17,-4.92,-7.73,0.0,73,236,9.172303199768066,9.172303199768066
57,-0.34200817346572876,-2.1521284580230713,0.006002211011946201,36.7141718,3.1811689,19.19,-4.54,-7.03,0.0,73,236,8.380644798278809,8.380643844604492
58,-0.21776923537254333,-2.1409146785736084,0.032327793538570404,36.7141159,3.18106,19.18,-3.68,-5.85,0.03,73,237,6.919483184814453,6.919417858123779
59,-0.29785510897636414,-2.11039400100708,0.02263673022389412,36.7140615,3.1809477,19.16,-3.27,-5.63,0.0,72,239,6.520656585693359,6.520650863647461
60,-0.2538541853427887,-2.0986926555633545,0.014340627938508987,36.7140178,3.1808529,19.16,-3.21,-5.64,0.0,72,239,6.501336574554443,6.501334190368652
61,-0.17404703795909882,-2.1001076698303223,-0.01328669860959053,36.7139748,3.1807592,19.16,-2.96,-5.19,0.0,71,239,5.986573219299316,5.986572742462158
62,0.17661413550376892,-2.1011404991149902,-0.021298207342624664,36.7139386,3.1806807,19.13,-1.35,-2.36,0.02,71,239,2.725841522216797,2.7257628440856934
63,0.07232099026441574,-2.1009621620178223,0.022010667249560356,36.7139299,3.1806614,19.15,-0.09,-0.19,-0.01,71,239,0.21663518249988556,0.2160433530807495
64,-0.026655839756131172,-2.103041172027588,0.0629451796412468,36.7139314,3.1806629,19.12,0.33,-0.03,0.02,70,239,0.3397291898727417,0.33857032656669617
