timestamp,pitch,yaw,roll,lat,lon,alt,velocity_x,velocity_y,velocity_z,battery,heading,airspeed,groundspeed
0,0.004033001139760017,0.0276690274477005,0.03283214569091797,36.7156066,3.1846299,21.5,-0.02,0.03,-0.03,96,1,0.05807172879576683,0.0433662049472332
1,-0.07651437819004059,0.02336835488677025,0.06788959354162216,36.7156078,3.1846324,21.46,0.32,0.56,-0.03,95,1,0.6518384218215942,0.6510351300239563
2,-0.19448073208332062,1.4325251579284668,-0.10764152556657791,36.7156237,3.1846617,21.49,1.71,2.65,-0.04,95,82,3.158399820327759,3.1580681800842285
3,-0.14439238607883453,0.95147305727005,0.022187910974025726,36.7156516,3.1847154,21.5,2.26,3.48,-0.02,95,54,4.156905651092529,4.1568427085876465
4,0.011210341937839985,0.9630992412567139,-0.02699933387339115,36.7156824,3.1847726,21.5,2.04,2.99,0.0,94,55,3.6292483806610107,3.6292357444763184
5,0.38495349884033203,1.054499626159668,0.02080744318664074,36.7156966,3.1847975,21.53,-0.74,-1.13,-0.01,94,60,1.360254168510437,1.3601148128509521
6,-0.06771843135356903,2.821479558944702,0.19250057637691498,36.7156743,3.184757,21.5,-2.2,-3.14,0.04,93,161,3.838768720626831,3.8384692668914795
7,-0.1268734633922577,-1.9039071798324585,0.01763765700161457,36.7156391,3.1846918,21.54,-2.08,-3.22,0.0,93,250,3.8377411365509033,3.8377373218536377
8,-0.015579219907522202,-1.5373679399490356,0.23733468353748322,36.715623,3.1846391,21.5,0.11,-2.87,0.01,93,271,2.8766701221466064,2.8766069412231445
9,-0.4282401204109192,-0.6622734665870667,0.09042340517044067,36.7156505,3.1845912,21.49,3.93,-3.1,0.0,92,322,5.012424468994141,5.012421131134033
10,-0.4887472689151764,-0.6249135732650757,-0.015579497441649437,36.7157388,3.1845137,21.5,6.93,-4.8,-0.01,92,324,8.439088821411133,8.439078330993652
11,-0.5249590873718262,-0.6186158657073975,-0.006760857533663511,36.7158403,3.1844258,21.52,7.87,-5.51,0.0,91,324,9.611956596374512,9.611955642700195
12,-0.3367985785007477,-0.6207594871520996,-0.0033433090429753065,36.7159642,3.1843172,21.55,7.49,-5.3,-0.02,91,324,9.178211212158203,9.17818546295166
13,-0.07388386130332947,-0.6234515905380249,-0.02924845926463604,36.7160539,3.1842382,21.57,5.35,-3.84,0.05,91,324,6.593481063842773,6.593275547027588
14,0.07854613661766052,-1.094372272491455,-0.26087498664855957,36.7161029,3.184184,21.66,1.48,-2.89,-0.2,90,297,3.257471799850464,3.250725746154785
15,-0.4107156991958618,-2.132150888442993,-0.03423445671796799,36.7160881,3.184117,22.68,-3.03,-4.52,-0.93,90,237,5.526208400726318,5.446719646453857
16,-0.44834694266319275,-2.162642478942871,-0.0078000258654356,36.7160324,3.1840196,24.53,-4.84,-6.97,-1.45,89,236,8.614032745361328,8.490708351135254
17,-0.4955613911151886,-2.163820743560791,0.013785217888653278,36.7159484,3.1838678,27.34,-5.51,-8.03,-1.59,89,236,9.878154754638672,9.747820854187012
18,-0.4271053373813629,-2.164991617202759,0.018986104056239128,36.7158731,3.1837297,29.8,-5.54,-8.2,-1.57,88,235,10.028318405151367,9.904047012329102
19,-0.444884330034256,-2.1643505096435547,-0.027301717549562454,36.7157979,3.18359,32.26,-5.53,-8.24,-1.58,88,236,10.059296607971191,9.933272361755371
20,-0.4601781666278839,-2.1661579608917236,0.03729730099439621,36.7157106,3.1834275,35.15,-5.52,-8.24,-1.6,88,235,10.052014350891113,9.923672676086426
21,-0.41758716106414795,-2.162368059158325,5.1878454542020336e-05,36.715636,3.1832883,37.64,-5.51,-8.29,-1.6,87,236,10.087899208068848,9.959060668945312
22,-0.4892750084400177,-2.162262439727783,0.010418384335935116,36.7155487,3.1831251,40.55,-5.52,-8.28,-1.61,87,236,10.087682723999023,9.957294464111328
23,-0.48257461190223694,-2.1636738777160645,0.026037447154521942,36.7154862,3.1830086,42.63,-5.51,-8.26,-1.62,86,236,10.072463989257812,9.941269874572754
24,-0.4388112723827362,-2.164621114730835,-0.021130766719579697,36.7153992,3.182846,45.55,-5.51,-8.3,-1.61,86,235,10.097524642944336,9.966767311096191
25,-0.47195684909820557,-2.1668169498443604,0.037566542625427246,36.715312,3.1826828,48.46,-5.53,-8.29,-1.63,85,235,10.101207733154297,9.968316078186035
26,-0.4228397309780121,-2.1646738052368164,0.011164693161845207,36.7152371,3.1825428,50.97,-5.49,-8.27,-1.63,85,235,10.071861267089844,9.937868118286133
27,-0.49138373136520386,-2.1632463932037354,0.00812541600316763,36.7151502,3.1823799,53.89,-5.51,-8.32,-1.62,84,236,10.116616249084473,9.98484992980957
28,-0.44250214099884033,-2.16538143157959,0.03863340988755226,36.7150754,3.18224,56.39,-5.52,-8.29,-1.63,84,235,10.097480773925781,9.964399337768555
29,-0.24828560650348663,-2.168854236602783,-0.01825869455933571,36.7150035,3.1821064,58.8,-4.86,-7.2,-1.45,83,235,8.81482219696045,8.69427490234375
30,-0.06237451359629631,-2.1614091396331787,0.03962293267250061,36.7149414,3.1819907,60.79,-2.97,-4.53,-0.69,83,236,5.465996265411377,5.421283721923828
31,-0.1488497108221054,-2.1206538677215576,-0.011330350302159786,36.714908,3.1819243,61.41,-2.21,-3.72,-0.17,83,238,4.334404945373535,4.330848217010498
32,-0.1258247047662735,-2.1015961170196533,0.00820261612534523,36.7148748,3.1818526,61.48,-2.07,-3.68,-0.01,82,239,4.234836578369141,4.234813690185547
33,-0.037719227373600006,-2.103085517883301,-0.012939480133354664,36.7148478,3.1817935,61.47,-1.76,-3.1,0.03,82,239,3.5722146034240723,3.5720841884613037
34,0.04509934037923813,-2.2814648151397705,-0.03469560295343399,36.714828,3.181755,60.8,-1.24,-1.51,1.0,82,229,2.205698251724243,1.961878776550293
35,-0.03967130556702614,-2.4770002365112305,0.02514343522489071,36.7148104,3.1817352,58.27,-1.03,-0.79,1.45,81,218,1.9482622146606445,1.3006526231765747
36,-0.025838682428002357,-2.4719934463500977,-0.02184104546904564,36.7147964,3.1817221,56.02,-1.03,-0.83,1.41,81,218,1.9467955827713013,1.3328423500061035
37,-0.013037415221333504,-2.469647169113159,0.014321827329695225,36.7147798,3.1817057,53.4,-1.06,-0.87,1.42,81,218,1.9857556819915771,1.381304383277893
38,-0.05855260789394379,-2.4695043563842773,-0.012672848999500275,36.7147653,3.1816911,51.17,-1.07,-0.88,1.44,80,218,2.0024313926696777,1.3899232149124146
39,-0.010457763448357582,-2.469332695007324,0.012507956475019455,36.7147506,3.1816764,48.93,-1.07,-0.87,1.45,80,218,2.0071520805358887,1.3868486881256104
40,-0.042192671447992325,-2.469646453857422,0.025001194328069687,36.7147337,3.1816593,46.31,-1.06,-0.89,1.45,79,218,2.010272979736328,1.3883296251296997
41,-0.018878236413002014,-2.469935655593872,-0.020724572241306305,36.7147191,3.1816447,44.07,-1.07,-0.88,1.46,79,218,2.017009735107422,1.3907865285873413
42,-0.014532418921589851,-2.4697611331939697,0.017013369128108025,36.714702,3.1816276,41.45,-1.06,-0.87,1.47,79,218,2.015725612640381,1.3765144348144531
43,-0.05345075950026512,-2.4689948558807373,-0.017356090247631073,36.7146876,3.1816129,39.2,-1.06,-0.89,1.47,78,218,2.0272464752197266,1.3951853513717651
44,-0.009652407839894295,-2.4692912101745605,0.014236215502023697,36.7146729,3.1815981,36.95,-1.07,-0.89,1.46,78,218,2.0255813598632812,1.3939763307571411
45,-0.0508902333676815,-2.469719409942627,0.024182870984077454,36.7146559,3.1815808,34.33,-1.06,-0.88,1.47,78,218,2.022822141647339,1.3817545175552368
46,-0.019293909892439842,-2.47021746635437,-0.018897801637649536,36.7146413,3.1815662,32.08,-1.06,-0.87,1.47,77,218,2.01889705657959,1.3778948783874512
47,-0.0178239643573761,-2.4691200256347656,0.017112577334046364,36.7146243,3.1815491,29.46,-1.06,-0.88,1.47,77,218,2.0204317569732666,1.38399076461792
48,-0.05610397830605507,-2.4693493843078613,-0.01495177298784256,36.7146097,3.1815343,27.21,-1.06,-0.88,1.47,77,218,2.024780035018921,1.385799527168274
49,-0.01886989176273346,-2.4697201251983643,-0.02249099873006344,36.7145927,3.1815171,24.58,-1.05,-0.87,1.47,76,218,2.015040874481201,1.3735880851745605
50,-0.13406625390052795,-2.987734794616699,-0.0836227610707283,36.7145753,3.1815048,22.39,-1.73,-0.34,1.21,76,188,2.1469526290893555,1.7670140266418457
51,-0.21563158929347992,2.6754016876220703,-0.0529293492436409,36.7145415,3.1815146,21.49,-3.32,1.54,0.01,75,153,3.662982702255249,3.6629576683044434
52,-0.1532592624425888,2.6794795989990234,0.019615910947322845,36.7144805,3.1815519,21.6,-4.05,2.03,0.01,75,153,4.541684627532959,4.541673183441162
53,-0.049810267984867096,2.898242473602295,0.14026793837547302,36.7144268,3.1815809,21.55,-3.67,0.89,0.05,75,166,3.7796590328216553,3.779189109802246
54,-0.34554436802864075,-2.2113003730773926,0.10697775334119797,36.7143763,3.181559,21.52,-2.96,-3.51,0.01,74,233,4.6011643409729,4.601125717163086
55,-0.5125247836112976,-2.1421079635620117,0.006341446656733751,36.7143298,3.1814725,21.52,-4.08,-6.51,0.01,74,237,7.690812587738037,7.690799713134766
56,-0.45240816473960876,-2.1468231678009033,0.018269922584295273,36.7142683,3.181351,21.53,-4.87,-7.64,0.0,73,237,9.065831184387207,9.06583023071289
57,-0.36455556750297546,-2.1517245769500732,-0.006462712772190571,36.7141905,3.1812007,21.55,-4.73,-7.31,0.0,73,236,8.717601776123047,8.717597007751465
58,-0.21187342703342438,-2.146216630935669,0.04074738919734955,36.7141317,3.1810868,21.55,-3.87,-6.09,0.03,73,237,7.223491668701172,7.223411560058594
59,-0.27607378363609314,-2.120457649230957,-0.009784606285393238,36.7140834,3.1809892,21.53,-3.39,-5.67,0.02,72,238,6.613196849822998,6.613147258758545
60,-0.2606522738933563,-2.099644899368286,0.01779903471469879,36.7140318,3.1808786,21.53,-3.23,-5.66,0.01,72,239,6.522823810577393,6.5228118896484375
61,-0.22385622560977936,-2.1000773906707764,-0.01596674509346485,36.7139882,3.1807833,21.53,-3.12,-5.49,0.0,71,239,6.32179594039917,6.321794033050537
62,0.15227434039115906,-2.1017332077026367,-0.0234364066272974,36.7139471,3.1806936,21.51,-1.79,-3.12,0.04,71,239,3.60567045211792,3.6054186820983887
63,0.10112056881189346,-2.100837469100952,0.013666204176843166,36.7139338,3.1806645,21.51,-0.29,-0.52,-0.01,71,239,0.6063435673713684,0.6060336232185364
64,-0.021231980994343758,-2.1014699935913086,0.021378913894295692,36.713934,3.1806647,21.49,0.15,0.1,0.03,70,239,0.18886300921440125,0.1846989244222641
