timestamp,pitch,yaw,roll,lat,lon,alt,velocity_x,velocity_y,velocity_z,battery,heading,airspeed,groundspeed
0,-0.023745471611618996,0.023511650040745735,0.00958732794970274,36.7156066,3.1846299,20.47,-0.02,0.02,-0.01,96,1,0.04031992703676224,0.037967946380376816
1,-0.027959683910012245,0.02055828832089901,0.07804391533136368,36.7156074,3.1846313,20.43,0.24,0.39,-0.01,95,1,0.4644829034805298,0.4642585515975952
2,-0.18626581132411957,1.3495417833328247,-0.0659072995185852,36.7156217,3.1846554,20.4,1.7,2.34,-0.02,95,77,2.9036612510681152,2.903524398803711
3,-0.1534859538078308,0.9474884271621704,0.018322501331567764,36.7156559,3.1847142,20.44,2.43,3.36,-0.03,95,54,4.147597312927246,4.147476673126221
4,0.04635396972298622,0.9229723811149597,-0.031018944457173347,36.7156887,3.1847692,20.46,2.11,2.8,-0.01,94,52,3.507676124572754,3.5076444149017334
5,0.33560308814048767,0.4315207004547119,-0.17458686232566833,36.7157025,3.184789,20.45,-0.87,-1.37,0.0,94,24,1.631566047668457,1.6315659284591675
6,-0.10407937318086624,-1.1846415996551514,-0.13079077005386353,36.7156791,3.1847462,20.49,-2.24,-3.23,-0.02,93,292,3.936166286468506,3.9361023902893066
7,-0.07675710320472717,-2.414695978164673,0.03548111394047737,36.7156486,3.1846906,20.49,-2.18,-3.27,0.01,93,221,3.940859079360962,3.940833330154419
8,-0.044116128236055374,-1.4770666360855103,0.27942344546318054,36.7156299,3.1846284,20.47,0.36,-2.81,0.01,93,275,2.842958927154541,2.8429112434387207
9,-0.43918561935424805,-0.662992000579834,0.06782457232475281,36.7156612,3.1845801,20.46,4.17,-3.18,0.0,92,322,5.252716064453125,5.252716064453125
10,-0.5043553709983826,-0.6238804459571838,0.0422125943005085,36.7157368,3.1845141,20.46,6.76,-4.7,0.0,92,324,8.243315696716309,8.24330997467041
11,-0.5069328546524048,-0.6170373558998108,-0.028655128553509712,36.7158551,3.1844116,20.48,7.87,-5.53,0.0,91,324,9.626360893249512,9.626359939575195
12,-0.40166184306144714,-0.6198729872703552,0.028243407607078552,36.7159613,3.1843181,20.51,7.56,-5.37,-0.01,91,324,9.275193214416504,9.275177001953125
13,-0.046918291598558426,-0.6265265345573425,-0.05419369414448738,36.7160656,3.184226,20.54,5.13,-3.71,0.05,91,324,6.33944034576416,6.3391828536987305
14,0.03936145454645157,-1.1884918212890625,-0.2603631317615509,36.7161106,3.184173,20.66,1.12,-2.88,-0.24,90,291,3.106157064437866,3.096386671066284
15,-0.4319978654384613,-2.1354408264160156,-0.03644399344921112,36.7160912,3.1841037,21.76,-3.22,-4.69,-0.97,90,237,5.778748989105225,5.695301055908203
16,-0.44640305638313293,-2.158785581588745,0.008009597659111023,36.7160342,3.1840035,23.67,-4.92,-7.12,-1.46,89,236,8.784065246582031,8.660379409790039
17,-0.4565031826496124,-2.162515878677368,-0.033010125160217285,36.7159616,3.1838725,26.08,-5.54,-8.02,-1.6,89,236,9.887032508850098,9.756402969360352
18,-0.44408464431762695,-2.164743661880493,0.03651640936732292,36.7158736,3.1837115,28.95,-5.54,-8.17,-1.57,88,235,10.004647254943848,9.879406929016113
19,-0.4284508228302002,-2.162680149078369,-0.015121827833354473,36.7157985,3.1835721,31.41,-5.53,-8.22,-1.58,88,236,10.040356636047363,9.914342880249023
20,-0.48814260959625244,-2.166823148727417,0.02840370684862137,36.7157115,3.1834103,34.31,-5.54,-8.27,-1.58,88,235,10.08195972442627,9.955842971801758
21,-0.4333382546901703,-2.1632704734802246,0.027468377724289894,36.7156366,3.1832706,36.79,-5.52,-8.27,-1.6,87,236,10.079911231994629,9.950690269470215
22,-0.4493379592895508,-2.1640748977661133,-0.029054852202534676,36.7155617,3.1831307,39.29,-5.5,-8.29,-1.61,87,236,10.08299732208252,9.953328132629395
23,-0.4883818030357361,-2.1654515266418457,0.005507338792085648,36.7154871,3.1829912,41.79,-5.5,-8.27,-1.61,86,235,10.071255683898926,9.941478729248047
24,-0.4239254295825958,-2.1624715328216553,-0.0008526577730663121,36.7154001,3.1828281,44.7,-5.51,-8.32,-1.62,86,236,10.116313934326172,9.985008239746094
25,-0.4896371066570282,-2.1661479473114014,0.014333117753267288,36.7153126,3.1826646,47.62,-5.52,-8.29,-1.62,85,235,10.101256370544434,9.969527244567871
26,-0.4397445619106293,-2.164212703704834,0.03160487860441208,36.7152379,3.182525,50.13,-5.5,-8.27,-1.62,85,236,10.07234001159668,9.939908027648926
27,-0.4362577497959137,-2.164959192276001,-0.019737569615244865,36.7151631,3.1823853,52.63,-5.52,-8.3,-1.62,84,235,10.107417106628418,9.975778579711914
28,-0.46390628814697266,-2.166201591491699,0.03134387731552124,36.715076,3.1822222,55.54,-5.49,-8.27,-1.63,84,235,10.07210636138916,9.938488960266113
29,-0.2231885939836502,-2.1683428287506104,0.007498730439692736,36.7150051,3.1820904,57.93,-4.78,-7.08,-1.41,83,235,8.664381980895996,8.548114776611328
30,-0.07752552628517151,-2.15995192527771,0.030114736407995224,36.7149447,3.1819776,59.83,-2.87,-4.41,-0.64,83,236,5.30433988571167,5.265190124511719
31,-0.12144815921783447,-2.117764472961426,-0.0007993204635567963,36.714912,3.1819122,60.39,-2.18,-3.69,-0.15,83,238,4.294856071472168,4.2920684814453125
32,-0.18002578616142273,-2.1020240783691406,0.016345858573913574,36.7148838,3.1818511,60.44,-2.06,-3.69,-0.01,82,239,4.229123115539551,4.229099273681641
33,-0.013211771845817566,-2.104357957839966,-0.03325602784752846,36.7148525,3.1817826,60.42,-1.71,-3.01,0.05,82,239,3.4694671630859375,3.4689524173736572
34,0.028842145577073097,-2.3101446628570557,-0.023396961390972137,36.7148331,3.1817459,59.63,-1.22,-1.42,1.1,82,227,2.1813552379608154,1.8809014558792114
35,-0.055954091250896454,-2.472531318664551,0.014001582749187946,36.7148156,3.181727,57.05,-1.02,-0.78,1.43,81,218,1.9334136247634888,1.2922730445861816
36,-0.010048741474747658,-2.4715991020202637,-0.0029341098852455616,36.7148017,3.1817139,54.8,-1.03,-0.83,1.41,81,218,1.9418754577636719,1.328899621963501
37,-0.06390310078859329,-2.4706642627716064,0.007495526690036058,36.7147875,3.1816998,52.57,-1.05,-0.87,1.43,81,218,1.9836571216583252,1.3745192289352417
38,-0.03704584017395973,-2.470025062561035,-0.027452541515231133,36.7147705,3.1816827,49.95,-1.07,-0.87,1.44,80,218,2.001250982284546,1.3897243738174438
39,-0.027743488550186157,-2.4697632789611816,0.027978278696537018,36.7147559,3.1816681,47.71,-1.06,-0.87,1.44,80,218,1.9957084655761719,1.378736138343811
40,-0.058696847409009933,-2.4703316688537598,0.009016430005431175,36.7147389,3.1816511,45.09,-1.06,-0.88,1.45,79,218,2.0049924850463867,1.3843125104904175
41,-0.007924625650048256,-2.4699831008911133,0.0019307533511891961,36.7147244,3.1816365,42.86,-1.07,-0.88,1.46,79,218,2.0186121463775635,1.387636661529541
42,-0.036222055554389954,-2.4701380729675293,0.03050379455089569,36.7147074,3.1816194,40.23,-1.06,-0.88,1.46,79,218,2.0147335529327393,1.383307933807373
43,-0.02694196067750454,-2.4694976806640625,-0.021740440279245377,36.7146928,3.1816046,37.98,-1.07,-0.89,1.46,78,218,2.0288617610931396,1.4020403623580933
44,-0.029058149084448814,-2.469883680343628,0.02805161289870739,36.7146782,3.1815898,35.74,-1.06,-0.89,1.47,78,218,2.023524522781372,1.3864860534667969
45,-0.06079868972301483,-2.469982147216797,-0.0026794408913701773,36.7146611,3.1815727,33.12,-1.06,-0.88,1.47,78,218,2.022608757019043,1.3819365501403809
46,-0.011842368170619011,-2.470294952392578,0.006679817568510771,36.7146466,3.1815581,30.86,-1.06,-0.87,1.47,77,218,2.0187556743621826,1.381744384765625
47,-0.03889729827642441,-2.4698164463043213,0.02780339866876602,36.7146296,3.1815409,28.25,-1.06,-0.88,1.47,77,218,2.0227110385894775,1.3831405639648438
48,-0.030697479844093323,-2.46988844871521,-0.025648286566138268,36.714615,3.1815261,25.99,-1.06,-0.88,1.47,77,218,2.0262515544891357,1.3876473903656006
49,-0.039446644484996796,-2.4701595306396484,0.029260631650686264,36.7146004,3.1815113,23.74,-1.05,-0.87,1.47,76,218,2.0145838260650635,1.3746025562286377
50,-0.15517355501651764,-3.069821834564209,-0.11287481337785721,36.7145798,3.1814975,21.22,-1.83,-0.2,1.15,76,184,2.1785576343536377,1.849926233291626
51,-0.2002577930688858,2.667895793914795,-0.017198264598846436,36.7145444,3.18151,20.44,-3.38,1.64,-0.02,75,152,3.7609829902648926,3.760903835296631
52,-0.17557264864444733,2.672625780105591,0.0249039214104414,36.7144834,3.181548,20.55,-4.0,2.04,0.02,75,153,4.496803283691406,4.496757507324219
53,-0.01602056622505188,2.97261643409729,0.15462973713874817,36.7144309,3.1815749,20.5,-3.55,0.6,0.05,75,170,3.6029133796691895,3.6025140285491943
54,-0.3808581233024597,-2.2372872829437256,0.16399534046649933,36.7143884,3.1815552,20.48,-2.92,-3.26,0.02,74,231,4.37924861907959,4.3791985511779785
55,-0.5043878555297852,-2.1451382637023926,-0.02392689138650894,36.714334,3.1814541,20.48,-4.22,-6.7,0.01,74,237,7.923282146453857,7.92327356338501
56,-0.4821414649486542,-2.148240804672241,0.02494032122194767,36.7142711,3.1813305,20.49,-4.93,-7.69,0.0,73,236,9.13943862915039,9.13943862915039
57,-0.33054834604263306,-2.1529064178466797,-0.025699980556964874,36.7141936,3.1811807,20.52,-4.65,-7.16,0.0,73,236,8.544608116149902,8.544608116149902
58,-0.2539238929748535,-2.146911859512329,0.03880038857460022,36.7141359,3.1810691,20.51,-3.8,-5.99,0.03,73,237,7.101522445678711,7.101417541503906
59,-0.2532021403312683,-2.1232805252075195,-0.0005563290324062109,36.714088,3.1809725,20.49,-3.42,-5.68,0.02,72,238,6.633857250213623,6.63381290435791
60,-0.2827244699001312,-2.1080362796783447,0.03639858961105347,36.7140355,3.1808613,20.49,-3.28,-5.67,0.01,72,239,6.556302070617676,6.55628776550293
61,-0.1706317812204361,-2.108720541000366,-0.024756411090493202,36.7139913,3.1807666,20.49,-3.12,-5.37,0.0,71,239,6.219351291656494,6.2193498611450195
62,0.1775500327348709,-2.1091933250427246,0.013447261415421963,36.7139512,3.1806814,20.47,-1.65,-2.81,0.03,71,239,3.264488458633423,3.2642483711242676
63,0.09165146201848984,-2.109051465988159,-0.016162533313035965,36.7139397,3.1806565,20.47,-0.2,-0.36,-0.01,71,239,0.420202374458313,0.4198266267776489
64,0.017106270417571068,-2.1074843406677246,0.05727672204375267,36.7139403,3.1806574,20.46,0.13,0.12,0.03,70,239,0.19406287372112274,0.19006654620170593
