timestamp,pitch,yaw,roll,lat,lon,alt,velocity_x,velocity_y,velocity_z,battery,heading,airspeed,groundspeed
0,-0.023787815123796463,-0.046499524265527725,0.012232395820319653,36.7156066,3.18463,22.85,-0.02,0.02,-0.11,96,357,0.11887893080711365,0.0330488458275795
1,-0.05332857742905617,-0.029773743823170662,0.09078480303287506,36.715608,3.1846326,22.86,0.39,0.61,-0.04,95,358,0.7285065054893494,0.7269952893257141
2,-0.16318349540233612,1.457472562789917,-0.10912055522203445,36.7156258,3.1846648,22.9,1.94,2.73,-0.03,95,83,3.355175256729126,3.3549394607543945
3,-0.1665821522474289,0.9000560641288757,0.022894911468029022,36.7156563,3.1847179,22.89,2.37,3.34,-0.01,95,51,4.099948883056641,4.0999298095703125
4,0.12402687221765518,0.9278587102890015,-0.015167856588959694,36.7156872,3.1847712,22.88,1.8,2.51,0.0,94,53,3.0954906940460205,3.0954885482788086
5,0.3012808859348297,0.3632875978946686,-0.1635504812002182,36.7156941,3.1847809,22.9,-1.26,-1.89,0.0,94,20,2.2789459228515625,2.278930425643921
6,-0.11302664130926132,-1.2876588106155396,-0.12474410980939865,36.7156681,3.1847335,22.86,-2.27,-3.28,0.01,93,286,3.9943132400512695,3.9942944049835205
7,-0.04111144319176674,-2.3855745792388916,0.06933210045099258,36.7156377,3.1846774,22.92,-2.05,-3.23,0.01,93,223,3.8320908546447754,3.832073450088501
8,-0.13631238043308258,-1.2619905471801758,0.2973839342594147,36.7156249,3.1846167,22.87,0.96,-2.73,0.01,93,287,2.8967671394348145,2.8967080116271973
9,-0.449288547039032,-0.654975175857544,0.025481700897216797,36.7156637,3.1845675,22.87,4.66,-3.38,0.0,92,322,5.768461227416992,5.768460750579834
10,-0.48692989349365234,-0.6213214993476868,0.027109295129776,36.7157608,3.1844834,22.88,7.26,-5.05,-0.01,92,324,8.856097221374512,8.856088638305664
11,-0.47801390290260315,-0.6175786852836609,-0.031898219138383865,36.715865,3.1843928,22.9,7.86,-5.53,0.0,91,324,9.61938190460205,9.61938190460205
12,-0.3041232228279114,-0.6211062669754028,0.0331575833261013,36.7159866,3.1842856,22.94,7.16,-5.09,0.0,91,324,8.791755676269531,8.79175090789795
13,0.01802181452512741,-0.642455518245697,-0.08575376868247986,36.7160693,3.1842122,22.94,4.64,-3.47,0.05,91,323,5.799450874328613,5.799221038818359
14,-0.07466026395559311,-1.4021464586257935,-0.25702670216560364,36.716106,3.1841611,23.14,0.45,-2.9,-0.32,90,279,2.957521677017212,2.939089298248291
15,-0.46788913011550903,-2.1520283222198486,-0.03438878059387207,36.716078,3.1840871,24.41,-3.6,-5.08,-1.06,90,236,6.326231002807617,6.23636531829834
16,-0.4680759310722351,-2.1624374389648438,0.040546126663684845,36.7160172,3.1839804,26.42,-5.08,-7.36,-1.51,89,236,9.078808784484863,8.95209789276123
17,-0.4602462351322174,-2.1656010150909424,-0.024827932938933372,36.7159309,3.1838244,29.27,-5.52,-8.05,-1.59,89,235,9.895308494567871,9.766560554504395
18,-0.4855348765850067,-2.163888692855835,0.025450771674513817,36.7158561,3.1836863,31.74,-5.53,-8.2,-1.57,88,236,10.023965835571289,9.90015983581543
19,-0.4287354052066803,-2.164205312728882,0.017982037737965584,36.7157809,3.1835468,34.21,-5.56,-8.26,-1.58,88,236,10.090011596679688,9.964737892150879
20,-0.4872375726699829,-2.166607618331909,-0.009228436276316643,36.7156933,3.183384,37.09,-5.51,-8.25,-1.59,87,235,10.051390647888184,9.923726081848145
21,-0.4675154387950897,-2.1636464595794678,0.039739660918712616,36.7156187,3.1832445,39.59,-5.49,-8.28,-1.6,87,236,10.070446968078613,9.941046714782715
22,-0.42970892786979675,-2.1643333435058594,-0.0011331761488690972,36.7155441,3.1831051,42.09,-5.53,-8.3,-1.6,87,236,10.105051040649414,9.976049423217773
23,-0.49061328172683716,-2.1649727821350098,0.016407622024416924,36.7154566,3.1829417,45.0,-5.51,-8.3,-1.62,86,235,10.1057767868042,9.974830627441406
24,-0.4383620321750641,-2.1663002967834473,0.036754585802555084,36.7153818,3.1828019,47.5,-5.51,-8.28,-1.62,86,235,10.08987045288086,9.957579612731934
25,-0.48186439275741577,-2.1652462482452393,-0.019420670345425606,36.7152949,3.1826394,50.42,-5.5,-8.28,-1.61,85,235,10.081725120544434,9.950822830200195
26,-0.4786851406097412,-2.1637277603149414,0.033223897218704224,36.7152201,3.1824991,52.92,-5.51,-8.31,-1.63,85,236,10.112669944763184,9.980323791503906
27,-0.44455015659332275,-2.1649351119995117,-0.02452995628118515,36.7151328,3.1823358,55.84,-5.52,-8.28,-1.63,84,235,10.094118118286133,9.961187362670898
28,-0.45827171206474304,-2.1625213623046875,-0.009840295650064945,36.7150583,3.1821965,58.35,-5.47,-8.22,-1.61,84,236,10.010685920715332,9.879956245422363
29,-0.19074776768684387,-2.167759418487549,0.02935599721968174,36.7149888,3.1820677,60.67,-4.55,-6.73,-1.34,83,235,8.239056587219238,8.12875747680664
30,-0.08345270156860352,-2.155090093612671,0.008784744888544083,36.7149323,3.181962,62.38,-2.67,-4.16,-0.55,83,236,4.984794616699219,4.953856468200684
31,-0.11624611914157867,-2.1125731468200684,0.020280472934246063,36.7149012,3.1818985,62.83,-2.13,-3.69,-0.1,83,238,4.2687602043151855,4.267361164093018
32,-0.16431164741516113,-2.1028218269348145,0.026587456464767456,36.7148684,3.1818269,62.84,-2.09,-3.72,-0.02,82,239,4.274651050567627,4.27458381652832
33,0.03729166463017464,-2.110858917236328,-0.034129586070775986,36.7148423,3.1817705,62.8,-1.6,-2.75,0.14,82,239,3.195380449295044,3.1919941902160645
34,-0.00010912515426753089,-2.3636608123779297,-0.023173177614808083,36.7148241,3.181738,61.76,-1.17,-1.25,1.27,82,224,2.1415226459503174,1.721144199371338
35,-0.0566495880484581,-2.464390754699707,-0.01327061653137207,36.7148072,3.1817207,59.11,-1.02,-0.79,1.42,81,218,1.9276453256607056,1.3022117614746094
36,-0.018735447898507118,-2.4692509174346924,0.024110298603773117,36.7147932,3.1817074,56.87,-1.04,-0.84,1.42,81,218,1.9618428945541382,1.3479454517364502
37,-0.055776871740818024,-2.469921350479126,0.020432613790035248,36.7147764,3.1816906,54.26,-1.06,-0.87,1.43,80,218,1.9910110235214233,1.381085753440857
38,-0.011935698799788952,-2.4694759845733643,-0.012323756702244282,36.7147618,3.181676,52.01,-1.07,-0.87,1.43,80,218,1.9963632822036743,1.3865021467208862
39,-0.05357171222567558,-2.4697859287261963,0.020083699375391006,36.7147473,3.1816614,49.78,-1.06,-0.87,1.44,80,218,2.0017850399017334,1.3801220655441284
40,-0.051635853946208954,-2.4693381786346436,-0.015802450478076935,36.7147303,3.1816444,47.16,-1.06,-0.88,1.45,79,218,2.0159218311309814,1.3906267881393433
41,-0.021889599040150642,-2.469503402709961,0.02699715830385685,36.7147158,3.1816297,44.91,-1.06,-0.88,1.45,79,218,2.013465404510498,1.3882832527160645
42,-0.05924973636865616,-2.4700076580047607,0.01348133571445942,36.7146988,3.1816126,42.29,-1.06,-0.89,1.46,79,218,2.019084930419922,1.3897762298583984
43,-0.01013705600053072,-2.469130277633667,-0.0019932084251195192,36.7146841,3.1815978,40.05,-1.07,-0.88,1.47,78,218,2.028308391571045,1.3929920196533203
44,-0.05651704967021942,-2.4699010848999023,0.019953059032559395,36.7146695,3.1815831,37.8,-1.06,-0.89,1.47,78,218,2.027207136154175,1.3933335542678833
45,-0.04178006947040558,-2.469411611557007,-0.02388838678598404,36.7146525,3.1815659,35.17,-1.06,-0.88,1.47,78,218,2.0226614475250244,1.3879402875900269
46,-0.027741355821490288,-2.469484329223633,0.02853367291390896,36.714638,3.1815512,32.93,-1.06,-0.88,1.47,77,218,2.0238656997680664,1.3813809156417847
47,-0.0600116066634655,-2.4695684909820557,0.011205414310097694,36.714621,3.181534,30.31,-1.06,-0.88,1.47,77,218,2.024109125137329,1.3844529390335083
48,-0.0076389736495912075,-2.4694595336914062,-0.0054377601481974125,36.7146064,3.1815193,28.05,-1.07,-0.88,1.47,76,218,2.0238258838653564,1.3901528120040894
49,-0.06451863050460815,-2.4697160720825195,0.0034035074058920145,36.7145917,3.1815046,25.8,-1.06,-0.88,1.47,76,218,2.0262837409973145,1.3877646923065186
50,-0.16099636256694794,3.064380168914795,-0.14282982051372528,36.7145693,3.1814926,23.37,-2.03,0.06,0.96,76,175,2.2555129528045654,2.040940761566162
51,-0.22086429595947266,2.6767101287841797,0.01353495568037033,36.7145308,3.1815094,22.86,-3.58,1.76,-0.07,75,153,3.9988532066345215,3.998230457305908
52,-0.17125117778778076,2.6798808574676514,0.005753622390329838,36.7144677,3.1815482,22.96,-4.04,2.02,0.04,75,153,4.52289342880249,4.52265739440918
53,0.0009007443441078067,3.083784818649292,0.21297988295555115,36.7144155,3.1815716,22.9,-3.43,0.22,0.04,75,176,3.446390390396118,3.4460949897766113
54,-0.43388548493385315,-2.1931276321411133,0.12391876429319382,36.7143671,3.1815328,22.89,-3.09,-4.34,0.01,74,234,5.338705539703369,5.3386688232421875
55,-0.4661271274089813,-2.153468370437622,-0.010100760497152805,36.7143172,3.1814356,22.89,-4.36,-6.9,0.0,74,236,8.170953750610352,8.170951843261719
56,-0.4771232008934021,-2.148678779602051,-0.01292736828327179,36.7142533,3.1813099,22.9,-4.93,-7.69,0.0,73,236,9.14289665222168,9.14289665222168
57,-0.29065826535224915,-2.1530518531799316,-0.0033448042813688517,36.7141765,3.1811619,22.93,-4.58,-7.02,0.0,73,236,8.39120101928711,8.391200065612793
58,-0.2643524706363678,-2.1429107189178467,0.004705494735389948,36.7141203,3.1810528,22.92,-3.71,-5.9,0.04,73,237,6.979804992675781,6.979684829711914
59,-0.2501833438873291,-2.113269567489624,0.036964934319257736,36.7140731,3.1809561,22.9,-3.32,-5.65,0.01,72,238,6.564713001251221,6.564682483673096
60,-0.31105056405067444,-2.098897695541382,0.004384676925837994,36.7140219,3.1808452,22.9,-3.22,-5.67,0.01,72,239,6.522536277770996,6.522515296936035
61,-0.1264171302318573,-2.100118637084961,0.0066902004182338715,36.7139789,3.1807515,22.9,-2.99,-5.24,0.0,71,239,6.040597915649414,6.040596008300781
62,0.16159076988697052,-2.100926160812378,0.030943546444177628,36.713942,3.1806714,22.87,-1.37,-2.41,0.02,71,239,2.7836952209472656,2.7835428714752197
63,0.11047489941120148,-2.100886344909668,-0.027177153155207634,36.7139331,3.1806515,22.88,-0.09,-0.18,-0.01,71,239,0.21071013808250427,0.21016258001327515
64,0.012490586377680302,-2.0992369651794434,0.09733203798532486,36.7139347,3.1806534,22.85,0.31,-0.02,0.02,70,239,0.3124762773513794,0.31125837564468384
