timestamp,pitch,yaw,roll,lat,lon,alt,velocity_x,velocity_y,velocity_z,battery,heading,airspeed,groundspeed
0,-0.02510463446378708,-0.006034934427589178,-0.0019230680773034692,36.7156067,3.1846299,20.98,-0.03,0.03,-0.01,96,359,0.04685167968273163,0.04518724977970123
1,-0.04336396977305412,0.002380522433668375,0.10051476210355759,36.7156079,3.1846325,20.92,0.35,0.57,-0.02,95,0,0.6745817065238953,0.6740151643753052
2,-0.22507216036319733,1.441906213760376,-0.0829176977276802,36.7156205,3.1846558,20.95,1.58,2.34,-0.04,95,82,2.8357443809509277,2.835376024246216
3,-0.18303805589675903,0.9265146851539612,-0.0038484178949147463,36.7156529,3.1847146,20.96,2.31,3.37,-0.02,95,53,4.095615863800049,4.095551490783691
4,0.05946624279022217,0.9452465176582336,0.020134517922997475,36.7156839,3.1847698,20.97,1.98,2.82,-0.01,94,54,3.453948974609375,3.453922986984253
5,0.3255692422389984,0.7589232325553894,-0.035079848021268845,36.7156961,3.1847896,21.0,-0.9,-1.37,-0.01,94,43,1.6482347249984741,1.6481502056121826
6,-0.047494497150182724,-0.996135413646698,-0.17992891371250153,36.7156726,3.1847468,20.97,-2.22,-3.2,0.03,93,302,3.901974678039551,3.901808023452759
7,-0.09727761894464493,-2.4111270904541016,0.09008746594190598,36.7156422,3.1846916,21.02,-2.18,-3.26,-0.01,93,221,3.9327054023742676,3.9326913356781006
8,-0.09848058968782425,-1.478045105934143,0.2575385868549347,36.7156235,3.1846296,20.97,0.34,-2.82,0.02,93,275,2.8453705310821533,2.845296621322632
9,-0.38205277919769287,-0.6512505412101746,0.06992196291685104,36.7156541,3.1845812,20.97,4.14,-3.17,0.0,92,322,5.220911502838135,5.220908164978027
10,-0.5359995365142822,-0.6264646053314209,0.028191978111863136,36.7157449,3.1845017,20.97,7.05,-4.85,0.0,92,324,8.561068534851074,8.561063766479492
11,-0.45918509364128113,-0.6188687086105347,0.01822073757648468,36.7158475,3.1844128,20.99,7.87,-5.5,0.0,91,324,9.60930347442627,9.609299659729004
12,-0.3804267644882202,-0.6199356913566589,-0.02571231685578823,36.7159538,3.1843198,21.01,7.58,-5.36,-0.01,91,324,9.290504455566406,9.290482521057129
13,-0.033949028700590134,-0.6264138221740723,-0.004956127144396305,36.7160582,3.1842275,21.04,5.17,-3.72,0.04,91,324,6.377628326416016,6.37745475769043
14,0.00755655812099576,-1.164962887763977,-0.2946767807006836,36.7161038,3.1841741,21.15,1.2,-2.87,-0.24,90,293,3.131828546524048,3.122022867202759
15,-0.37207385897636414,-2.1362392902374268,-0.05326491966843605,36.7160853,3.1841049,22.25,-3.2,-4.65,-0.97,90,237,5.735786437988281,5.652177333831787
16,-0.49971193075180054,-2.160762310028076,-0.02342967875301838,36.7160284,3.184005,24.16,-4.95,-7.08,-1.46,89,236,8.763945579528809,8.641138076782227
17,-0.4387608468532562,-2.162691116333008,0.033538978546857834,36.7159437,3.1838524,26.98,-5.53,-8.05,-1.6,89,236,9.909625053405762,9.77915096282959
18,-0.4347693920135498,-2.1639328002929688,-0.01873360015451908,36.7158683,3.1837142,29.43,-5.55,-8.21,-1.57,88,236,10.041178703308105,9.916104316711426
19,-0.47341129183769226,-2.163933277130127,-0.035245347768068314,36.7157929,3.1835747,31.89,-5.54,-8.24,-1.59,88,236,10.068197250366211,9.941503524780273
20,-0.43671008944511414,-2.1654744148254395,0.03588998690247536,36.7157055,3.1834121,34.78,-5.5,-8.25,-1.6,87,235,10.053800582885742,9.924699783325195
21,-0.4333435297012329,-2.165313243865967,-0.010303969494998455,36.715631,3.1832727,37.26,-5.52,-8.27,-1.62,87,235,10.08401870727539,9.952940940856934
22,-0.47927698493003845,-2.164846181869507,-0.018192095682024956,36.7155563,3.1831329,39.75,-5.5,-8.26,-1.62,87,235,10.064924240112305,9.933157920837402
23,-0.43736377358436584,-2.1640000343322754,0.030427200719714165,36.7154692,3.1829701,42.67,-5.51,-8.28,-1.63,86,236,10.087158203125,9.953726768493652
24,-0.4351803660392761,-2.1648476123809814,-0.021024104207754135,36.7153945,3.1828307,45.17,-5.52,-8.29,-1.63,86,235,10.095023155212402,9.962201118469238
25,-0.48904556035995483,-2.166067600250244,0.030807271599769592,36.7153073,3.1826676,48.09,-5.52,-8.29,-1.63,85,235,10.102505683898926,9.969521522521973
26,-0.4416164457798004,-2.165303945541382,0.03035832569003105,36.7152326,3.1825279,50.6,-5.53,-8.31,-1.63,85,235,10.120100021362305,9.986632347106934
27,-0.4774090349674225,-2.165583848953247,-0.02143162488937378,36.7151451,3.1823643,53.52,-5.51,-8.31,-1.63,84,235,10.10603141784668,9.973311424255371
28,-0.4743548631668091,-2.1632001399993896,0.016015859320759773,36.7150704,3.1822243,56.02,-5.49,-8.27,-1.63,84,236,10.068089485168457,9.934690475463867
29,-0.2283654361963272,-2.1671500205993652,0.018104109913110733,36.7149995,3.1820925,58.41,-4.76,-7.08,-1.42,84,235,8.65369987487793,8.535120964050293
30,-0.09097839891910553,-2.1600146293640137,0.009511296637356281,36.7149391,3.1819795,60.31,-2.9,-4.43,-0.66,83,236,5.344493865966797,5.302595615386963
31,-0.11081013083457947,-2.117612838745117,0.02253393642604351,36.714906,3.1819136,60.9,-2.2,-3.7,-0.16,83,238,4.312027454376221,4.3089985847473145
32,-0.17292876541614532,-2.102332353591919,0.02971600741147995,36.7148728,3.1818421,60.95,-2.06,-3.68,-0.01,82,239,4.223061561584473,4.2230448722839355
33,0.017193634063005447,-2.104465961456299,-0.02466645836830139,36.7148462,3.1817839,60.94,-1.7,-3.0,0.06,82,239,3.4553639888763428,3.4547908306121826
34,-0.009127011522650719,-2.3038392066955566,-0.036303967237472534,36.714827,3.1817472,60.17,-1.22,-1.45,1.09,82,228,2.19429874420166,1.9008413553237915
35,-0.03415369987487793,-2.4725842475891113,-0.025718912482261658,36.7148095,3.181728,57.6,-1.04,-0.8,1.44,81,218,1.9549601078033447,1.3125863075256348
36,-0.04034320265054703,-2.4711952209472656,0.031655751168727875,36.7147954,3.1817148,55.36,-1.03,-0.82,1.43,81,218,1.9504785537719727,1.3253780603408813
37,-0.062461040914058685,-2.4696271419525146,-0.006706186104565859,36.7147788,3.1816984,52.75,-1.06,-0.87,1.44,81,218,1.9965622425079346,1.3786940574645996
38,-0.010677390731871128,-2.4696671962738037,0.01628394052386284,36.7147643,3.1816837,50.51,-1.06,-0.88,1.45,80,218,2.009028434753418,1.3826886415481567
39,-0.05131696164608002,-2.469306707382202,-0.018192145973443985,36.7147498,3.1816691,48.26,-1.07,-0.88,1.46,80,218,2.020592451095581,1.3961032629013062
40,-0.010005330666899681,-2.4695632457733154,-0.010775930248200893,36.7147327,3.181652,45.64,-1.07,-0.88,1.46,79,218,2.020528554916382,1.3916476964950562
41,-0.06012973561882973,-2.4696762561798096,0.011033347807824612,36.7147181,3.1816374,43.4,-1.06,-0.88,1.46,79,218,2.0229570865631104,1.391080617904663
42,-0.03844798356294632,-2.4697225093841553,-0.024304233491420746,36.7147012,3.1816202,40.77,-1.07,-0.88,1.47,79,218,2.0254597663879395,1.39043128490448
43,-0.051349204033613205,-2.4692492485046387,0.026441162452101707,36.7146867,3.1816055,38.52,-1.07,-0.89,1.47,78,218,2.0306999683380127,1.4006203413009644
44,-0.02179807424545288,-2.469644784927368,-0.023339301347732544,36.714672,3.1815907,36.28,-1.08,-0.88,1.47,78,218,2.0330193042755127,1.398985743522644
45,-0.01638500951230526,-2.4692397117614746,0.019245579838752747,36.7146549,3.1815735,33.65,-1.07,-0.87,1.47,78,218,2.0222156047821045,1.3815406560897827
46,-0.05310122296214104,-2.469573974609375,-0.019024020060896873,36.7146403,3.1815589,31.41,-1.06,-0.88,1.47,77,218,2.02211856842041,1.3807882070541382
47,-0.008043398149311543,-2.469749689102173,-0.008926124311983585,36.7146234,3.1815417,28.79,-1.06,-0.88,1.48,77,218,2.0253007411956787,1.3779534101486206
48,-0.0609726682305336,-2.469400405883789,0.004901169799268246,36.7146088,3.1815269,26.53,-1.06,-0.88,1.48,77,218,2.0265815258026123,1.3840049505233765
49,-0.007770254742354155,-2.4694221019744873,0.005158662796020508,36.7145942,3.1815122,24.28,-1.06,-0.88,1.47,76,218,2.025782823562622,1.3853377103805542
50,-0.12478623539209366,-3.0563507080078125,-0.07623733580112457,36.7145736,3.1814981,21.75,-1.81,-0.23,1.16,76,184,2.1655635833740234,1.8267033100128174
51,-0.21758686006069183,2.6739912033081055,-0.05317997932434082,36.7145384,3.1815101,20.96,-3.37,1.6,-0.01,75,153,3.7330381870269775,3.733006000518799
52,-0.15221141278743744,2.679976224899292,0.017224112525582314,36.7144771,3.1815475,21.06,-4.06,2.04,0.01,75,153,4.55349063873291,4.553450584411621
53,-0.04286256805062294,2.940425395965576,0.1445438414812088,36.7144237,3.1815752,21.01,-3.62,0.73,0.04,75,168,3.7016801834106445,3.701364040374756
54,-0.3427470326423645,-2.258293390274048,0.175657257437706,36.7143806,3.1815583,20.99,-2.92,-3.07,0.02,74,230,4.242949485778809,4.242893218994141
55,-0.5127109885215759,-2.1435840129852295,-0.011638514697551727,36.7143266,3.1814598,20.99,-4.15,-6.61,0.01,74,237,7.805970191955566,7.805962085723877
56,-0.47723063826560974,-2.1453986167907715,0.018436836078763008,36.7142645,3.1813371,21.0,-4.89,-7.66,0.0,73,237,9.097635269165039,9.097635269165039
57,-0.34037089347839355,-2.152639389038086,-0.023991389200091362,36.714187,3.1811873,21.02,-4.68,-7.22,0.0,73,236,8.612342834472656,8.612340927124023
58,-0.24654075503349304,-2.1462297439575195,0.041035011410713196,36.7141289,3.181075,21.02,-3.83,-6.04,0.03,73,237,7.165709018707275,7.165634632110596
59,-0.24758084118366241,-2.118229627609253,0.005151072051376104,36.7140808,3.1809774,20.99,-3.38,-5.68,0.01,72,238,6.621566295623779,6.62153959274292
60,-0.2942974269390106,-2.100616693496704,0.03344261646270752,36.7140291,3.1808662,20.99,-3.21,-5.64,0.0,72,239,6.5018439292907715,6.501837730407715
61,-0.171217143535614,-2.10044002532959,-0.01416256558150053,36.7139859,3.1807717,20.99,-3.09,-5.42,0.0,71,239,6.245284080505371,6.245284080505371
62,0.06809641420841217,-2.100482940673828,0.0037478054873645306,36.7139499,3.1806936,20.98,-1.99,-3.48,0.03,71,239,4.010213375091553,4.010031223297119
63,0.11795339733362198,-2.100529193878174,-0.026823097839951515,36.7139335,3.1806577,20.98,-0.24,-0.44,-0.02,71,239,0.5078654885292053,0.5074708461761475
64,0.02196025662124157,-2.09961199760437,0.05937806889414787,36.713934,3.1806582,20.96,0.2,0.09,0.04,70,239,0.22430571913719177,0.22068235278129578
