timestamp,pitch,yaw,roll,lat,lon,alt,velocity_x,velocity_y,velocity_z,battery,heading,airspeed,groundspeed
0,-0.017004242166876793,0.0075922473333776,0.020591149106621742,36.7156066,3.1846299,19.8,-0.03,0.03,0.04,96,0,0.06221854314208031,0.044284749776124954
1,-0.05650520324707031,0.01774425618350506,0.08062603324651718,36.7156079,3.1846326,19.76,0.34,0.59,0.0,95,1,0.6881940364837646,0.6881682276725769
2,-0.15954269468784332,1.4430465698242188,-0.10584035515785217,36.7156246,3.184664,19.74,1.86,2.72,-0.04,95,82,3.2984626293182373,3.298208713531494
3,-0.1813630610704422,0.9436449408531189,0.019734395667910576,36.7156542,3.1847182,19.78,2.36,3.5,-0.04,95,54,4.22953462600708,4.229338645935059
4,0.05434723198413849,0.9539584517478943,-0.01482210960239172,36.715686,3.1847757,19.81,2.04,2.97,-0.02,94,54,3.61167573928833,3.6116061210632324
5,0.37267979979515076,0.8655261397361755,-0.013150209560990334,36.7156997,3.1847991,19.81,-0.81,-1.22,0.0,94,49,1.4723154306411743,1.4723149538040161
6,-0.07588651031255722,-0.9103264212608337,-0.17110517621040344,36.7156768,3.1847574,19.85,-2.22,-3.2,-0.02,93,307,3.901074171066284,3.900974750518799
7,-0.06901349872350693,-2.3724024295806885,0.050437964498996735,36.7156462,3.1847017,19.84,-2.19,-3.23,0.01,93,224,3.912771224975586,3.9127509593963623
8,-0.05633677542209625,-1.4839972257614136,0.2871648669242859,36.7156265,3.1846396,19.82,0.23,-2.83,0.01,93,274,2.839764356613159,2.839736223220825
9,-0.41805633902549744,-0.6489571928977966,0.04628977179527283,36.7156559,3.1845915,19.82,4.02,-3.14,0.0,92,322,5.112429141998291,5.112428188323975
10,-0.4816429018974304,-0.6236987709999084,0.023701034486293793,36.7157456,3.1845131,19.82,6.97,-4.84,-0.01,92,324,8.4956636428833,8.495649337768555
11,-0.48576098680496216,-0.6193364858627319,-0.02713642083108425,36.7158477,3.1844245,19.84,7.85,-5.52,0.0,91,324,9.603841781616211,9.603842735290527
12,-0.43010562658309937,-0.6203224062919617,0.01539607997983694,36.715954,3.184331,19.87,7.61,-5.39,-0.01,91,324,9.327995300292969,9.327985763549805
13,-0.03350671008229256,-0.6256765127182007,-0.049194060266017914,36.7160595,3.184238,19.9,5.26,-3.77,0.05,91,324,6.477516174316406,6.477276802062988
14,0.028504425659775734,-1.1297935247421265,-0.23740345239639282,36.7161067,3.1841843,20.0,1.33,-2.87,-0.22,90,295,3.177004814147949,3.168895959854126
15,-0.43777966499328613,-2.1309902667999268,-0.07837143540382385,36.7160899,3.1841163,21.06,-3.14,-4.6,-0.95,90,237,5.658376216888428,5.577978134155273
16,-0.4665692150592804,-2.160860776901245,0.04119586944580078,36.7160333,3.1840174,22.94,-4.88,-7.06,-1.45,89,236,8.706673622131348,8.58372688293457
17,-0.4591537415981293,-2.163414478302002,-0.031235847622156143,36.7159487,3.1838644,25.75,-5.53,-8.03,-1.6,89,236,9.891752243041992,9.76055908203125
18,-0.48283541202545166,-2.1652157306671143,0.027353601530194283,36.7158734,3.1837264,28.22,-5.53,-8.17,-1.57,88,235,9.99791431427002,9.873024940490723
19,-0.4296271800994873,-2.1644363403320312,0.02793939597904682,36.7157983,3.1835871,30.68,-5.55,-8.24,-1.58,88,235,10.06844711303711,9.942411422729492
20,-0.4843052625656128,-2.1624064445495605,-0.01796693727374077,36.715711,3.1834244,33.58,-5.51,-8.26,-1.59,88,236,10.066471099853516,9.939970016479492
21,-0.4842207431793213,-2.1648507118225098,0.03654154762625694,36.7156361,3.183285,36.06,-5.54,-8.27,-1.6,87,235,10.088533401489258,9.960555076599121
22,-0.4488290548324585,-2.1645119190216064,-0.02122456207871437,36.715549,3.1831223,38.98,-5.5,-8.3,-1.6,87,235,10.091971397399902,9.963804244995117
23,-0.45979398488998413,-2.1648714542388916,-0.030582040548324585,36.7154868,3.1830059,41.06,-5.52,-8.31,-1.6,86,235,10.113028526306152,9.984259605407715
24,-0.4465233385562897,-2.1636857986450195,0.03940705209970474,36.7153994,3.1828423,43.97,-5.52,-8.3,-1.62,86,236,10.10762882232666,9.975787162780762
25,-0.46493861079216003,-2.1669163703918457,-0.022670509293675423,36.7153121,3.1826793,46.89,-5.52,-8.27,-1.62,85,235,10.082856178283691,9.951302528381348
26,-0.4890326261520386,-2.166212558746338,0.023245777934789658,36.7152373,3.1825396,49.38,-5.49,-8.29,-1.63,85,235,10.081001281738281,9.947622299194336
27,-0.4294286370277405,-2.163195848464966,-0.020734893158078194,36.7151504,3.1823763,52.31,-5.52,-8.3,-1.63,84,236,10.110404968261719,9.97673511505127
28,-0.47086161375045776,-2.1630234718322754,-0.023709457367658615,36.7150756,3.1822365,54.81,-5.51,-8.28,-1.63,84,236,10.084548950195312,9.95193099975586
29,-0.2688712179660797,-2.169412136077881,0.03740854933857918,36.7150041,3.1821042,57.21,-4.82,-7.14,-1.42,83,235,8.741955757141113,8.624238014221191
30,-0.06678975373506546,-2.1606366634368896,-0.013656188733875751,36.714943,3.1819899,59.16,-2.91,-4.47,-0.66,83,236,5.384093761444092,5.34261417388916
31,-0.1333298236131668,-2.1188180446624756,0.04165766015648842,36.71491,3.181924,59.75,-2.2,-3.7,-0.15,83,238,4.315160274505615,4.312206745147705
32,-0.1837177276611328,-2.1019556522369385,0.005795326549559832,36.714877,3.1818524,59.8,-2.08,-3.69,-0.01,82,239,4.247690677642822,4.2476701736450195
33,0.022462964057922363,-2.1039726734161377,-0.0008140130084939301,36.7148499,3.1817937,59.79,-1.74,-3.04,0.04,82,239,3.510667562484741,3.510404348373413
34,-0.0010918901534751058,-2.294482946395874,-0.057441793382167816,36.7148305,3.1817561,59.05,-1.21,-1.46,1.06,82,228,2.179921865463257,1.9046984910964966
35,-0.025378376245498657,-2.4743995666503906,-0.021817762404680252,36.7148131,3.1817369,56.49,-1.03,-0.79,1.44,81,218,1.9460113048553467,1.304896354675293
36,-0.04685404151678085,-2.4716696739196777,0.02937924675643444,36.7147991,3.1817238,54.25,-1.04,-0.83,1.41,81,218,1.951265811920166,1.3384709358215332
37,-0.05901087075471878,-2.469794988632202,-0.011977034620940685,36.7147824,3.1817073,51.64,-1.06,-0.88,1.43,81,218,1.9900182485580444,1.3824654817581177
38,-0.014277962036430836,-2.469465494155884,0.01753692515194416,36.7147678,3.1816927,49.39,-1.07,-0.87,1.43,80,218,1.9968888759613037,1.3862347602844238
39,-0.05505936220288277,-2.469407796859741,0.019150441512465477,36.7147508,3.1816756,46.78,-1.06,-0.88,1.44,80,218,1.9996354579925537,1.3807765245437622
40,-0.016256507486104965,-2.4698386192321777,-0.016477134078741074,36.7147363,3.181661,44.53,-1.06,-0.88,1.45,79,218,2.0088024139404297,1.3882901668548584
41,-0.056568168103694916,-2.470033884048462,0.01867729425430298,36.7147217,3.1816463,42.29,-1.06,-0.89,1.45,79,218,2.0140769481658936,1.3907750844955444
42,-0.04549651965498924,-2.4697659015655518,-0.02018415555357933,36.7147047,3.1816291,39.67,-1.07,-0.89,1.46,79,218,2.0243401527404785,1.396576166152954
43,-0.030240267515182495,-2.46915602684021,0.02704247459769249,36.7146901,3.1816144,37.44,-1.06,-0.87,1.47,78,218,2.018958330154419,1.3775075674057007
44,-0.05976097658276558,-2.469675302505493,0.014579501003026962,36.7146731,3.1815973,34.81,-1.06,-0.88,1.47,78,218,2.0262622833251953,1.3867077827453613
45,-0.012613808736205101,-2.4695024490356445,-0.00492532504722476,36.7146585,3.1815825,32.56,-1.07,-0.88,1.47,78,218,2.028376579284668,1.3907279968261719
46,-0.061278507113456726,-2.470127820968628,0.008993236348032951,36.7146439,3.1815678,30.31,-1.06,-0.88,1.47,77,218,2.0217084884643555,1.3825491666793823
47,-0.03412676602602005,-2.4693973064422607,-0.028539171442389488,36.7146269,3.1815506,27.68,-1.06,-0.88,1.47,77,218,2.0229737758636475,1.386781096458435
48,-0.03309426084160805,-2.4695732593536377,0.030217913910746574,36.7146123,3.181536,25.43,-1.05,-0.88,1.46,77,218,2.015489339828491,1.3798305988311768
49,-0.059589605778455734,-2.469468593597412,0.0023385530803352594,36.7145953,3.1815188,22.8,-1.06,-0.89,1.46,76,218,2.022923231124878,1.3907064199447632
50,-0.09007273614406586,-3.0384862422943115,-0.10112913697957993,36.7145775,3.1815068,20.64,-1.78,-0.25,1.18,76,185,2.155251979827881,1.7998918294906616
51,-0.2581675946712494,2.6693010330200195,-0.03343956544995308,36.714543,3.1815182,19.81,-3.34,1.59,0.0,75,152,3.702751874923706,3.702747344970703
52,-0.14774033427238464,2.6715023517608643,-0.02684599533677101,36.7144822,3.181556,19.92,-3.99,2.05,0.02,75,153,4.497198581695557,4.497148513793945
53,-0.03662019595503807,2.9398696422576904,0.2010502964258194,36.7144294,3.1815839,19.86,-3.56,0.71,0.05,75,168,3.6353464126586914,3.6348817348480225
54,-0.4149262607097626,-2.209038019180298,0.09568370878696442,36.7143797,3.1815571,19.84,-3.0,-3.76,0.01,74,233,4.81724739074707,4.817208290100098
55,-0.4824691116809845,-2.1485984325408936,0.03587108477950096,36.7143321,3.1814677,19.84,-4.19,-6.6,0.0,74,236,7.827610015869141,7.8276047706604
56,-0.444113165140152,-2.152728796005249,-0.021171053871512413,36.7142691,3.1813449,19.85,-4.97,-7.66,0.0,73,236,9.13748836517334,9.137487411499023
57,-0.34422406554222107,-2.1576290130615234,0.02879655733704567,36.714191,3.1811956,19.88,-4.73,-7.21,0.0,73,236,8.631490707397461,8.631489753723145
58,-0.20988570153713226,-2.150096893310547,0.0009470899822190404,36.7141322,3.1810832,19.87,-3.88,-6.04,0.03,73,236,7.188218593597412,7.188132286071777
59,-0.2712155282497406,-2.1153862476348877,0.04503268003463745,36.7140763,3.1809698,19.85,-3.33,-5.66,0.01,72,238,6.578392505645752,6.578363418579102
60,-0.2621183693408966,-2.099965810775757,-0.01835348829627037,36.7140324,3.1808749,19.85,-3.22,-5.66,0.01,72,239,6.51688289642334,6.516866207122803
61,-0.21325229108333588,-2.100400686264038,0.01995161548256874,36.7139889,3.18078,19.85,-3.09,-5.43,0.0,71,239,6.25325870513916,6.253257751464844
62,0.13572032749652863,-2.1007397174835205,-0.027054032310843468,36.7139488,3.1806928,19.83,-1.68,-2.94,0.04,71,239,3.394556999206543,3.3943018913269043
63,0.1254374235868454,-2.100952625274658,0.027513328939676285,36.7139367,3.1806661,19.83,-0.22,-0.42,-0.01,71,239,0.4856608211994171,0.4853241741657257
64,-0.03550422191619873,-2.1025359630584717,0.06139598786830902,36.7139374,3.1806671,19.81,0.19,0.05,0.03,70,239,0.20098784565925598,0.19720496237277985
