timestamp,pitch,yaw,roll,lat,lon,alt,velocity_x,velocity_y,velocity_z,battery,heading,airspeed,groundspeed
0,-0.022838691249489784,0.03317207470536232,0.0074867988005280495,36.7156065,3.18463,21.84,-0.02,0.02,-0.05,96,1,0.06452549993991852,0.03260631486773491
1,-0.044878143817186356,0.0359208881855011,0.08896878361701965,36.7156078,3.1846325,21.8,0.33,0.56,-0.03,95,2,0.6593188047409058,0.6584804654121399
2,-0.16917012631893158,1.4766044616699219,-0.09092498570680618,36.7156237,3.1846638,21.83,1.73,2.74,-0.04,95,84,3.250537633895874,3.2502849102020264
3,-0.18870125710964203,0.9571473002433777,0.006472119130194187,36.7156519,3.1847192,21.84,2.28,3.59,-0.01,95,54,4.259419918060303,4.259383678436279
4,0.0421866774559021,0.9779090285301208,0.00015432090731337667,36.7156827,3.1847779,21.84,2.03,3.11,0.0,94,56,3.7250709533691406,3.725064516067505
5,0.35024070739746094,1.2087167501449585,0.11770465970039368,36.7156967,3.1848041,21.86,-0.75,-1.06,-0.02,94,69,1.3061858415603638,1.3060110807418823
6,-0.0686761662364006,2.8874213695526123,0.1433136910200119,36.7156747,3.1847644,21.83,-2.19,-3.11,0.04,93,165,3.809007167816162,3.8087921142578125
7,-0.07719890028238297,-1.9160178899765015,0.012621108442544937,36.7156395,3.1846996,21.88,-2.13,-3.24,0.0,93,250,3.8807170391082764,3.8807168006896973
8,-0.07366622984409332,-1.5463887453079224,0.26626911759376526,36.7156231,3.1846465,21.83,0.08,-2.89,0.01,93,271,2.898144006729126,2.8980767726898193
9,-0.375637024641037,-0.6523230671882629,0.05448935180902481,36.7156498,3.1845985,21.83,3.87,-3.08,0.0,92,322,4.956482410430908,4.956479549407959
10,-0.5419819355010986,-0.6214950680732727,0.019577501341700554,36.7157217,3.1845347,21.83,6.59,-4.55,0.0,92,324,8.014896392822266,8.01489543914795
11,-0.46741652488708496,-0.6169092655181885,-0.015199129469692707,36.7158386,3.184434,21.85,7.85,-5.46,0.0,91,324,9.566849708557129,9.56684684753418
12,-0.3911988139152527,-0.6205962300300598,0.023543858900666237,36.7159624,3.1843255,21.87,7.48,-5.3,-0.02,91,324,9.17171573638916,9.171674728393555
13,-0.03269161656498909,-0.6237844228744507,-0.019983608275651932,36.7160521,3.1842464,21.89,5.44,-3.89,0.04,91,324,6.695318698883057,6.695188522338867
14,0.02310768887400627,-1.0544250011444092,-0.24886786937713623,36.7161024,3.1841917,21.98,1.58,-2.89,-0.2,90,299,3.310209274291992,3.3036234378814697
15,-0.3902676999568939,-2.129479169845581,-0.10629169642925262,36.7160893,3.1841249,22.98,-2.96,-4.44,-0.92,90,237,5.42156982421875,5.342041015625
16,-0.5020774602890015,-2.1619420051574707,0.029205067083239555,36.7160341,3.1840284,24.81,-4.84,-6.88,-1.43,89,236,8.541813850402832,8.419626235961914
17,-0.4134829044342041,-2.1637024879455566,-0.01968727819621563,36.71595,3.1838776,27.6,-5.52,-8.05,-1.61,89,236,9.896440505981445,9.76433277130127
18,-0.4914546012878418,-2.1634461879730225,-0.015556970611214638,36.7158749,3.1837399,30.06,-5.54,-8.22,-1.58,88,236,10.04787540435791,9.92227554321289
19,-0.4828106760978699,-2.1634585857391357,0.034739311784505844,36.7157997,3.1836004,32.53,-5.51,-8.22,-1.58,88,236,10.031344413757324,9.904722213745117
20,-0.44556882977485657,-2.165477991104126,-0.028433460742235184,36.7157123,3.1834377,35.42,-5.49,-8.22,-1.59,88,235,10.019506454467773,9.891098976135254
21,-0.4946197271347046,-2.1639060974121094,-0.006096608005464077,36.7156378,3.1832984,37.9,-5.53,-8.3,-1.61,87,236,10.110587120056152,9.980474472045898
22,-0.41988980770111084,-2.1628565788269043,0.003166773123666644,36.7155505,3.1831353,40.81,-5.52,-8.28,-1.63,87,236,10.089677810668945,9.957016944885254
23,-0.47385087609291077,-2.1643877029418945,-0.02510802075266838,36.7154759,3.1829962,43.31,-5.5,-8.28,-1.62,86,235,10.082141876220703,9.950974464416504
24,-0.4563671946525574,-2.163970708847046,0.03791458159685135,36.7153887,3.1828329,46.22,-5.5,-8.27,-1.63,86,236,10.072854042053223,9.939069747924805
25,-0.42283013463020325,-2.166074752807617,-0.005176996346563101,36.7153138,3.1826928,48.73,-5.54,-8.3,-1.64,85,235,10.11555004119873,9.98169231414795
26,-0.47594931721687317,-2.163861036300659,-0.022038104012608528,36.7152391,3.1825531,51.23,-5.52,-8.3,-1.63,85,236,10.10694694519043,9.97402572631836
27,-0.4382745623588562,-2.1638641357421875,0.028352316468954086,36.715152,3.1823902,54.15,-5.53,-8.3,-1.64,84,236,10.1126127243042,9.977548599243164
28,-0.4337843060493469,-2.1639397144317627,-0.023339439183473587,36.7150771,3.1822501,56.66,-5.5,-8.27,-1.63,84,236,10.069860458374023,9.935739517211914
29,-0.30242130160331726,-2.1685984134674072,-0.0008901177207008004,36.715005,3.1821163,59.08,-4.89,-7.25,-1.45,83,235,8.870707511901855,8.750849723815918
30,-0.04180201515555382,-2.1617016792297363,0.003184343921020627,36.7149427,3.1819997,61.09,-3.03,-4.6,-0.71,83,236,5.563754558563232,5.517430305480957
31,-0.16860973834991455,-2.1217832565307617,0.02342977188527584,36.7149088,3.1819324,61.74,-2.23,-3.72,-0.19,83,238,4.346592426300049,4.342428684234619
32,-0.16106104850769043,-2.1016199588775635,-0.0226687490940094,36.7148754,3.1818607,61.81,-2.06,-3.67,0.0,82,239,4.2200469970703125,4.220040798187256
33,-0.0162486769258976,-2.1026418209075928,0.024171477183699608,36.7148482,3.1818013,61.81,-1.76,-3.11,0.02,82,239,3.5770254135131836,3.5769333839416504
34,-0.009672368876636028,-2.332277297973633,-0.0525379441678524,36.7148257,3.1817584,60.89,-1.2,-1.36,1.18,82,229,2.2105343341827393,1.9829473495483398
35,-0.008884209208190441,-2.478978395462036,0.008156085386872292,36.7148108,3.1817421,58.66,-1.03,-0.8,1.45,81,217,1.960375189781189,1.3096694946289062
36,-0.060477208346128464,-2.472592353820801,-0.0070264036767184734,36.7147968,3.181729,56.41,-1.03,-0.82,1.42,81,218,1.944575309753418,1.3225691318511963
37,-0.021175982430577278,-2.4706003665924072,-0.0199990626424551,36.7147801,3.1817127,53.81,-1.06,-0.87,1.44,81,218,1.9994921684265137,1.3817037343978882
38,-0.05485266447067261,-2.470174789428711,0.024726709350943565,36.7147656,3.1816981,51.56,-1.06,-0.88,1.45,80,218,2.0075149536132812,1.3881093263626099
39,-0.04972698912024498,-2.469428777694702,-0.022778986021876335,36.7147486,3.1816811,48.94,-1.07,-0.88,1.45,80,218,2.0152084827423096,1.3971593379974365
40,-0.020130600780248642,-2.4694740772247314,0.021887188777327538,36.7147341,3.1816665,46.7,-1.07,-0.88,1.46,79,218,2.0209007263183594,1.3903241157531738
41,-0.04798980802297592,-2.469860553741455,-0.022503763437271118,36.7147194,3.1816517,44.46,-1.06,-0.89,1.47,79,218,2.024393320083618,1.3915045261383057
42,-0.012413986958563328,-2.470595598220825,-0.010105197317898273,36.7147024,3.1816346,41.83,-1.06,-0.87,1.46,79,218,2.0145041942596436,1.378116488456726
43,-0.060785792768001556,-2.4696176052093506,0.0058116428554058075,36.7146878,3.1816199,39.59,-1.06,-0.89,1.47,78,218,2.029829978942871,1.394645094871521
44,-0.04282679781317711,-2.469701051712036,-0.023848501965403557,36.7146709,3.1816028,36.97,-1.07,-0.89,1.48,78,218,2.0375349521636963,1.3970067501068115
45,-0.02928830496966839,-2.4695944786071777,0.0297083780169487,36.7146563,3.1815881,34.72,-1.05,-0.87,1.47,78,218,2.0180516242980957,1.376343846321106
46,-0.031766027212142944,-2.4700047969818115,-0.02602672576904297,36.7146416,3.1815733,32.47,-1.07,-0.89,1.47,77,218,2.032541513442993,1.3955323696136475
47,-0.011159723624587059,-2.4697494506835938,0.007088751066476107,36.7146247,3.1815562,29.85,-1.07,-0.88,1.48,77,218,2.0315933227539062,1.388237476348877
48,-0.06208396330475807,-2.4698452949523926,-0.0019052514107897878,36.7146101,3.1815415,27.59,-1.06,-0.88,1.47,77,218,2.0277600288391113,1.3862452507019043
49,-0.010425378568470478,-2.469773530960083,0.007446973118931055,36.7145956,3.1815268,25.34,-1.06,-0.87,1.47,76,218,2.0177199840545654,1.379145622253418
50,-0.1190863624215126,-2.9636034965515137,-0.07353873550891876,36.7145758,3.1815118,22.78,-1.7,-0.37,1.25,76,190,2.146328926086426,1.7411012649536133
51,-0.21910373866558075,2.676335334777832,-0.05865033343434334,36.7145425,3.1815211,21.83,-3.27,1.49,0.03,75,153,3.6026511192321777,3.6024508476257324
52,-0.15363676846027374,2.680330991744995,0.015967266634106636,36.714482,3.1815577,21.92,-4.07,2.03,0.0,75,153,4.5573577880859375,4.5573577880859375
53,-0.06019657477736473,2.8815438747406006,0.12968522310256958,36.7144284,3.1815871,21.87,-3.72,0.96,0.05,75,165,3.842888593673706,3.842487335205078
54,-0.3488755226135254,-2.219846248626709,0.10491467267274857,36.7143776,3.1815673,21.85,-2.96,-3.37,0.02,74,232,4.494253635406494,4.494208335876465
55,-0.504569947719574,-2.1411314010620117,0.007649811916053295,36.714331,3.181482,21.85,-4.03,-6.43,0.01,74,237,7.5976481437683105,7.597637176513672
56,-0.43535780906677246,-2.1479687690734863,-0.019020194187760353,36.7142591,3.1813401,21.86,-4.92,-7.7,0.0,73,236,9.142672538757324,9.142671585083008
57,-0.37232404947280884,-2.1509323120117188,-0.01182737946510315,36.7141926,3.1812113,21.88,-4.76,-7.36,0.0,73,236,8.774110794067383,8.7741060256958
58,-0.22859381139278412,-2.146244764328003,0.03920704871416092,36.7141336,3.181097,21.88,-3.91,-6.13,0.02,73,237,7.281052589416504,7.280996322631836
59,-0.2970697283744812,-2.1164863109588623,0.00927649810910225,36.714077,3.1809825,21.85,-3.34,-5.65,0.01,72,238,6.5733256340026855,6.573313236236572
60,-0.26029545068740845,-2.1000943183898926,0.03272800147533417,36.7140329,3.1808876,21.85,-3.22,-5.64,0.0,72,239,6.498450756072998,6.498448848724365
61,-0.19718502461910248,-2.10017991065979,0.005283650476485491,36.7139824,3.1807774,21.85,-3.04,-5.34,0.0,71,239,6.145972728729248,6.14597225189209
62,0.14262503385543823,-2.101350784301758,-0.004031909629702568,36.7139479,3.1807025,21.84,-1.85,-3.22,0.03,71,239,3.726057529449463,3.72584867477417
63,0.1073312908411026,-2.1006438732147217,0.02627270668745041,36.7139333,3.1806705,21.84,-0.17,-0.33,-0.02,71,239,0.3808079957962036,0.38016465306282043
64,0.0013454873114824295,-2.100896120071411,0.00982704944908619,36.7139338,3.1806712,21.82,0.15,0.12,0.03,70,239,0.20343604683876038,0.19961953163146973
