timestamp,pitch,yaw,roll,lat,lon,alt,velocity_x,velocity_y,velocity_z,battery,heading,airspeed,groundspeed
0,0.020244762301445007,0.020921019837260246,0.02517639473080635,36.7156067,3.18463,20.25,-0.03,0.02,0.03,96,1,0.05793655663728714,0.043477676808834076
1,-0.08727604150772095,0.020748520269989967,0.07583873718976974,36.7156079,3.1846326,20.21,0.32,0.57,0.0,95,1,0.6644185185432434,0.6643537878990173
2,-0.18232014775276184,1.4414721727371216,-0.10025273263454437,36.7156199,3.1846558,20.19,1.53,2.4,-0.02,95,82,2.8469078540802,2.8467729091644287
3,-0.14652059972286224,0.9502800703048706,0.023903848603367805,36.7156515,3.1847169,20.23,2.26,3.52,-0.03,95,54,4.192800045013428,4.192630767822266
4,0.007999462075531483,0.9726786613464355,-0.023077640682458878,36.7156823,3.1847755,20.25,2.02,3.08,-0.02,94,55,3.6946096420288086,3.694549560546875
5,0.37212926149368286,1.1462427377700806,0.05365249514579773,36.7156968,3.1848024,20.25,-0.72,-1.03,0.0,94,65,1.2585327625274658,1.258525013923645
6,-0.07840851694345474,2.8381121158599854,0.19204501807689667,36.7156749,3.1847628,20.28,-2.2,-3.13,-0.03,93,162,3.8345887660980225,3.834470272064209
7,-0.0849052220582962,-1.9725487232208252,-0.014798318035900593,36.7156444,3.1847068,20.27,-2.2,-3.27,0.0,93,246,3.9448206424713135,3.944819688796997
8,-0.023607676848769188,-1.5457996129989624,0.2507286071777344,36.715623,3.1846444,20.26,0.07,-2.86,0.0,93,271,2.870542526245117,2.8705391883850098
9,-0.42625191807746887,-0.656375527381897,0.06428124755620956,36.7156498,3.1845967,20.25,3.88,-3.08,0.0,92,322,4.957499980926514,4.957498550415039
10,-0.47853922843933105,-0.6237392425537109,0.00899029802531004,36.7157372,3.1845195,20.26,6.91,-4.79,-0.01,92,324,8.41280746459961,8.412797927856445
11,-0.5037137866020203,-0.615782618522644,-0.03097560815513134,36.715839,3.1844316,20.28,7.87,-5.49,0.0,91,324,9.602667808532715,9.602666854858398
12,-0.35568398237228394,-0.6195957064628601,0.024592647328972816,36.7159625,3.1843232,20.31,7.48,-5.3,-0.01,91,324,9.174917221069336,9.174898147583008
13,-0.05037831887602806,-0.6234341859817505,-0.04767848923802376,36.7160527,3.1842438,20.33,5.42,-3.88,0.04,91,324,6.676433563232422,6.676259994506836
14,0.057667363435029984,-1.0725773572921753,-0.23082663118839264,36.7161028,3.1841891,20.42,1.53,-2.89,-0.2,90,298,3.2848870754241943,3.2784924507141113
15,-0.4306655526161194,-2.128939628601074,-0.07648781687021255,36.7160886,3.1841224,21.42,-3.0,-4.48,-0.92,90,238,5.478480339050293,5.399722576141357
16,-0.46415600180625916,-2.160923480987549,0.03549785166978836,36.7160335,3.184026,23.26,-4.81,-6.97,-1.44,89,236,8.59849739074707,8.475984573364258
17,-0.43083488941192627,-2.162773370742798,-0.02312600053846836,36.7159617,3.1838964,25.64,-5.51,-8.0,-1.61,89,236,9.858997344970703,9.725443840026855
18,-0.48142653703689575,-2.1659157276153564,0.027930162847042084,36.7158738,3.1837357,28.53,-5.51,-8.16,-1.57,88,235,9.979375839233398,9.853838920593262
19,-0.44017454981803894,-2.1625943183898926,0.032195258885622025,36.7157992,3.1835968,31.0,-5.53,-8.24,-1.58,88,236,10.057655334472656,9.931853294372559
20,-0.48268380761146545,-2.165543556213379,-0.015378078445792198,36.7157115,3.1834339,33.88,-5.56,-8.28,-1.59,88,235,10.105528831481934,9.978387832641602
21,-0.46916383504867554,-2.163675308227539,0.03594864159822464,36.7156366,3.1832943,36.37,-5.48,-8.26,-1.61,87,236,10.049542427062988,9.919560432434082
22,-0.42818325757980347,-2.1624858379364014,0.010101457126438618,36.7155621,3.1831548,38.87,-5.52,-8.27,-1.61,87,236,10.08059024810791,9.950754165649414
23,-0.488002210855484,-2.16388201713562,-0.003276293398812413,36.7154746,3.1829918,41.78,-5.52,-8.29,-1.61,86,236,10.099041938781738,9.968744277954102
24,-0.46013474464416504,-2.162283420562744,0.03230852633714676,36.7154,3.1828519,44.28,-5.49,-8.29,-1.63,86,236,10.078347206115723,9.945230484008789
25,-0.46025222539901733,-2.1664838790893555,-0.025402067229151726,36.715313,3.1826891,47.2,-5.53,-8.27,-1.62,85,235,10.091020584106445,9.95968246459961
26,-0.49807706475257874,-2.164072036743164,-0.00365041708573699,36.7152381,3.1825491,49.71,-5.52,-8.31,-1.62,85,236,10.112298965454102,9.9811429977417
27,-0.4177679121494293,-2.1641440391540527,-0.0007114034960977733,36.7151507,3.1823854,52.62,-5.51,-8.28,-1.63,84,236,10.085395812988281,9.95138931274414
28,-0.45112165808677673,-2.1653597354888916,-0.032816797494888306,36.7150761,3.1822461,55.13,-5.5,-8.27,-1.63,84,235,10.068524360656738,9.935355186462402
29,-0.29881471395492554,-2.1678214073181152,0.019088493660092354,36.7150045,3.1821129,57.54,-4.87,-7.28,-1.45,83,235,8.879603385925293,8.760159492492676
30,-0.05191153287887573,-2.161789894104004,-0.019918441772460938,36.7149417,3.1819959,59.53,-3.0,-4.55,-0.7,83,236,5.497344017028809,5.4521260261535645
31,-0.15181028842926025,-2.121093988418579,0.04103507846593857,36.7149081,3.1819293,60.17,-2.18,-3.69,-0.18,83,238,4.298492908477783,4.294488906860352
32,-0.12831255793571472,-2.101983070373535,-0.013610069639980793,36.7148798,3.1818682,60.24,-2.07,-3.68,-0.01,82,239,4.225450038909912,4.225436687469482
33,0.0018852453213185072,-2.103106737136841,0.021472251042723656,36.714848,3.1817988,60.23,-1.78,-3.12,0.02,82,239,3.602166175842285,3.6020612716674805
34,0.013715280219912529,-2.2762627601623535,-0.07552872598171234,36.7148282,3.1817598,59.57,-1.23,-1.52,0.99,82,229,2.2011425495147705,1.9638415575027466
35,-0.009033167734742165,-2.4777073860168457,-0.004049824085086584,36.7148105,3.1817399,57.04,-1.02,-0.78,1.44,81,218,1.9406167268753052,1.2919899225234985
36,-0.06642570346593857,-2.472069025039673,0.006968042813241482,36.7147966,3.1817269,54.8,-1.03,-0.83,1.41,81,218,1.944994330406189,1.331558346748352
37,-0.0324004627764225,-2.4700663089752197,-0.022744374349713326,36.7147799,3.1817104,52.19,-1.07,-0.88,1.43,81,218,1.9964529275894165,1.3865622282028198
38,-0.043335773050785065,-2.4699084758758545,0.027122294530272484,36.7147654,3.1816957,49.95,-1.07,-0.87,1.43,80,218,1.9960243701934814,1.3857945203781128
39,-0.024272821843624115,-2.469588279724121,-0.02353019267320633,36.7147508,3.1816812,47.7,-1.07,-0.87,1.44,80,218,1.9991114139556885,1.3839247226715088
40,-0.011674723587930202,-2.469132423400879,0.015703516080975533,36.7147338,3.1816641,45.09,-1.06,-0.87,1.45,79,218,2.005317211151123,1.3770380020141602
41,-0.05542251095175743,-2.469484806060791,-0.014908860437572002,36.7147193,3.1816495,42.85,-1.07,-0.88,1.46,79,218,2.021271228790283,1.3926764726638794
42,-0.012811788357794285,-2.470176935195923,-0.016402630135416985,36.7147023,3.1816323,40.23,-1.07,-0.88,1.46,79,218,2.021228313446045,1.392926573753357
43,-0.05755555257201195,-2.4692203998565674,0.006934721488505602,36.7146876,3.1816175,37.99,-1.06,-0.88,1.47,78,218,2.0248844623565674,1.3898128271102905
44,-0.009577310644090176,-2.469677686691284,-0.011186542920768261,36.714673,3.1816028,35.74,-1.06,-0.87,1.47,78,218,2.019937753677368,1.3792155981063843
45,-0.028934109956026077,-2.469336986541748,0.029263775795698166,36.714656,3.1815857,33.11,-1.05,-0.88,1.47,78,218,2.0181217193603516,1.3782044649124146
46,-0.03722900152206421,-2.469852924346924,-0.025623522698879242,36.7146415,3.181571,30.86,-1.06,-0.88,1.47,77,218,2.0260653495788574,1.387252926826477
47,-0.006563788279891014,-2.4696311950683594,0.005335289053618908,36.7146245,3.1815537,28.24,-1.06,-0.87,1.47,77,218,2.0198137760162354,1.3782490491867065
48,-0.05927948281168938,-2.4693963527679443,-0.007538326550275087,36.7146099,3.181539,25.98,-1.06,-0.87,1.47,77,218,2.0198094844818115,1.3830631971359253
49,-0.008613965474069118,-2.4691898822784424,0.011933581903576851,36.7145953,3.1815244,23.73,-1.06,-0.88,1.47,76,218,2.016900062561035,1.3800948858261108
50,-0.12312693148851395,-2.978334665298462,-0.0770483911037445,36.7145754,3.1815095,21.18,-1.71,-0.34,1.23,76,189,2.147296667098999,1.7537000179290771
51,-0.22167836129665375,2.6757853031158447,-0.05649283528327942,36.7145421,3.1815189,20.24,-3.29,1.52,0.01,75,153,3.6319785118103027,3.6319286823272705
52,-0.1608138084411621,2.680023193359375,0.02422752045094967,36.7144812,3.181556,20.35,-4.07,2.04,0.0,75,153,4.560510158538818,4.5605058670043945
53,-0.042267341166734695,2.891061305999756,0.12832362949848175,36.7144273,3.1815854,20.31,-3.67,0.93,0.05,75,165,3.7931385040283203,3.792680025100708
54,-0.3441549837589264,-2.2160074710845947,0.11631926894187927,36.7143769,3.1815643,20.28,-2.95,-3.45,0.01,74,233,4.55025053024292,4.550212860107422
55,-0.5148945450782776,-2.140488386154175,-0.011714129708707333,36.7143307,3.181479,20.28,-4.06,-6.48,0.01,74,237,7.655686855316162,7.655671119689941
56,-0.47668424248695374,-2.1459901332855225,0.025241263210773468,36.7142692,3.1813572,20.29,-4.87,-7.65,0.0,73,237,9.076658248901367,9.07665729522705
57,-0.35470545291900635,-2.1529808044433594,-0.025113413110375404,36.7141914,3.1812068,20.31,-4.73,-7.27,0.0,73,236,8.685571670532227,8.68557071685791
58,-0.2445891946554184,-2.147897958755493,0.043293848633766174,36.7141326,3.1810934,20.31,-3.89,-6.12,0.03,73,236,7.259461402893066,7.259390354156494
59,-0.28706011176109314,-2.1149063110351562,-0.011814418248832226,36.7140766,3.1809793,20.29,-3.34,-5.69,0.01,72,238,6.607784748077393,6.607754707336426
60,-0.2880127429962158,-2.1007862091064453,0.038635898381471634,36.7140323,3.1808841,20.29,-3.23,-5.66,0.01,72,239,6.523731231689453,6.5237135887146
61,-0.19303005933761597,-2.100477457046509,-0.022142870351672173,36.7139888,3.1807891,20.29,-3.13,-5.49,0.0,71,239,6.324939250946045,6.3249382972717285
62,0.1447405070066452,-2.1008827686309814,0.020621687173843384,36.7139474,3.1806991,20.27,-1.81,-3.18,0.04,71,239,3.6633999347686768,3.6631431579589844
63,0.11178053170442581,-2.10044002532959,-0.024554766714572906,36.7139338,3.1806692,20.27,-0.31,-0.54,-0.01,71,239,0.6313778162002563,0.6310636401176453
64,0.02136734127998352,-2.0996029376983643,0.03130672872066498,36.713934,3.1806692,20.25,0.14,0.1,0.04,70,239,0.18440108001232147,0.17995741963386536
