timestamp,pitch,yaw,roll,lat,lon,alt,velocity_x,velocity_y,velocity_z,battery,heading,airspeed,groundspeed
0,0.027106188237667084,-0.04573480039834976,-0.012280384078621864,36.7156065,3.1846299,22.44,-0.02,0.02,-0.12,96,357,0.12705843150615692,0.035013239830732346
1,-0.044027719646692276,-0.04030067101120949,0.12296462059020996,36.7156079,3.1846326,22.45,0.33,0.56,-0.04,95,357,0.6629072427749634,0.6612326502799988
2,-0.22922006249427795,1.4816220998764038,-0.12114476412534714,36.7156197,3.1846555,22.48,1.52,2.33,-0.04,95,84,2.7912116050720215,2.790877103805542
3,-0.1701800525188446,0.8843888640403748,-0.016616394743323326,36.7156514,3.1847149,22.49,2.27,3.47,-0.01,95,50,4.152122974395752,4.15210485458374
4,0.00934950727969408,0.9545862078666687,0.03235134482383728,36.7156822,3.1847721,22.47,2.02,3.03,0.0,94,54,3.6490979194641113,3.649097442626953
5,0.3289760947227478,1.0545899868011475,0.04461485892534256,36.7156969,3.1847984,22.49,-0.71,-1.03,-0.02,94,60,1.2597063779830933,1.2595142126083374
6,-0.022037828341126442,2.8113317489624023,0.15804864466190338,36.7156751,3.1847588,22.47,-2.19,-3.12,0.05,93,161,3.8133437633514404,3.8129842281341553
7,-0.1421871930360794,-2.001103639602661,0.010918019339442253,36.7156447,3.1847031,22.5,-2.21,-3.25,-0.03,93,245,3.941049575805664,3.940916061401367
8,-0.06580493599176407,-1.5818743705749512,0.22419534623622894,36.715623,3.1846407,22.46,0.05,-2.88,0.01,93,269,2.8861849308013916,2.8861160278320312
9,-0.36862578988075256,-0.656344473361969,0.0960569903254509,36.7156493,3.1845929,22.46,3.84,-3.08,0.0,92,322,4.925601959228516,4.925597667694092
10,-0.5401526689529419,-0.6260432600975037,0.019472777843475342,36.7157365,3.184516,22.46,6.92,-4.78,0.0,92,324,8.412549018859863,8.412543296813965
11,-0.47508999705314636,-0.6173619627952576,0.025073528289794922,36.7158383,3.184428,22.48,7.85,-5.48,-0.01,91,324,9.584464073181152,9.584457397460938
12,-0.3857848644256592,-0.6198771595954895,-0.018918007612228394,36.7159449,3.1843347,22.5,7.68,-5.43,-0.01,91,324,9.406756401062012,9.406739234924316
13,-0.06624344736337662,-0.623602569103241,0.014024388045072556,36.7160519,3.1842402,22.53,5.44,-3.89,0.04,91,324,6.698005676269531,6.697841644287109
14,0.04681536182761192,-1.063750982284546,-0.2833184003829956,36.7161022,3.1841854,22.61,1.59,-2.88,-0.2,90,299,3.3013107776641846,3.295092821121216
15,-0.3580051362514496,-2.132248878479004,-0.0627627894282341,36.716089,3.1841186,23.62,-2.97,-4.47,-0.92,90,237,5.450186729431152,5.371105194091797
16,-0.5011870265007019,-2.1625335216522217,-0.020957576110959053,36.7160341,3.1840224,25.46,-4.85,-6.95,-1.43,89,236,8.608206748962402,8.487488746643066
17,-0.48321282863616943,-2.1636178493499756,0.021191710606217384,36.7159621,3.1838933,27.84,-5.49,-8.01,-1.61,89,236,9.852645874023438,9.719970703125
18,-0.4383655786514282,-2.1643412113189697,-0.020778093487024307,36.7158744,3.1837328,30.71,-5.52,-8.19,-1.58,88,236,10.014669418334961,9.888964653015137
19,-0.4919528067111969,-2.1618385314941406,-0.021760499104857445,36.7157994,3.1835933,33.18,-5.54,-8.27,-1.57,88,236,10.084955215454102,9.960460662841797
20,-0.43048545718193054,-2.166001081466675,0.025295330211520195,36.7157119,3.1834308,36.07,-5.52,-8.24,-1.59,87,235,10.052444458007812,9.924450874328613
21,-0.4444601535797119,-2.165135145187378,-0.020624451339244843,36.715637,3.1832911,38.55,-5.51,-8.29,-1.61,87,235,10.08636474609375,9.956525802612305
22,-0.4937334358692169,-2.163872718811035,0.0009325696737505496,36.7155625,3.1831515,41.05,-5.5,-8.25,-1.61,87,236,10.052644729614258,9.921871185302734
23,-0.4267706274986267,-2.163015127182007,0.005899110808968544,36.7154754,3.182989,43.96,-5.53,-8.31,-1.62,86,236,10.123428344726562,9.991961479187012
24,-0.45608240365982056,-2.162933111190796,-0.03431173413991928,36.7154004,3.1828487,46.46,-5.51,-8.29,-1.63,86,236,10.092560768127441,9.959626197814941
25,-0.4558738172054291,-2.1666486263275146,0.044119641184806824,36.7153133,3.1826859,49.38,-5.51,-8.26,-1.63,85,235,10.070045471191406,9.936352729797363
26,-0.42943045496940613,-2.163780927658081,0.0013534744502976537,36.7152387,3.1825462,51.88,-5.52,-8.3,-1.63,85,236,10.110541343688965,9.977458000183105
27,-0.48984599113464355,-2.164018154144287,0.012908906675875187,36.7151515,3.1823827,54.8,-5.51,-8.29,-1.63,84,236,10.092016220092773,9.958091735839844
28,-0.44475725293159485,-2.1644089221954346,0.03531762957572937,36.7150765,3.182243,57.31,-5.51,-8.28,-1.64,84,235,10.084356307983398,9.950094223022461
29,-0.26218241453170776,-2.1683247089385986,-0.022150572389364243,36.7150049,3.1821098,59.73,-4.88,-7.26,-1.44,83,235,8.87091064453125,8.751879692077637
30,-0.0648772343993187,-2.162074327468872,0.03477679565548897,36.7149423,3.1819928,61.73,-3.01,-4.58,-0.7,83,236,5.529383659362793,5.4836578369140625
31,-0.13738425076007843,-2.1204516887664795,-0.014820830896496773,36.7149084,3.1819256,62.37,-2.21,-3.71,-0.18,83,238,4.324491024017334,4.320433616638184
32,-0.12905187904834747,-2.10117244720459,0.01259045209735632,36.7148753,3.1818542,62.44,-2.08,-3.68,-0.01,82,239,4.234787464141846,4.234775066375732
33,-0.03567582741379738,-2.1024420261383057,-0.01797907054424286,36.7148481,3.1817949,62.43,-1.77,-3.13,0.02,82,239,3.60646390914917,3.606398582458496
34,0.03336866945028305,-2.274289131164551,-0.029608463868498802,36.7148283,3.1817559,61.79,-1.22,-1.53,0.98,82,229,2.1970839500427246,1.9641937017440796
35,-0.05996261537075043,-2.4785573482513428,0.014073456637561321,36.7148107,3.1817359,59.27,-1.03,-0.79,1.45,81,217,1.9530589580535889,1.3040088415145874
36,-0.012554880231618881,-2.4724228382110596,-0.011657004244625568,36.7147967,3.1817227,57.03,-1.05,-0.82,1.42,81,218,1.9510871171951294,1.3378690481185913
37,-0.029823709279298782,-2.4702250957489014,0.02943347953259945,36.71478,3.1817063,54.42,-1.06,-0.87,1.44,80,218,1.993583083152771,1.3767119646072388
38,-0.03917748108506203,-2.4700911045074463,-0.02696807123720646,36.7147655,3.1816918,52.18,-1.07,-0.87,1.44,80,218,2.0036633014678955,1.385073184967041
39,-0.04125344380736351,-2.4697036743164062,0.02938404120504856,36.714751,3.1816773,49.93,-1.06,-0.88,1.44,80,218,2.004028797149658,1.3834729194641113
40,-0.06310995668172836,-2.469806432723999,-0.004089856054633856,36.714734,3.1816601,47.32,-1.06,-0.88,1.46,79,218,2.015679359436035,1.3865711688995361
41,-0.00999304186552763,-2.46952486038208,0.012711180374026299,36.7147193,3.1816454,45.07,-1.07,-0.88,1.46,79,218,2.0196707248687744,1.3889844417572021
42,-0.04913552105426788,-2.4703686237335205,0.02573441155254841,36.7147023,3.1816284,42.44,-1.06,-0.89,1.46,79,218,2.020468235015869,1.391666293144226
43,-0.013672982342541218,-2.4695165157318115,-0.0160206388682127,36.7146877,3.1816136,40.2,-1.05,-0.88,1.47,78,218,2.0190114974975586,1.3825968503952026
44,-0.05487070977687836,-2.470113754272461,0.021321969106793404,36.7146732,3.1815989,37.96,-1.05,-0.88,1.47,78,218,2.0205211639404297,1.3771559000015259
45,-0.05121562257409096,-2.4695892333984375,-0.02055969648063183,36.7146562,3.1815817,35.33,-1.07,-0.88,1.47,78,218,2.024707078933716,1.3909491300582886
46,-0.020133046433329582,-2.4699668884277344,0.025166122242808342,36.7146416,3.181567,33.08,-1.06,-0.88,1.47,77,218,2.0232129096984863,1.3859986066818237
47,-0.06128264591097832,-2.469956874847412,0.010197838768362999,36.7146245,3.1815498,30.46,-1.06,-0.88,1.48,77,218,2.027550458908081,1.3846783638000488
48,-0.009777402505278587,-2.469696521759033,-0.0008399562211707234,36.71461,3.1815352,28.21,-1.06,-0.87,1.47,76,218,2.019993543624878,1.3775169849395752
49,-0.06271930783987045,-2.4701945781707764,0.0065392618998885155,36.7145955,3.1815205,25.95,-1.06,-0.88,1.47,76,218,2.020900249481201,1.3849297761917114
50,-0.10959212481975555,-2.971376895904541,-0.13298696279525757,36.7145757,3.1815055,23.4,-1.71,-0.35,1.24,76,189,2.1497445106506348,1.7511889934539795
51,-0.23498782515525818,2.6761820316314697,-0.003660863032564521,36.7145422,3.181515,22.45,-3.28,1.51,0.02,75,153,3.6182475090026855,3.6181259155273438
52,-0.196726992726326,2.6801998615264893,-0.021016685292124748,36.7144817,3.1815518,22.55,-4.08,2.03,0.0,75,153,4.559466361999512,4.559465408325195
53,-0.008761909790337086,2.894160270690918,0.17129062116146088,36.7144278,3.1815811,22.5,-3.68,0.94,0.05,75,165,3.801030158996582,3.8006036281585693
54,-0.3600533604621887,-2.3176159858703613,0.15185484290122986,36.7143838,3.1815689,22.48,-2.93,-2.78,0.02,74,227,4.042517185211182,4.042439937591553
55,-0.45100656151771545,-2.1401727199554443,-0.004894312471151352,36.7143309,3.1814753,22.48,-4.06,-6.46,0.01,74,237,7.637903690338135,7.637894153594971
56,-0.4871630072593689,-2.1466047763824463,-0.032853566110134125,36.7142694,3.181354,22.49,-4.88,-7.65,0.0,73,237,9.07905387878418,9.07905387878418
57,-0.316440612077713,-2.151123046875,0.011531106196343899,36.7141917,3.1812034,22.51,-4.72,-7.3,0.0,73,236,8.700210571289062,8.70020580291748
58,-0.244746133685112,-2.1465909481048584,-0.014144723303616047,36.7141329,3.1810896,22.51,-3.91,-6.15,0.03,73,237,7.293065547943115,7.292997360229492
59,-0.24053581058979034,-2.115478992462158,0.025179455056786537,36.7140766,3.1809755,22.48,-3.36,-5.67,0.01,72,238,6.593825817108154,6.593806266784668
60,-0.29521074891090393,-2.10030198097229,-0.019712796434760094,36.7140324,3.1808803,22.49,-3.22,-5.64,0.01,72,239,6.495860576629639,6.495851516723633
61,-0.20139732956886292,-2.100040912628174,0.02840852364897728,36.713989,3.1807855,22.49,-3.12,-5.49,0.0,71,239,6.316230773925781,6.316230773925781
62,0.0944359228014946,-2.100973606109619,-0.0029169770423322916,36.7139476,3.1806956,22.47,-1.83,-3.21,0.04,71,239,3.703010320663452,3.7027781009674072
63,0.15699303150177002,-2.100517749786377,0.007414772640913725,36.7139338,3.1806653,22.46,-0.32,-0.56,-0.02,71,239,0.6550624966621399,0.6546992063522339
64,-0.014223900623619556,-2.101619243621826,0.07026463747024536,36.713934,3.1806652,22.45,0.15,0.11,0.04,70,239,0.19984833896160126,0.19580017030239105
