timestamp,pitch,yaw,roll,lat,lon,alt,velocity_x,velocity_y,velocity_z,battery,heading,airspeed,groundspeed
0,-0.021252786740660667,-0.029058443382382393,-0.01349722407758236,36.7156067,3.1846299,17.14,-0.02,0.03,-0.04,96,358,0.061296094208955765,0.04212078079581261
1,-0.04808744788169861,-0.013979832641780376,0.12289483100175858,36.715608,3.1846326,17.2,0.37,0.59,0.0,95,359,0.7044657468795776,0.704416036605835
2,-0.17640113830566406,1.4160990715026855,-0.07323429733514786,36.7156255,3.1846636,17.16,1.91,2.64,-0.02,95,81,3.268911361694336,3.268805980682373
3,-0.1701585352420807,0.9161533117294312,-0.016067540273070335,36.7156559,3.1847157,17.19,2.38,3.32,-0.02,95,52,4.095697402954102,4.0956292152404785
4,0.07063081115484238,0.9245765805244446,0.028025541454553604,36.7156876,3.1847696,17.2,1.97,2.69,0.0,94,52,3.34517240524292,3.3451647758483887
5,0.27472415566444397,0.4463425874710083,-0.1349269151687622,36.7156985,3.1847857,17.18,-1.03,-1.55,0.0,94,25,1.8681138753890991,1.8681074380874634
6,-0.06180974096059799,-1.2054733037948608,-0.15101784467697144,36.7156741,3.1847412,17.22,-2.24,-3.26,-0.01,93,290,3.962531089782715,3.962491989135742
7,-0.09897905588150024,-2.4137210845947266,0.09069972485303879,36.7156437,3.1846854,17.21,-2.13,-3.26,0.01,93,221,3.898838758468628,3.89882230758667
8,-0.11904815584421158,-1.415718674659729,0.24704718589782715,36.715627,3.184624,17.19,0.58,-2.8,0.01,93,278,2.863447427749634,2.8634116649627686
9,-0.39378172159194946,-0.65775066614151,0.08564089983701706,36.715661,3.1845753,17.19,4.34,-3.24,0.0,92,322,5.426786422729492,5.426785469055176
10,-0.5128570795059204,-0.6244215965270996,-0.02182251587510109,36.7157386,3.1845078,17.19,6.86,-4.77,0.0,92,324,8.36149787902832,8.361494064331055
11,-0.4766862690448761,-0.619396448135376,0.03234130144119263,36.7158574,3.1844047,17.21,7.87,-5.54,0.0,91,324,9.632901191711426,9.63290023803711
12,-0.34868869185447693,-0.6203911304473877,-0.020361553877592087,36.7159804,3.1842965,17.25,7.3,-5.16,-0.01,91,324,8.945754051208496,8.9457426071167
13,-0.027413547039031982,-0.6302714347839355,-0.01947728544473648,36.7160661,3.1842209,17.26,4.95,-3.61,0.05,91,323,6.134462356567383,6.134236812591553
14,-0.013943026773631573,-1.2548760175704956,-0.3097650408744812,36.7161082,3.1841686,17.41,0.9,-2.89,-0.27,90,288,3.0443050861358643,3.0315821170806885
15,-0.3897251486778259,-2.1418159008026123,-0.028218133375048637,36.7160857,3.1840977,18.57,-3.37,-4.81,-1.01,90,237,5.971009731292725,5.884456634521484
16,-0.4803999066352844,-2.161450147628784,-0.02571646310389042,36.7160269,3.1839948,20.51,-4.98,-7.19,-1.48,89,236,8.882925987243652,8.75744342803955
17,-0.45448294281959534,-2.1647121906280518,0.043744053691625595,36.7159419,3.1838409,23.36,-5.49,-8.05,-1.59,89,235,9.880437850952148,9.750877380371094
18,-0.4286190867424011,-2.1631357669830322,-0.005902981851249933,36.7158668,3.1837025,25.81,-5.56,-8.21,-1.57,88,236,10.047381401062012,9.923381805419922
19,-0.45808878540992737,-2.1643686294555664,-0.036270733922719955,36.7157913,3.1835629,28.27,-5.56,-8.23,-1.58,88,236,10.063642501831055,9.937826156616211
20,-0.45012933015823364,-2.165415048599243,0.04136083275079727,36.7157039,3.1834005,31.17,-5.5,-8.25,-1.6,88,235,10.055276870727539,9.927135467529297
21,-0.4263864755630493,-2.1645452976226807,0.0039025316946208477,36.7156295,3.1832613,33.65,-5.52,-8.3,-1.6,87,235,10.10515308380127,9.976781845092773
22,-0.48653391003608704,-2.1634066104888916,0.009993428364396095,36.7155422,3.1830981,36.56,-5.51,-8.28,-1.61,87,236,10.080101013183594,9.950024604797363
23,-0.4432823061943054,-2.1641852855682373,0.037543632090091705,36.7154674,3.1829585,39.07,-5.51,-8.26,-1.62,86,236,10.069616317749023,9.937828063964844
24,-0.4303608238697052,-2.167081832885742,-0.0037420671433210373,36.7153927,3.1828191,41.57,-5.53,-8.31,-1.61,86,235,10.119685173034668,9.989295959472656
25,-0.4855261445045471,-2.165071725845337,0.021409962326288223,36.7153055,3.1826555,44.48,-5.49,-8.32,-1.63,85,235,10.109770774841309,9.977293014526367
26,-0.44154343008995056,-2.1621201038360596,0.03820529207587242,36.7152309,3.1825155,46.99,-5.5,-8.26,-1.63,85,236,10.063360214233398,9.929962158203125
27,-0.4800800681114197,-2.1649088859558105,-0.02355332113802433,36.7151437,3.182353,49.91,-5.53,-8.31,-1.62,84,235,10.122926712036133,9.991485595703125
28,-0.4654878079891205,-2.164773941040039,0.015239686705172062,36.7150687,3.1822129,52.41,-5.49,-8.27,-1.62,84,235,10.066446304321289,9.934005737304688
29,-0.20609281957149506,-2.167588710784912,0.016066940501332283,36.7149983,3.1820819,54.77,-4.65,-6.94,-1.4,84,235,8.474581718444824,8.358050346374512
30,-0.09345993399620056,-2.158557653427124,0.016273874789476395,36.7149397,3.1819721,56.61,-2.81,-4.32,-0.61,83,236,5.192715644836426,5.156263828277588
31,-0.1117284744977951,-2.115215301513672,0.012295985594391823,36.7149074,3.1819072,57.13,-2.17,-3.71,-0.13,83,238,4.30896520614624,4.306848526000977
32,-0.16908875107765198,-2.1025469303131104,0.02941812388598919,36.7148743,3.1818356,57.17,-2.09,-3.69,-0.01,82,239,4.248615741729736,4.248574733734131
33,0.02248368225991726,-2.1058199405670166,-0.029975976794958115,36.7148478,3.1817781,57.14,-1.67,-2.9,0.08,82,239,3.3541274070739746,3.3530032634735107
34,0.002004054142162204,-2.328415870666504,-0.031873393803834915,36.7148291,3.181743,56.27,-1.2,-1.38,1.16,82,226,2.176159143447876,1.8351891040802002
35,-0.03623899817466736,-2.4688074588775635,-0.024926139041781425,36.7148118,3.1817244,53.66,-1.03,-0.79,1.43,81,218,1.9413844347000122,1.3068352937698364
36,-0.02996179461479187,-2.470433235168457,0.03121488355100155,36.7147977,3.1817113,51.42,-1.04,-0.83,1.42,81,218,1.9504973888397217,1.33601713180542
37,-0.06132905185222626,-2.469575881958008,0.00024261686485260725,36.7147811,3.1816948,48.8,-1.06,-0.88,1.42,81,218,1.9875153303146362,1.3835265636444092
38,-0.008460355922579765,-2.469663143157959,0.010512451641261578,36.7147665,3.1816801,46.57,-1.07,-0.88,1.44,80,218,2.003452777862549,1.3901844024658203
39,-0.060877468436956406,-2.46943998336792,-0.009638859890401363,36.714752,3.1816655,44.32,-1.06,-0.87,1.45,80,218,2.004305124282837,1.3830268383026123
40,-0.0183576513081789,-2.469778299331665,-0.02082134783267975,36.714735,3.1816485,41.7,-1.06,-0.88,1.45,79,218,2.010451555252075,1.3882472515106201
41,-0.05576065927743912,-2.4698166847229004,0.020955676212906837,36.7147204,3.1816338,39.46,-1.06,-0.89,1.46,79,218,2.0177972316741943,1.3912180662155151
42,-0.049341216683387756,-2.4697442054748535,-0.02029755897819996,36.7147034,3.1816166,36.85,-1.06,-0.88,1.47,79,218,2.020789861679077,1.3835726976394653
43,-0.03781852871179581,-2.4693307876586914,0.03130198270082474,36.7146889,3.181602,34.6,-1.06,-0.88,1.47,78,218,2.023799419403076,1.3902671337127686
44,-0.037233028560876846,-2.4696078300476074,-0.024716343730688095,36.7146743,3.1815871,32.35,-1.07,-0.89,1.47,78,218,2.03141713142395,1.4020309448242188
45,-0.007853744551539421,-2.469203233718872,0.007147060241550207,36.7146571,3.18157,29.73,-1.06,-0.88,1.47,78,218,2.0267183780670166,1.3869197368621826
46,-0.061663951724767685,-2.4697177410125732,-0.006127066910266876,36.7146426,3.1815553,27.48,-1.05,-0.88,1.47,77,218,2.0198919773101807,1.3780112266540527
47,-0.02012009732425213,-2.469621181488037,-0.02001371420919895,36.7146256,3.1815382,24.85,-1.07,-0.88,1.47,77,218,2.0274007320404053,1.39100980758667
48,-0.055014077574014664,-2.4697229862213135,0.02056567370891571,36.714611,3.1815234,22.6,-1.06,-0.88,1.47,77,218,2.0219743251800537,1.3830722570419312
49,-0.05474276468157768,-2.4701380729675293,-0.026503751054406166,36.714594,3.1815062,19.97,-1.05,-0.88,1.47,76,218,2.015974283218384,1.3759355545043945
50,-0.12095627933740616,-3.128236770629883,-0.08577336370944977,36.7145753,3.1814953,17.85,-1.9,-0.11,1.08,76,180,2.1938765048980713,1.9074572324752808
51,-0.2387869656085968,2.6687469482421875,-0.04912827908992767,36.7145389,3.1815094,17.18,-3.45,1.7,-0.04,75,152,3.849453926086426,3.8492181301116943
52,-0.13216157257556915,2.672217845916748,0.01008696760982275,36.7144773,3.181548,17.29,-3.99,2.05,0.03,75,153,4.488834857940674,4.488677501678467
53,-0.056778762489557266,3.0066707134246826,0.1899370700120926,36.7144252,3.1815736,17.23,-3.5,0.45,0.05,75,172,3.533822536468506,3.5334203243255615
54,-0.38492053747177124,-2.1949048042297363,0.07813603430986404,36.7143759,3.18154,17.21,-3.06,-4.08,0.01,74,234,5.110336780548096,5.1103057861328125
55,-0.5167369842529297,-2.1552581787109375,0.012146719731390476,36.7143267,3.181446,17.21,-4.31,-6.77,0.01,74,236,8.033920288085938,8.03391170501709
56,-0.4576510488986969,-2.153681993484497,0.029741527512669563,36.7142631,3.1813222,17.22,-4.98,-7.69,0.0,73,236,9.164794921875,9.164793968200684
57,-0.3463795781135559,-2.157878875732422,-0.015205432660877705,36.7141851,3.1811731,17.25,-4.68,-7.11,0.0,73,236,8.518899917602539,8.518899917602539
58,-0.2319435328245163,-2.1483266353607178,0.04206952825188637,36.7141273,3.1810626,17.24,-3.78,-5.92,0.03,73,236,7.029224872589111,7.029130935668945
59,-0.2961019277572632,-2.112557888031006,-0.0005279288743622601,36.7140724,3.1809502,17.22,-3.29,-5.65,0.01,72,238,6.546070575714111,6.546046257019043
60,-0.2830581068992615,-2.0995802879333496,0.032464999705553055,36.7140286,3.1808555,17.22,-3.24,-5.68,0.01,72,239,6.542970657348633,6.54295539855957
61,-0.16306549310684204,-2.100447416305542,-0.023538634181022644,36.7139851,3.1807607,17.22,-3.04,-5.34,0.0,71,239,6.148824691772461,6.14882230758667
62,0.10857870429754257,-2.100672483444214,0.02691471390426159,36.7139506,3.1806857,17.2,-1.81,-3.18,0.04,71,239,3.6698620319366455,3.6695938110351562
63,0.0841178297996521,-2.100304126739502,-0.015243969857692719,36.7139365,3.1806545,17.2,-0.15,-0.3,-0.01,71,239,0.340135395526886,0.3396698534488678
64,0.012115738354623318,-2.099632978439331,0.04971294105052948,36.7139377,3.180656,17.17,0.24,0.01,0.03,70,239,0.2508118748664856,0.24845993518829346
