timestamp,pitch,yaw,roll,lat,lon,alt,velocity_x,velocity_y,velocity_z,battery,heading,airspeed,groundspeed
0,0.023034673184156418,0.023281220346689224,-0.014962787739932537,36.7156067,3.1846299,21.78,-0.02,0.02,-0.04,96,1,0.06305806338787079,0.041667524725198746
1,-0.06789524853229523,0.015483982861042023,0.11870786547660828,36.7156077,3.1846321,21.73,0.28,0.52,-0.02,95,0,0.5985362529754639,0.5977899432182312
2,-0.2085666060447693,1.4202287197113037,-0.11677491664886475,36.7156187,3.1846533,21.77,1.42,2.2,-0.04,95,81,2.627373218536377,2.626978635787964
3,-0.1330960988998413,0.915825366973877,-0.022259820252656937,36.7156486,3.1847109,21.78,2.14,3.32,-0.01,95,52,3.957249402999878,3.957205057144165
4,0.007374855224043131,0.9640253782272339,0.01569243147969246,36.7156775,3.1847654,21.78,1.9,2.87,0.0,94,55,3.453437328338623,3.4534313678741455
5,0.30938807129859924,1.1562986373901367,0.051984213292598724,36.7156895,3.184787,21.8,-0.85,-1.24,-0.02,94,66,1.5096378326416016,1.5094856023788452
6,-0.035209059715270996,2.9097158908843994,0.1723984181880951,36.7156669,3.1847458,21.78,-2.21,-3.14,0.04,93,166,3.841240644454956,3.8409245014190674
7,-0.0943567156791687,-1.908542275428772,0.0658404752612114,36.7156317,3.1846808,21.82,-2.06,-3.24,0.0,93,250,3.8430633544921875,3.8430564403533936
8,-0.07982664555311203,-1.477814793586731,0.21408306062221527,36.7156168,3.1846278,21.77,0.26,-2.87,0.01,93,275,2.88619065284729,2.886143445968628
9,-0.3859611749649048,-0.6554656624794006,0.10159685462713242,36.7156463,3.1845793,21.77,4.05,-3.14,0.0,92,322,5.130211353302002,5.130207061767578
10,-0.5047414302825928,-0.6260586380958557,-0.008823273703455925,36.7157201,3.184514,21.77,6.69,-4.65,0.0,92,324,8.159055709838867,8.159055709838867
11,-0.490691602230072,-0.6195130944252014,0.026383373886346817,36.7158377,3.1844121,21.79,7.85,-5.51,0.0,91,324,9.599841117858887,9.599837303161621
12,-0.36749932169914246,-0.623035192489624,-0.02164693921804428,36.7159608,3.1843033,21.82,7.36,-5.27,-0.02,91,324,9.058873176574707,9.05884075164795
13,-0.046922892332077026,-0.6288036108016968,-0.004290720447897911,36.7160481,3.1842258,21.83,5.2,-3.77,0.04,91,323,6.424812316894531,6.4246826171875
14,0.01685985177755356,-1.1563583612442017,-0.3018628656864166,36.7160943,3.1841719,21.95,1.22,-2.9,-0.24,90,293,3.162092447280884,3.1523239612579346
15,-0.37050676345825195,-2.1368324756622314,-0.05569007992744446,36.7160762,3.1841029,23.03,-3.16,-4.61,-0.97,90,237,5.680492877960205,5.596500396728516
16,-0.4940119683742523,-2.1604621410369873,-0.02553989179432392,36.7160192,3.1840032,24.93,-4.91,-7.05,-1.46,89,236,8.721803665161133,8.597918510437012
17,-0.44360214471817017,-2.1637909412384033,0.038757290691137314,36.7159346,3.183851,27.74,-5.55,-8.06,-1.6,89,236,9.925477981567383,9.794244766235352
18,-0.43690499663352966,-2.165830612182617,-0.024671221151947975,36.7158593,3.183713,30.2,-5.54,-8.23,-1.58,88,235,10.052800178527832,9.92679500579834
19,-0.4975259304046631,-2.164602518081665,-0.01003270223736763,36.7157843,3.1835737,32.67,-5.5,-8.24,-1.58,88,235,10.040521621704102,9.915253639221191
20,-0.4226243793964386,-2.162214994430542,0.012263101525604725,36.7156969,3.1834103,35.56,-5.51,-8.23,-1.6,87,236,10.037686347961426,9.908553123474121
21,-0.44635531306266785,-2.1640172004699707,-0.027835680171847343,36.7156221,3.183271,38.03,-5.55,-8.27,-1.62,87,236,10.099432945251465,9.968114852905273
22,-0.4525650143623352,-2.163912534713745,0.034973595291376114,36.7155348,3.1831082,40.95,-5.51,-8.27,-1.63,87,236,10.07231616973877,9.93945026397705
23,-0.44772085547447205,-2.164825201034546,0.034589704126119614,36.7154727,3.1829923,43.04,-5.49,-8.26,-1.62,86,235,10.057004928588867,9.924830436706543
24,-0.474813848733902,-2.1636335849761963,-0.026922931894659996,36.7153856,3.1828289,45.95,-5.51,-8.29,-1.63,86,236,10.092676162719727,9.9599609375
25,-0.43396666646003723,-2.165187358856201,0.032992567867040634,36.7152982,3.1826654,48.86,-5.53,-8.29,-1.64,85,235,10.105581283569336,9.97107982635498
26,-0.4342705309391022,-2.1646857261657715,-0.024674970656633377,36.7152235,3.182526,51.37,-5.53,-8.29,-1.63,85,235,10.099288940429688,9.96560287475586
27,-0.47315433621406555,-2.1648054122924805,0.037980809807777405,36.7151363,3.182363,54.29,-5.51,-8.32,-1.64,84,235,10.120849609375,9.986713409423828
28,-0.4184487760066986,-2.164632797241211,0.016952089965343475,36.7150616,3.1822231,56.8,-5.49,-8.26,-1.63,84,235,10.062213897705078,9.928470611572266
29,-0.261703222990036,-2.1682684421539307,-0.02531106024980545,36.7149904,3.1820906,59.2,-4.79,-7.09,-1.42,83,235,8.68269157409668,8.564661979675293
30,-0.04113380238413811,-2.158194065093994,0.03212136775255203,36.7149299,3.1819775,61.11,-2.91,-4.45,-0.66,83,236,5.362517833709717,5.321254253387451
31,-0.16194581985473633,-2.1074063777923584,0.0046092611737549305,36.7148972,3.1819115,61.7,-2.15,-3.7,-0.16,83,239,4.286022186279297,4.282896041870117
32,-0.13673599064350128,-2.086519241333008,-0.015009713359177113,36.7148652,3.18184,61.75,-1.99,-3.68,-0.01,82,240,4.189818859100342,4.189802169799805
33,-0.027509905397892,-2.0886070728302,0.008289698511362076,36.7148393,3.1817813,61.74,-1.64,-3.02,0.06,82,240,3.4430229663848877,3.4424643516540527
34,0.04030453413724899,-2.2989249229431152,-0.053129784762859344,36.7148206,3.1817445,60.96,-1.21,-1.45,1.09,82,228,2.1904332637786865,1.8981400728225708
35,-0.01806444302201271,-2.4727859497070312,0.024791410192847252,36.7148031,3.1817252,58.39,-1.03,-0.8,1.44,81,218,1.954292893409729,1.3125308752059937
36,-0.05321493372321129,-2.4713776111602783,-0.02160893939435482,36.7147891,3.181712,56.15,-1.05,-0.83,1.42,81,218,1.958754539489746,1.3418970108032227
37,-0.010436035692691803,-2.470038890838623,-0.0062712798826396465,36.7147724,3.1816955,53.54,-1.06,-0.87,1.44,80,218,1.9981108903884888,1.3800803422927856
38,-0.06431778520345688,-2.469653367996216,0.006104308646172285,36.7147579,3.1816809,51.3,-1.06,-0.88,1.45,80,218,2.006751298904419,1.386122465133667
39,-0.010674133896827698,-2.469496011734009,-0.006000047083944082,36.7147434,3.1816663,49.06,-1.07,-0.88,1.45,80,218,2.0142416954040527,1.3953256607055664
40,-0.030341388657689095,-2.4696075916290283,0.027097191661596298,36.7147264,3.1816493,46.44,-1.07,-0.88,1.46,79,218,2.0230493545532227,1.3933827877044678
41,-0.03644783794879913,-2.4698472023010254,-0.025145355612039566,36.7147117,3.1816346,44.2,-1.07,-0.89,1.47,79,218,2.0256402492523193,1.393355131149292
42,-0.006461737211793661,-2.469959020614624,0.0035457094199955463,36.7146947,3.1816174,41.57,-1.07,-0.88,1.46,79,218,2.0201499462127686,1.387522578239441
43,-0.058323007076978683,-2.4689483642578125,-0.006915475707501173,36.7146802,3.1816026,39.33,-1.06,-0.89,1.47,78,218,2.0260136127471924,1.3901207447052002
44,-0.009122787974774837,-2.4694581031799316,0.0006133242859505117,36.7146656,3.181588,37.08,-1.07,-0.88,1.48,78,218,2.03271484375,1.3914504051208496
45,-0.0425870344042778,-2.469597816467285,0.026318276301026344,36.7146486,3.1815708,34.45,-1.06,-0.88,1.47,78,218,2.0224976539611816,1.384133219718933
46,-0.02846284583210945,-2.4700944423675537,-0.024433407932519913,36.7146339,3.181556,32.21,-1.06,-0.88,1.47,77,218,2.025010347366333,1.385273814201355
47,-0.010239369235932827,-2.4694933891296387,0.008705244399607182,36.7146169,3.1815389,29.59,-1.06,-0.88,1.48,77,218,2.030640125274658,1.3859843015670776
48,-0.060386914759874344,-2.4693968296051025,-0.007487945724278688,36.7146024,3.1815242,27.33,-1.05,-0.89,1.48,76,218,2.0296430587768555,1.387610912322998
49,-0.013759146444499493,-2.4691946506500244,0.017399229109287262,36.7145879,3.1815094,25.08,-1.06,-0.88,1.47,76,218,2.0201516151428223,1.3808096647262573
50,-0.13587342202663422,-3.055495023727417,-0.07771077007055283,36.7145672,3.1814953,22.55,-1.81,-0.22,1.16,76,184,2.1712472438812256,1.8304060697555542
51,-0.21750323474407196,2.674375295639038,-0.048920392990112305,36.7145319,3.1815076,21.76,-3.39,1.6,-0.01,75,153,3.755256414413452,3.7552433013916016
52,-0.1494833379983902,2.6797149181365967,0.017332352697849274,36.7144706,3.1815449,21.86,-4.08,2.03,0.02,75,153,4.564069747924805,4.564023017883301
53,-0.05436163395643234,2.94123911857605,0.1583462506532669,36.7144174,3.1815724,21.81,-3.63,0.7,0.05,75,168,3.7000679969787598,3.699704170227051
54,-0.3650481402873993,-2.1980648040771484,0.09251826256513596,36.7143674,3.1815457,21.79,-3.0,-3.72,0.01,74,234,4.785170555114746,4.78513765335083
55,-0.5097180008888245,-2.144178867340088,0.010373073630034924,36.7143195,3.1814558,21.79,-4.15,-6.6,0.0,74,237,7.803043842315674,7.803038120269775
56,-0.4473153054714203,-2.148158311843872,0.02042480558156967,36.7142575,3.1813337,21.8,-4.89,-7.69,0.0,73,236,9.120854377746582,9.12085247039795
57,-0.36014261841773987,-2.1506006717681885,-0.009644849225878716,36.7141803,3.1811837,21.82,-4.68,-7.26,0.0,73,236,8.641822814941406,8.641820907592773
58,-0.2262846976518631,-2.144925594329834,0.03647731617093086,36.7141223,3.1810714,21.82,-3.84,-6.02,0.03,73,237,7.147848129272461,7.147780895233154
59,-0.2953173816204071,-2.114903450012207,0.016923148185014725,36.7140663,3.1809575,21.79,-3.32,-5.64,0.01,72,238,6.549527168273926,6.5495171546936035
60,-0.25754013657569885,-2.099458694458008,0.0164079237729311,36.7140224,3.1808628,21.79,-3.21,-5.65,0.0,72,239,6.501098155975342,6.501094818115234
61,-0.20835115015506744,-2.1001269817352295,-0.018312495201826096,36.7139791,3.1807681,21.79,-3.08,-5.42,0.0,71,239,6.243197917938232,6.243197441101074
62,0.1630961000919342,-2.101497173309326,-0.01596789062023163,36.7139392,3.1806815,21.77,-1.68,-2.93,0.03,71,239,3.386841058731079,3.386660575866699
63,0.0927681177854538,-2.100994825363159,0.012859802693128586,36.7139272,3.1806549,21.78,-0.24,-0.44,-0.01,71,239,0.5115744471549988,0.5111843347549438
64,-0.01658797077834606,-2.101881742477417,0.027719443663954735,36.7139276,3.1806555,21.76,0.2,0.08,0.04,70,239,0.22257184982299805,0.21873809397220612
