timestamp,pitch,yaw,roll,lat,lon,alt,velocity_x,velocity_y,velocity_z,battery,heading,airspeed,groundspeed
0,-0.01622629538178444,-0.01451120525598526,0.02124878019094467,36.7156066,3.1846299,22.85,-0.02,0.03,-0.11,96,359,0.11802174150943756,0.03951512649655342
1,-0.06140010058879852,-0.003290525870397687,0.07657290250062943,36.7156082,3.1846325,22.86,0.39,0.57,-0.05,95,359,0.6991783976554871,0.6973167061805725
2,-0.200599804520607,1.384393572807312,-0.06923691183328629,36.7156219,3.1846558,22.89,1.72,2.35,-0.04,95,79,2.9248154163360596,2.9244821071624756
3,-0.16227000951766968,0.9195240139961243,0.0217426810413599,36.7156569,3.1847145,22.89,2.45,3.32,-0.01,95,52,4.131347179412842,4.131330966949463
4,0.06705784797668457,0.9105380177497864,-0.023671384900808334,36.7156895,3.1847684,22.87,2.06,2.72,0.0,94,52,3.417750120162964,3.4177498817443848
5,0.3190270960330963,0.33051806688308716,-0.19259561598300934,36.7157021,3.1847857,22.89,-0.94,-1.48,0.0,94,18,1.7661588191986084,1.7661304473876953
6,-0.11814316362142563,-1.275641918182373,-0.1291181892156601,36.7156783,3.1847419,22.86,-2.24,-3.24,0.03,93,286,3.9427073001861572,3.94254207611084
7,-0.0646650567650795,-2.394329309463501,0.038454487919807434,36.7156478,3.1846862,22.91,-2.16,-3.25,0.0,93,222,3.9077823162078857,3.9077727794647217
8,-0.06165911257266998,-1.4439234733581543,0.2922804355621338,36.71563,3.1846246,22.86,0.46,-2.81,0.02,93,277,2.8499503135681152,2.84987211227417
9,-0.4383038282394409,-0.6631330847740173,0.055762194097042084,36.7156624,3.1845761,22.86,4.24,-3.21,0.0,92,322,5.329965591430664,5.3299641609191895
10,-0.4811861217021942,-0.6241090893745422,0.004074291791766882,36.7157546,3.1844958,22.87,7.09,-4.89,-0.01,92,324,8.621306419372559,8.621298789978027
11,-0.5000789761543274,-0.6196418404579163,-0.024044912308454514,36.7158574,3.1844068,22.89,7.88,-5.53,0.0,91,324,9.635927200317383,9.635926246643066
12,-0.3941912353038788,-0.6200705170631409,0.033895060420036316,36.7159636,3.1843134,22.91,7.56,-5.33,-0.01,91,324,9.252902030944824,9.252886772155762
13,-0.041267380118370056,-0.627567708492279,-0.06269126385450363,36.7160672,3.1842219,22.93,5.05,-3.67,0.05,91,324,6.248293399810791,6.248025417327881
14,0.02568664401769638,-1.218268871307373,-0.26153141260147095,36.7161109,3.1841693,23.07,1.03,-2.88,-0.25,90,290,3.077638626098633,3.066746234893799
15,-0.43866097927093506,-2.138026714324951,-0.031248297542333603,36.7160902,3.1840993,24.19,-3.29,-4.75,-0.98,90,237,5.866199970245361,5.782179832458496
16,-0.44274553656578064,-2.1595802307128906,0.010999818332493305,36.7160323,3.1839977,26.12,-4.94,-7.15,-1.48,89,236,8.821907043457031,8.696806907653809
17,-0.45867711305618286,-2.1624197959899902,-0.03155073896050453,36.7159598,3.1838667,28.54,-5.53,-8.02,-1.6,89,236,9.87529468536377,9.744802474975586
18,-0.4446460008621216,-2.164261817932129,0.036113008856773376,36.715872,3.1837059,31.41,-5.57,-8.21,-1.57,88,236,10.051064491271973,9.927044868469238
19,-0.4233628809452057,-2.162729501724243,-0.01772710494697094,36.7157967,3.1835661,33.87,-5.54,-8.22,-1.58,88,236,10.047558784484863,9.921008110046387
20,-0.48192551732063293,-2.1664113998413086,0.029850082471966743,36.7157093,3.1834038,36.77,-5.52,-8.25,-1.59,87,235,10.056696891784668,9.929194450378418
21,-0.4368385970592499,-2.162738561630249,0.02756456471979618,36.7156349,3.1832648,39.25,-5.53,-8.27,-1.6,87,236,10.081488609313965,9.952924728393555
22,-0.45424503087997437,-2.1644115447998047,-0.03143875300884247,36.71556,3.1831249,41.75,-5.51,-8.29,-1.61,87,235,10.090685844421387,9.961017608642578
23,-0.4916757345199585,-2.1661274433135986,0.010499776341021061,36.7154852,3.1829851,44.25,-5.5,-8.29,-1.61,86,235,10.090343475341797,9.960131645202637
24,-0.4258177876472473,-2.1642870903015137,-0.004496253095567226,36.7153983,3.1828222,47.17,-5.51,-8.3,-1.61,86,236,10.104196548461914,9.973934173583984
25,-0.4917849898338318,-2.16397762298584,0.01692647859454155,36.715311,3.1826589,50.07,-5.51,-8.29,-1.62,85,236,10.092656135559082,9.960588455200195
26,-0.43842586874961853,-2.1636641025543213,0.02865956909954548,36.715236,3.1825189,52.58,-5.51,-8.27,-1.63,85,236,10.082515716552734,9.949037551879883
27,-0.44538062810897827,-2.165027379989624,-0.0263000950217247,36.7151615,3.1823793,55.09,-5.52,-8.29,-1.62,84,235,10.103355407714844,9.97128963470459
28,-0.4570358395576477,-2.164813280105591,0.02886088751256466,36.7150741,3.1822161,58.01,-5.5,-8.26,-1.63,84,235,10.06591796875,9.9329252243042
29,-0.20818555355072021,-2.1680264472961426,0.003415259998291731,36.7150033,3.1820846,60.38,-4.7,-7.02,-1.41,83,235,8.573101043701172,8.45593547821045
30,-0.0825975090265274,-2.1592867374420166,0.0366579033434391,36.714944,3.1819735,62.25,-2.84,-4.35,-0.63,83,236,5.242355823516846,5.2041015625
31,-0.129102423787117,-2.1165695190429688,-0.01122987363487482,36.7149115,3.1819084,62.8,-2.18,-3.71,-0.14,83,238,4.316502094268799,4.314108848571777
32,-0.17756690084934235,-2.1023173332214355,0.02425161749124527,36.7148831,3.1818469,62.84,-2.08,-3.69,-0.01,82,239,4.238187789916992,4.238170623779297
33,-0.017139537259936333,-2.1050045490264893,-0.027250532060861588,36.7148518,3.1817786,62.82,-1.68,-2.96,0.07,82,239,3.413092613220215,3.412371873855591
34,0.0339183434844017,-2.3185222148895264,-0.022578416392207146,36.7148328,3.1817428,61.99,-1.21,-1.4,1.13,82,227,2.17641282081604,1.857516884803772
35,-0.05080311745405197,-2.470658302307129,0.02195521630346775,36.7148154,3.1817241,59.4,-1.03,-0.79,1.43,81,218,1.9413161277770996,1.3030372858047485
36,-0.017653813585639,-2.471043109893799,-0.013383177109062672,36.7148013,3.181711,57.16,-1.04,-0.84,1.42,81,218,1.9552451372146606,1.3438116312026978
37,-0.057870879769325256,-2.470395565032959,0.018855422735214233,36.7147872,3.1816968,54.91,-1.05,-0.87,1.42,81,218,1.9796298742294312,1.3732696771621704
38,-0.05037909373641014,-2.46966814994812,-0.020014140754938126,36.7147702,3.1816798,52.31,-1.07,-0.88,1.44,80,218,2.001178026199341,1.3875118494033813
39,-0.015839217230677605,-2.4692628383636475,0.020869877189397812,36.7147556,3.1816652,50.06,-1.06,-0.87,1.45,80,218,2.002321481704712,1.3797829151153564
40,-0.053926508873701096,-2.469792127609253,0.02215738594532013,36.7147387,3.1816481,47.44,-1.06,-0.87,1.45,79,218,2.003835916519165,1.3791453838348389
41,-0.013628344982862473,-2.469972848892212,-0.014140375889837742,36.714724,3.1816335,45.2,-1.07,-0.88,1.46,79,218,2.020026922225952,1.3954694271087646
42,-0.057151325047016144,-2.469677686691284,0.01804669201374054,36.7147094,3.1816187,42.96,-1.06,-0.88,1.47,79,218,2.0223233699798584,1.3860962390899658
43,-0.051144130527973175,-2.4689857959747314,-0.02263149619102478,36.7146925,3.1816016,40.33,-1.06,-0.88,1.47,78,218,2.023456573486328,1.3891890048980713
44,-0.01598300039768219,-2.4691414833068848,0.022013982757925987,36.7146779,3.1815869,38.09,-1.07,-0.88,1.47,78,218,2.0257794857025146,1.393768072128296
45,-0.0558183453977108,-2.4701647758483887,0.023754868656396866,36.7146608,3.1815697,35.47,-1.05,-0.89,1.47,78,218,2.0252201557159424,1.3847405910491943
46,-0.011958308517932892,-2.47027587890625,-0.015353742055594921,36.7146462,3.1815549,33.22,-1.06,-0.88,1.47,77,218,2.0244014263153076,1.3854690790176392
47,-0.014976229518651962,-2.4693026542663574,0.022764820605516434,36.7146293,3.1815378,30.59,-1.06,-0.87,1.47,77,218,2.0191824436187744,1.3811999559402466
48,-0.05292030796408653,-2.469194173812866,-0.016314195469021797,36.7146146,3.1815231,28.34,-1.06,-0.89,1.47,76,218,2.026524066925049,1.3875632286071777
49,-0.01505791675299406,-2.469165802001953,0.022121379151940346,36.7146001,3.1815083,26.09,-1.06,-0.87,1.47,76,218,2.015660524368286,1.3750529289245605
50,-0.15371616184711456,-3.0947372913360596,-0.08694486320018768,36.7145792,3.1814946,23.57,-1.86,-0.16,1.11,76,182,2.179030656814575,1.8707287311553955
51,-0.21101181209087372,2.667609214782715,-0.03966301307082176,36.7145434,3.1815079,22.85,-3.42,1.67,-0.03,75,152,3.810433864593506,3.8102729320526123
52,-0.1430516093969345,2.672367811203003,0.02323436550796032,36.7144821,3.1815461,22.95,-3.99,2.04,0.03,75,153,4.483584880828857,4.483481407165527
53,-0.04463694617152214,2.9840798377990723,0.174607515335083,36.7144299,3.1815726,22.9,-3.52,0.54,0.05,75,170,3.56882643699646,3.5684375762939453
54,-0.3527922034263611,-2.2228002548217773,0.15395580232143402,36.7143875,3.1815513,22.88,-2.93,-3.35,0.02,74,232,4.456167697906494,4.456119537353516
55,-0.5161247253417969,-2.147836446762085,0.005801381077617407,36.7143324,3.1814486,22.88,-4.24,-6.73,0.0,74,236,7.961447715759277,7.961441516876221
56,-0.44514700770378113,-2.1473159790039062,0.026427557691931725,36.7142696,3.1813248,22.89,-4.91,-7.68,0.0,73,236,9.118395805358887,9.118395805358887
57,-0.3510487675666809,-2.1527154445648193,-0.00337218982167542,36.7141922,3.1811756,22.92,-4.65,-7.17,0.0,73,236,8.547775268554688,8.547773361206055
58,-0.21163515746593475,-2.145514726638794,0.03671972453594208,36.7141347,3.1810642,22.91,-3.78,-5.96,0.03,73,237,7.069398880004883,7.069305419921875
59,-0.2777043581008911,-2.1229753494262695,-0.010782534256577492,36.7140868,3.1809673,22.89,-3.41,-5.67,0.02,72,238,6.623658180236816,6.623619079589844
60,-0.2624948024749756,-2.1077659130096436,0.019512610509991646,36.7140346,3.1808568,22.89,-3.29,-5.66,0.01,72,239,6.552282810211182,6.552266597747803
61,-0.19969259202480316,-2.1085541248321533,-0.01443227007985115,36.7139904,3.1807622,22.89,-3.11,-5.36,0.0,71,239,6.2025322914123535,6.202531337738037
62,0.1713504046201706,-2.1096267700195312,-0.020327003672719002,36.7139508,3.1806777,22.86,-1.6,-2.73,0.03,71,239,3.1682136058807373,3.1679883003234863
63,0.08953607827425003,-2.1092302799224854,0.022103965282440186,36.7139397,3.1806538,22.87,-0.18,-0.33,-0.01,71,239,0.38856256008148193,0.3880961239337921
64,0.016303561627864838,-2.1079344749450684,0.021505136042833328,36.7139403,3.1806548,22.86,0.14,0.12,0.03,70,239,0.1912955641746521,0.18756209313869476
