timestamp,pitch,yaw,roll,lat,lon,alt,velocity_x,velocity_y,velocity_z,battery,heading,airspeed,groundspeed
0,-0.0030804506968706846,-0.0356929674744606,-0.021835383027791977,36.7156066,3.18463,19.12,-0.02,0.02,0.05,96,357,0.06643746793270111,0.035558223724365234
1,-0.040728915482759476,-0.04067530855536461,0.12048251926898956,36.7156075,3.1846319,19.09,0.24,0.48,0.0,95,357,0.5418376326560974,0.5418260097503662
2,-0.22401085495948792,1.5369555950164795,-0.08858378231525421,36.715621,3.1846594,19.05,1.55,2.55,-0.02,95,88,2.992217540740967,2.9920694828033447
3,-0.17958493530750275,0.864120602607727,-0.008214826695621014,36.7156472,3.1847122,19.1,2.17,3.54,-0.04,95,49,4.157140254974365,4.1569132804870605
4,0.06463899463415146,0.9916095733642578,0.018266215920448303,36.7156815,3.1847806,19.14,1.87,3.0,-0.02,94,56,3.546778440475464,3.546700954437256
5,0.31970635056495667,1.2454978227615356,0.09157393127679825,36.715694,3.1848055,19.14,-0.44,-0.58,0.0,94,71,0.7366940379142761,0.7366263270378113
6,-0.02678750269114971,2.835818290710449,0.20834872126579285,36.7156744,3.1847703,19.17,-2.13,-3.05,-0.03,93,162,3.730600595474243,3.7304537296295166
7,-0.12069160491228104,-1.9225547313690186,0.03760253265500069,36.7156394,3.1847059,19.17,-2.18,-3.27,0.0,93,249,3.933156967163086,3.933148145675659
8,-0.02614932507276535,-1.6649399995803833,0.18085233867168427,36.71562,3.1846518,19.15,-0.28,-2.96,0.0,93,264,2.9795331954956055,2.979522705078125
9,-0.3813120424747467,-0.650551974773407,0.08396206796169281,36.7156502,3.184595,19.15,4.07,-3.16,0.0,92,322,5.160512924194336,5.1605119705200195
10,-0.4729328453540802,-0.6157165169715881,-0.0001880665513454005,36.7157098,3.184542,19.15,6.38,-4.45,0.0,92,324,7.786850929260254,7.786850929260254
11,-0.5165306925773621,-0.621195375919342,0.025508418679237366,36.7158245,3.1844424,19.17,7.84,-5.49,0.0,91,324,9.576708793640137,9.576705932617188
12,-0.37504974007606506,-0.6233317852020264,-0.023412572219967842,36.7159482,3.1843334,19.19,7.55,-5.38,-0.02,91,324,9.282400131225586,9.282376289367676
13,-0.11324358731508255,-0.624946117401123,-0.0024884731974452734,36.71604,3.184252,19.21,5.65,-4.04,0.03,91,324,6.953640460968018,6.953560829162598
14,0.008563801646232605,-1.1760563850402832,-0.30186113715171814,36.7160976,3.1841873,19.33,1.17,-2.89,-0.25,90,292,3.1348021030426025,3.1244101524353027
15,-0.3828059732913971,-2.127178192138672,-0.05567479878664017,36.7160855,3.1841303,20.2,-2.75,-4.27,-0.87,90,238,5.164437770843506,5.089197635650635
16,-0.44960305094718933,-2.1654133796691895,-0.010959247127175331,36.7160326,3.1840375,21.98,-4.76,-6.78,-1.41,89,235,8.405692100524902,8.286078453063965
17,-0.48775678873062134,-2.162644147872925,0.0031454511918127537,36.7159491,3.1838876,24.75,-5.52,-8.02,-1.6,89,236,9.873815536499023,9.742304801940918
18,-0.43913012742996216,-2.164843797683716,0.032066795974969864,36.7158737,3.1837499,27.21,-5.54,-8.18,-1.58,88,235,10.007553100585938,9.881119728088379
19,-0.47996580600738525,-2.1628708839416504,-0.026535330340266228,36.7157861,3.1835873,30.08,-5.53,-8.26,-1.59,88,236,10.071651458740234,9.94495677947998
20,-0.48335000872612,-2.164205551147461,0.027378369122743607,36.7157113,3.1834479,32.56,-5.52,-8.27,-1.6,88,236,10.075651168823242,9.946859359741211
21,-0.43136316537857056,-2.162844657897949,0.04019439220428467,36.7156365,3.1833083,35.04,-5.5,-8.25,-1.61,87,236,10.051828384399414,9.920464515686035
22,-0.47556352615356445,-2.1626036167144775,-0.021232448518276215,36.7155495,3.1831454,37.95,-5.52,-8.26,-1.62,87,236,10.06714153289795,9.935541152954102
23,-0.4868636429309845,-2.164416551589966,0.03170231729745865,36.7154748,3.1830063,40.45,-5.52,-8.28,-1.62,86,235,10.085188865661621,9.952699661254883
24,-0.429951548576355,-2.1642825603485107,-0.020786823704838753,36.7153874,3.1828429,43.36,-5.52,-8.31,-1.64,86,236,10.114706993103027,9.980535507202148
25,-0.48347651958465576,-2.163792610168457,-0.019118698313832283,36.7153127,3.182703,45.87,-5.49,-8.29,-1.63,85,236,10.076698303222656,9.943260192871094
26,-0.4451479911804199,-2.162196159362793,0.038541607558727264,36.7152383,3.1825633,48.38,-5.51,-8.28,-1.63,85,236,10.087725639343262,9.954667091369629
27,-0.434855192899704,-2.164870262145996,-0.018933814018964767,36.7151509,3.1824001,51.29,-5.54,-8.29,-1.64,84,235,10.10534381866455,9.971375465393066
28,-0.4853847920894623,-2.165907621383667,-0.009400969371199608,36.715076,3.1822605,53.8,-5.52,-8.29,-1.63,84,235,10.096590042114258,9.962597846984863
29,-0.22453565895557404,-2.1682493686676025,0.017696646973490715,36.7149925,3.1821053,56.61,-4.76,-7.11,-1.42,83,235,8.681612014770508,8.564119338989258
30,-0.07112356275320053,-2.162945032119751,-0.013712325133383274,36.7149391,3.1820053,58.33,-3.11,-4.72,-0.75,83,236,5.707181453704834,5.656425476074219
31,-0.1107948049902916,-2.105520248413086,0.016665266826748848,36.7149,3.1819266,59.08,-2.14,-3.69,-0.15,83,239,4.277924537658691,4.2750020027160645
32,-0.18761131167411804,-2.085700750350952,-0.007796742953360081,36.7148725,3.1818652,59.13,-2.0,-3.68,0.0,82,240,4.196005344390869,4.196000576019287
33,-0.0034018170554190874,-2.087369680404663,0.01730355992913246,36.714846,3.1818054,59.13,-1.77,-3.22,0.0,82,240,3.6831037998199463,3.68310284614563
34,-0.0021834017243236303,-2.3034398555755615,-0.03397360444068909,36.7148234,3.1817602,58.32,-1.19,-1.43,1.11,82,228,2.1739537715911865,1.8664430379867554
35,-0.010989097878336906,-2.483046770095825,-0.012824015691876411,36.7148085,3.1817433,56.12,-1.02,-0.79,1.46,81,217,1.9610542058944702,1.3027998208999634
36,-0.033425141125917435,-2.471038579940796,0.026691071689128876,36.7147921,3.1817278,53.5,-1.04,-0.84,1.43,81,218,1.9610270261764526,1.3416707515716553
37,-0.035857100039720535,-2.470263719558716,-0.023201536387205124,36.7147777,3.1817139,51.26,-1.07,-0.87,1.44,81,218,1.9975799322128296,1.3809289932250977
38,-0.0441635400056839,-2.4697065353393555,0.031162183731794357,36.7147632,3.1816994,49.02,-1.06,-0.88,1.44,80,218,2.0025274753570557,1.3817014694213867
39,-0.054225847125053406,-2.469236135482788,-0.017085546627640724,36.7147463,3.1816824,46.39,-1.06,-0.89,1.45,80,218,2.011125326156616,1.3910149335861206
40,-0.016417646780610085,-2.469346284866333,0.01971805840730667,36.7147317,3.1816676,44.16,-1.06,-0.88,1.46,79,218,2.0161681175231934,1.3888460397720337
41,-0.060336582362651825,-2.4696638584136963,0.0151774100959301,36.7147147,3.1816505,41.54,-1.06,-0.89,1.47,79,218,2.024318218231201,1.3896749019622803
42,-0.013251435942947865,-2.4701192378997803,-0.008743593469262123,36.7147001,3.1816359,39.29,-1.06,-0.88,1.47,79,218,2.02032208442688,1.3854269981384277
43,-0.06335415691137314,-2.4690921306610107,-0.0038772267289459705,36.7146856,3.1816211,37.04,-1.06,-0.89,1.47,78,218,2.025353193283081,1.390927791595459
44,-0.030758999288082123,-2.469696044921875,-0.026537468656897545,36.7146686,3.1816039,34.43,-1.07,-0.89,1.48,78,218,2.0345191955566406,1.393364667892456
45,-0.0486011803150177,-2.4694249629974365,0.02471787855029106,36.7146539,3.1815891,32.18,-1.06,-0.88,1.48,78,218,2.0260190963745117,1.3814219236373901
46,-0.05590558424592018,-2.4695608615875244,-0.012790492735803127,36.7146369,3.181572,29.55,-1.07,-0.89,1.47,77,218,2.0318610668182373,1.3940688371658325
47,-0.014713892713189125,-2.4691855907440186,0.02178705297410488,36.7146223,3.1815573,27.31,-1.05,-0.87,1.48,77,218,2.022672414779663,1.3761188983917236
48,-0.050017233937978745,-2.4692301750183105,-0.022719765082001686,36.7146078,3.1815426,25.05,-1.06,-0.88,1.48,77,218,2.027968168258667,1.3835887908935547
49,-0.009140185080468655,-2.4696550369262695,-0.004455976653844118,36.7145908,3.1815254,22.42,-1.07,-0.88,1.47,76,218,2.0272912979125977,1.3899056911468506
50,-0.1288127601146698,-2.899219512939453,-0.09471356868743896,36.714574,3.1815124,20.22,-1.63,-0.45,1.3,76,193,2.1423165798187256,1.6995991468429565
51,-0.23578840494155884,2.67372465133667,-0.05068446323275566,36.7145344,3.181524,19.14,-3.41,1.62,-0.01,75,153,3.7822470664978027,3.7822041511535645
52,-0.18843568861484528,2.6794440746307373,0.023366861045360565,36.7144821,3.1815559,19.24,-4.07,2.03,-0.01,75,153,4.551375865936279,4.551360130310059
53,-0.026555411517620087,2.852484941482544,0.11854300647974014,36.7144281,3.1815862,19.2,-3.75,1.1,0.05,75,163,3.912640333175659,3.912205696105957
54,-0.34223121404647827,-2.2463412284851074,0.16165244579315186,36.7143766,3.1815704,19.17,-2.95,-3.14,0.02,74,231,4.3110527992248535,4.311000823974609
55,-0.4832453727722168,-2.1405868530273438,-0.025608235970139503,36.7143312,3.1814891,19.17,-3.97,-6.32,0.01,74,237,7.471100807189941,7.471076488494873
56,-0.46447381377220154,-2.1480753421783447,0.030437195673584938,36.7142598,3.1813479,19.18,-4.89,-7.69,0.0,73,236,9.123387336730957,9.123387336730957
57,-0.33657804131507874,-2.151500940322876,-0.02178419753909111,36.7141931,3.1812184,19.2,-4.78,-7.38,-0.01,73,236,8.804222106933594,8.804216384887695
58,-0.2651326656341553,-2.1482179164886475,0.008621204644441605,36.7141333,3.1811033,19.2,-3.97,-6.2,0.02,73,236,7.369421005249023,7.369368076324463
59,-0.25252142548561096,-2.1177480220794678,-0.004682282451540232,36.7140766,3.1809889,19.17,-3.38,-5.69,0.01,72,238,6.621488094329834,6.6214680671691895
60,-0.30333569645881653,-2.100656032562256,0.009952233172953129,36.7140322,3.1808934,19.17,-3.21,-5.65,0.0,72,239,6.507113456726074,6.507107734680176
61,-0.16522923111915588,-2.100252151489258,-0.020173732191324234,36.7139816,3.1807828,19.17,-3.07,-5.38,0.0,71,239,6.200102806091309,6.200102806091309
62,0.07667016983032227,-2.100874662399292,0.01586778275668621,36.7139462,3.180706,19.16,-1.96,-3.4,0.03,71,239,3.9302940368652344,3.9301040172576904
63,0.1038796529173851,-2.100245714187622,-0.023963546380400658,36.7139303,3.1806711,19.16,-0.23,-0.43,-0.02,71,239,0.4900982975959778,0.4895387589931488
64,0.006843098904937506,-2.1004951000213623,0.05425123870372772,36.7139305,3.1806712,19.15,0.13,0.13,0.03,70,239,0.19335077702999115,0.18978403508663177
