timestamp,pitch,yaw,roll,lat,lon,alt,velocity_x,velocity_y,velocity_z,battery,heading,airspeed,groundspeed
0,0.021839605644345284,0.012619624845683575,0.023654036223888397,36.7156067,3.18463,17.85,-0.03,0.01,0.0,96,0,0.039435699582099915,0.038626570254564285
1,-0.08058813214302063,0.006277297157794237,0.07629197090864182,36.7156077,3.1846321,17.89,0.29,0.52,0.0,95,0,0.605141282081604,0.6050745844841003
2,-0.19884218275547028,1.4668108224868774,-0.12023739516735077,36.7156229,3.1846612,17.85,1.67,2.61,-0.02,95,84,3.107598304748535,3.107510805130005
3,-0.13431765139102936,0.9208070039749146,0.018820589408278465,36.7156501,3.1847138,17.89,2.23,3.44,-0.02,95,52,4.100979804992676,4.100888252258301
4,0.07233667373657227,0.9811652302742004,0.021946413442492485,36.7156844,3.1847782,17.9,1.74,2.61,0.0,94,56,3.1422998905181885,3.1422860622406006
5,0.3447228968143463,1.1547651290893555,0.03694123402237892,36.7156928,3.1847931,17.89,-0.82,-1.19,0.0,94,66,1.4510571956634521,1.4510486125946045
6,-0.06324634701013565,2.8929104804992676,0.19246406853199005,36.7156701,3.1847521,17.93,-2.21,-3.15,-0.02,93,165,3.8538289070129395,3.8537709712982178
7,-0.13237260282039642,-1.9121861457824707,0.04671233892440796,36.7156352,3.1846875,17.92,-2.09,-3.27,0.0,93,250,3.8875088691711426,3.887497901916504
8,-0.04356725141406059,-1.4733898639678955,0.22910456359386444,36.7156201,3.1846344,17.9,0.25,-2.86,0.0,93,275,2.880110025405884,2.880099296569824
9,-0.4127850830554962,-0.644519567489624,0.0770612508058548,36.7156591,3.1845767,17.9,4.55,-3.35,0.0,92,323,5.662619590759277,5.662619590759277
10,-0.4801071286201477,-0.6260113716125488,0.016801560297608376,36.7157231,3.1845202,17.9,6.69,-4.66,0.0,92,324,8.15739631652832,8.157393455505371
11,-0.5160713791847229,-0.6188980937004089,0.008812250569462776,36.7158406,3.1844183,17.92,7.88,-5.5,0.0,91,324,9.618042945861816,9.618040084838867
12,-0.33872419595718384,-0.623830258846283,-0.02148178033530712,36.7159636,3.1843097,17.94,7.39,-5.29,-0.02,91,324,9.095489501953125,9.095454216003418
13,-0.06830669939517975,-0.6282662749290466,-0.013424929231405258,36.7160512,3.1842319,17.96,5.19,-3.76,0.04,91,324,6.419321060180664,6.419194221496582
14,-0.09777256846427917,-1.3874995708465576,-0.30323296785354614,36.7160994,3.1841699,18.15,0.5,-2.94,-0.34,90,280,3.004765272140503,2.985313653945923
15,-0.3880954682826996,-2.135345220565796,-0.03337870538234711,36.7160796,3.1841089,19.16,-3.18,-4.61,-0.97,90,237,5.686850070953369,5.603083610534668
16,-0.4734451174736023,-2.1599347591400146,-0.028141260147094727,36.7160229,3.1840098,21.06,-4.96,-7.06,-1.46,89,236,8.758955955505371,8.635638236999512
17,-0.46890807151794434,-2.1647238731384277,0.03234498202800751,36.7159377,3.183857,23.87,-5.54,-8.04,-1.61,89,235,9.898455619812012,9.766329765319824
18,-0.4263794720172882,-2.1653878688812256,-0.001530265319161117,36.7158622,3.1837188,26.33,-5.52,-8.21,-1.58,88,235,10.024535179138184,9.897934913635254
19,-0.4879494607448578,-2.1647346019744873,0.01770610362291336,36.7157746,3.183556,29.21,-5.5,-8.25,-1.59,88,235,10.047158241271973,9.919750213623047
20,-0.4426966905593872,-2.1636455059051514,0.032890044152736664,36.7157003,3.1834172,31.68,-5.51,-8.27,-1.61,88,236,10.074931144714355,9.94495964050293
21,-0.43152928352355957,-2.1632063388824463,-0.014668275602161884,36.7156253,3.1832772,34.17,-5.54,-8.29,-1.61,87,236,10.10260009765625,9.971996307373047
22,-0.46710890531539917,-2.1641249656677246,0.0329163558781147,36.715538,3.1831141,37.08,-5.51,-8.25,-1.62,87,236,10.056132316589355,9.92360782623291
23,-0.42436471581459045,-2.1633999347686768,0.008589859120547771,36.7154633,3.1829746,39.57,-5.51,-8.26,-1.63,86,236,10.066462516784668,9.932402610778809
24,-0.48807117342948914,-2.165015697479248,0.004348280373960733,36.715376,3.1828118,42.49,-5.51,-8.3,-1.64,86,235,10.101677894592285,9.96748161315918
25,-0.45648959279060364,-2.1647250652313232,0.04124367609620094,36.7153014,3.182672,45.0,-5.51,-8.27,-1.63,85,235,10.07867431640625,9.944706916809082
26,-0.43623989820480347,-2.1644229888916016,-0.018355725333094597,36.7152269,3.1825322,47.5,-5.52,-8.29,-1.63,85,235,10.101361274719238,9.967611312866211
27,-0.48151811957359314,-2.1634457111358643,0.03028539940714836,36.7151396,3.1823689,50.42,-5.53,-8.31,-1.65,84,236,10.123571395874023,9.988128662109375
28,-0.41961756348609924,-2.1634793281555176,0.018374327570199966,36.7150648,3.182229,52.93,-5.51,-8.26,-1.64,84,236,10.072280883789062,9.937129974365234
29,-0.2425180971622467,-2.1685078144073486,0.005816981662064791,36.7149831,3.1820776,55.67,-4.56,-6.77,-1.35,83,235,8.275935173034668,8.164088249206543
30,-0.03997916355729103,-2.1581430435180664,0.029645295813679695,36.714933,3.1819837,57.24,-2.9,-4.45,-0.66,83,236,5.362856388092041,5.321069240570068
31,-0.15150544047355652,-2.100421667098999,0.039425164461135864,36.7148956,3.1819072,57.86,-2.09,-3.68,-0.11,83,239,4.2442307472229,4.242802619934082
32,-0.13051003217697144,-2.086235523223877,-0.01946924813091755,36.7148683,3.1818458,57.88,-2.0,-3.66,0.0,82,240,4.1807451248168945,4.180734157562256
33,-0.029275808483362198,-2.088503122329712,0.014626655727624893,36.7148426,3.1817876,57.87,-1.66,-3.02,0.06,82,240,3.456645965576172,3.456070899963379
34,-0.0027082720771431923,-2.35931134223938,-0.06564364582300186,36.7148211,3.1817468,56.78,-1.19,-1.28,1.27,82,224,2.1682186126708984,1.7509698867797852
35,-0.012327455915510654,-2.472649097442627,0.019762825220823288,36.7148063,3.1817312,54.52,-1.03,-0.79,1.44,81,218,1.9477990865707397,1.305362582206726
36,-0.057819388806819916,-2.4699747562408447,0.022803282365202904,36.71479,3.1817159,51.92,-1.04,-0.83,1.43,81,218,1.962881326675415,1.3357582092285156
37,-0.01399444043636322,-2.4701528549194336,-0.014337597414851189,36.7147756,3.1817017,49.68,-1.06,-0.87,1.44,81,218,2.0039267539978027,1.383499026298523
38,-0.060977764427661896,-2.469621419906616,0.01945958472788334,36.714761,3.1816871,47.43,-1.06,-0.88,1.45,80,218,2.0086545944213867,1.387829303741455
39,-0.05448417365550995,-2.469090461730957,-0.020311303436756134,36.7147441,3.18167,44.81,-1.07,-0.88,1.45,80,218,2.0144190788269043,1.3883715867996216
40,-0.016309021040797234,-2.4693636894226074,0.020781897008419037,36.7147295,3.1816554,42.57,-1.07,-0.88,1.46,79,218,2.0235788822174072,1.3910558223724365
41,-0.06019904837012291,-2.4699769020080566,0.018602631986141205,36.7147125,3.1816382,39.95,-1.06,-0.88,1.47,79,218,2.022507667541504,1.3882614374160767
42,-0.016788670793175697,-2.470005989074707,-0.01588396169245243,36.714698,3.1816235,37.71,-1.06,-0.87,1.47,79,218,2.022336006164551,1.3835357427597046
43,-0.057391583919525146,-2.4695661067962646,0.019705340266227722,36.7146833,3.1816088,35.46,-1.07,-0.88,1.47,78,218,2.0300252437591553,1.3908747434616089
44,-0.053389836102724075,-2.4694442749023438,-0.017877686768770218,36.7146663,3.1815916,32.83,-1.06,-0.88,1.47,78,218,2.0262036323547363,1.3874244689941406
45,-0.018824709579348564,-2.4692678451538086,0.025763479992747307,36.7146517,3.1815769,30.58,-1.05,-0.87,1.47,78,218,2.0153350830078125,1.3762872219085693
46,-0.058528169989585876,-2.4698269367218018,0.017027471214532852,36.7146348,3.1815598,27.96,-1.06,-0.88,1.48,77,218,2.0311405658721924,1.3903529644012451
47,-0.007576109375804663,-2.469205617904663,-0.009456723928451538,36.7146201,3.181545,25.71,-1.06,-0.88,1.47,77,218,2.0252838134765625,1.3842437267303467
48,-0.05463944375514984,-2.4698410034179688,0.019933514297008514,36.7146055,3.1815303,23.45,-1.05,-0.87,1.47,77,218,2.016852855682373,1.3761012554168701
49,-0.0556909553706646,-2.469698905944824,-0.02047473005950451,36.7145886,3.1815131,20.83,-1.06,-0.87,1.47,76,218,2.017789363861084,1.3748161792755127
50,-0.10525896400213242,-3.060279369354248,-0.08310671150684357,36.7145704,3.1815016,18.68,-1.82,-0.23,1.16,76,184,2.1749513149261475,1.8357760906219482
51,-0.2475656121969223,2.676363945007324,0.01171660702675581,36.7145273,3.1815182,17.91,-3.59,1.75,-0.05,75,153,3.9995248317718506,3.9991261959075928
52,-0.15152175724506378,2.6793148517608643,-0.020357171073555946,36.7144738,3.181551,17.99,-4.07,2.04,0.02,75,153,4.562371253967285,4.56232213973999
53,-0.052175190299749374,2.9410340785980225,0.18967723846435547,36.7144206,3.1815786,17.94,-3.62,0.73,0.05,75,168,3.6992671489715576,3.698899984359741
54,-0.39809712767601013,-2.2023980617523193,0.0834418460726738,36.7143705,3.1815517,17.92,-3.0,-3.72,0.01,74,233,4.789018630981445,4.788985252380371
55,-0.48696139454841614,-2.1442596912384033,0.03628592938184738,36.7143229,3.1814627,17.92,-4.15,-6.61,0.01,74,237,7.809185981750488,7.809177875518799
56,-0.45672017335891724,-2.14823317527771,-0.03030226193368435,36.7142497,3.1813182,17.93,-4.91,-7.73,0.0,73,236,9.163926124572754,9.163925170898438
57,-0.3390159606933594,-2.152702569961548,0.028748538345098495,36.7141834,3.1811898,17.95,-4.69,-7.22,-0.01,73,236,8.611883163452148,8.6118745803833
58,-0.20665521919727325,-2.14559006690979,0.0014538177056238055,36.7141252,3.1810774,17.94,-3.82,-6.03,0.02,73,237,7.1462016105651855,7.146150588989258
59,-0.2726154625415802,-2.114546060562134,0.044821493327617645,36.7140698,3.1809644,17.92,-3.33,-5.65,0.0,72,238,6.570836067199707,6.570828437805176
60,-0.2605970799922943,-2.0997354984283447,-0.02115054614841938,36.7140257,3.180869,17.92,-3.21,-5.65,0.0,72,239,6.5023884773254395,6.502384662628174
61,-0.13105317950248718,-2.1001126766204834,0.019586345180869102,36.7139754,3.1807594,17.92,-2.97,-5.21,0.0,71,239,6.000916481018066,6.000916004180908
62,0.11740601807832718,-2.1012675762176514,-0.02044064551591873,36.7139425,3.1806878,17.9,-1.67,-2.94,0.03,71,239,3.3858842849731445,3.3856916427612305
63,0.13622578978538513,-2.100942611694336,0.020399337634444237,36.7139305,3.1806613,17.91,-0.25,-0.45,-0.02,71,239,0.5206948518753052,0.5202710628509521
64,-0.0264210794121027,-2.1021745204925537,0.07004254311323166,36.7139308,3.1806615,17.89,0.19,0.08,0.04,70,239,0.21840013563632965,0.21429087221622467
