timestamp,pitch,yaw,roll,lat,lon,alt,velocity_x,velocity_y,velocity_z,battery,heading,airspeed,groundspeed
0,0.011742200702428818,-0.04304715245962143,-0.022477887570858,36.7156065,3.1846299,20.71,0.0,0.02,0.0,96,357,0.027722584083676338,0.026058292016386986
1,-0.05640118196606636,-0.049648866057395935,0.11485765874385834,36.7156076,3.1846319,20.68,0.28,0.48,-0.02,95,357,0.5575420260429382,0.5570994019508362
2,-0.2203412801027298,1.4965437650680542,-0.08944518119096756,36.7156219,3.1846588,20.68,1.65,2.44,-0.02,95,85,2.952571153640747,2.9524781703948975
3,-0.16129794716835022,0.8359994292259216,-0.013410679996013641,36.7156495,3.1847089,20.7,2.28,3.35,-0.02,95,47,4.0643463134765625,4.064284801483154
4,0.08641604334115982,0.9499478936195374,0.009644422680139542,36.7156852,3.1847731,20.71,1.89,2.75,0.0,94,54,3.3441219329833984,3.344115734100342
5,0.3203376829624176,0.8897794485092163,-0.019018128514289856,36.7156968,3.1847927,20.69,-0.59,-0.87,0.01,94,50,1.0635857582092285,1.0635267496109009
6,-0.011006129905581474,-0.8302483558654785,-0.19801557064056396,36.7156758,3.1847544,20.73,-2.18,-3.13,-0.02,93,312,3.8234024047851562,3.823288679122925
7,-0.06863696128129959,-2.4210691452026367,0.08691200613975525,36.7156408,3.1846904,20.73,-2.15,-3.3,0.01,93,221,3.9460508823394775,3.9460182189941406
8,-0.06748250126838684,-1.5664317607879639,0.21326865255832672,36.7156233,3.1846366,20.71,-0.05,-2.9,0.01,93,270,2.9105498790740967,2.910526752471924
9,-0.41002294421195984,-0.653171718120575,0.0406830795109272,36.7156575,3.1845795,20.7,4.32,-3.23,0.0,92,322,5.405444145202637,5.40544319152832
10,-0.5352223515510559,-0.6248684525489807,0.03334992006421089,36.7157345,3.1845121,20.7,6.86,-4.72,0.0,92,324,8.334421157836914,8.334418296813965
11,-0.46549907326698303,-0.6179674863815308,0.014677628874778748,36.7158358,3.1844247,20.72,7.88,-5.48,0.0,91,324,9.603531837463379,9.60352897644043
12,-0.4075436294078827,-0.618932843208313,-0.0020749946124851704,36.7159596,3.1843163,20.74,7.53,-5.29,-0.02,91,324,9.212263107299805,9.212235450744629
13,-0.04694739356637001,-0.6230930685997009,0.003742213360965252,36.7160501,3.1842363,20.77,5.51,-3.93,0.03,91,324,6.771668434143066,6.7715582847595215
14,-0.02077559195458889,-1.2413966655731201,-0.24983833730220795,36.7161046,3.1841729,20.91,0.95,-2.88,-0.28,90,288,3.0504982471466064,3.037454605102539
15,-0.36955586075782776,-2.1307179927825928,-0.10359691828489304,36.71609,3.1841147,21.82,-2.89,-4.39,-0.9,90,237,5.342345714569092,5.2647318840026855
16,-0.518330991268158,-2.1623473167419434,0.013104650191962719,36.716036,3.1840198,23.64,-4.82,-6.88,-1.42,89,236,8.523943901062012,8.404167175292969
17,-0.4251151978969574,-2.163607120513916,-0.00028277240926399827,36.7159518,3.1838691,26.43,-5.56,-8.04,-1.61,89,236,9.919334411621094,9.787721633911133
18,-0.48309242725372314,-2.165316104888916,-0.016696209087967873,36.7158763,3.1837311,28.89,-5.53,-8.2,-1.57,88,235,10.020333290100098,9.895415306091309
19,-0.43418723344802856,-2.1629750728607178,0.028382787480950356,36.7157886,3.1835682,31.76,-5.52,-8.23,-1.59,88,236,10.04783821105957,9.920267105102539
20,-0.4449692368507385,-2.1670358180999756,-0.019598262384533882,36.715714,3.1834294,34.22,-5.53,-8.26,-1.61,88,235,10.072266578674316,9.942424774169922
21,-0.47112399339675903,-2.163461446762085,0.03489546477794647,36.7156267,3.1832662,37.14,-5.48,-8.27,-1.62,87,236,10.056646347045898,9.92527961730957
22,-0.4232841432094574,-2.162921667098999,-0.0020925055723637342,36.715552,3.1831265,39.64,-5.52,-8.26,-1.62,87,236,10.07339096069336,9.942173957824707
23,-0.4732929766178131,-2.1639187335968018,-0.027232708409428596,36.7154774,3.182987,42.13,-5.52,-8.27,-1.62,86,236,10.084860801696777,9.953291893005371
24,-0.4431415796279907,-2.162785291671753,0.03359358385205269,36.7153901,3.1828239,45.04,-5.51,-8.29,-1.64,86,236,10.095853805541992,9.961044311523438
25,-0.4295055568218231,-2.1656813621520996,-0.011919078417122364,36.7153152,3.1826842,47.55,-5.54,-8.28,-1.63,85,235,10.097224235534668,9.963462829589844
26,-0.4840003550052643,-2.164593458175659,0.019366348162293434,36.7152281,3.1825214,50.47,-5.49,-8.29,-1.63,85,235,10.080909729003906,9.947152137756348
27,-0.4264824688434601,-2.163457155227661,0.013807435519993305,36.7151535,3.1823814,52.97,-5.52,-8.32,-1.64,84,236,10.122886657714844,9.988856315612793
28,-0.45473766326904297,-2.166472911834717,-0.025847801938652992,36.7150788,3.1822414,55.48,-5.53,-8.29,-1.63,84,235,10.101022720336914,9.96806812286377
29,-0.23131226003170013,-2.1686878204345703,0.03476470708847046,36.7149958,3.1820874,58.26,-4.71,-6.99,-1.4,83,235,8.55062484741211,8.43441104888916
30,-0.057860180735588074,-2.162853479385376,-0.013856656849384308,36.7149434,3.1819894,59.94,-3.05,-4.63,-0.73,83,236,5.6018242835998535,5.553430080413818
31,-0.15041641891002655,-2.123164653778076,0.04374544322490692,36.7149092,3.1819219,60.6,-2.22,-3.69,-0.19,83,238,4.322536945343018,4.3181915283203125
32,-0.17291221022605896,-2.101954460144043,-0.011846342124044895,36.7148759,3.1818503,60.69,-2.05,-3.66,0.0,82,239,4.203061103820801,4.20305871963501
33,-0.0007219843100756407,-2.103364944458008,0.015348642133176327,36.7148489,3.1817913,60.68,-1.78,-3.17,0.01,82,239,3.6391308307647705,3.639084577560425
34,-0.00296798930503428,-2.325132131576538,-0.030316593125462532,36.7148261,3.1817475,59.79,-1.22,-1.39,1.16,82,226,2.191193103790283,1.8570449352264404
35,-0.012710828334093094,-2.4801595211029053,-0.018599238246679306,36.714811,3.1817309,57.57,-1.03,-0.8,1.45,81,217,1.9619985818862915,1.3133944272994995
36,-0.019210470840334892,-2.47045636177063,0.02284069173038006,36.7147947,3.1817156,54.97,-1.03,-0.82,1.43,81,218,1.9465258121490479,1.319562554359436
37,-0.05486493185162544,-2.470008611679077,-0.020580850541591644,36.7147805,3.1817015,52.73,-1.06,-0.88,1.44,81,218,2.0027928352355957,1.382198691368103
38,-0.019809279590845108,-2.46931529045105,0.030469436198472977,36.714766,3.181687,50.48,-1.07,-0.88,1.45,80,218,2.011122703552246,1.3927490711212158
39,-0.06011827662587166,-2.4694483280181885,0.016743578016757965,36.7147489,3.1816699,47.87,-1.07,-0.88,1.45,80,218,2.0196104049682617,1.395873785018921
40,-0.012120803818106651,-2.469879627227783,-0.016864096745848656,36.7147343,3.1816552,45.62,-1.07,-0.89,1.46,79,218,2.0279359817504883,1.3975639343261719
41,-0.023531116545200348,-2.469547748565674,0.022633129730820656,36.7147173,3.1816381,43.0,-1.07,-0.88,1.47,79,218,2.023427963256836,1.389428734779358
42,-0.053626321256160736,-2.469583511352539,-0.02111632190644741,36.7147028,3.1816235,40.76,-1.06,-0.88,1.47,79,218,2.0255470275878906,1.3875572681427002
43,-0.02738860622048378,-2.469038248062134,0.028712540864944458,36.7146882,3.1816087,38.51,-1.07,-0.89,1.47,78,218,2.0349273681640625,1.3973753452301025
44,-0.056488290429115295,-2.4697318077087402,0.015090313740074635,36.7146712,3.1815914,35.88,-1.06,-0.89,1.47,78,218,2.0279574394226074,1.389723300933838
45,-0.009381111711263657,-2.4696617126464844,-0.00870519783347845,36.7146566,3.1815767,33.63,-1.07,-0.87,1.47,78,218,2.0225367546081543,1.384698748588562
46,-0.027371523901820183,-2.4698877334594727,0.02824726141989231,36.7146396,3.1815597,31.02,-1.06,-0.88,1.48,77,218,2.0296084880828857,1.384874701499939
47,-0.03918149694800377,-2.469114303588867,-0.03075878694653511,36.714625,3.1815449,28.76,-1.06,-0.89,1.48,77,218,2.030872106552124,1.3906676769256592
48,-0.021985890343785286,-2.4692585468292236,0.02766869030892849,36.7146104,3.1815301,26.51,-1.06,-0.88,1.47,77,218,2.020310640335083,1.3802688121795654
49,-0.06088140234351158,-2.469970464706421,0.013328966684639454,36.7145935,3.181513,23.89,-1.05,-0.88,1.47,76,218,2.021759510040283,1.3782331943511963
50,-0.07962001115083694,-2.946418285369873,-0.1115427166223526,36.7145763,3.1815003,21.69,-1.68,-0.4,1.27,76,191,2.148953676223755,1.7306863069534302
51,-0.2154306024312973,2.674224376678467,0.00759756239131093,36.7145358,3.1815133,20.7,-3.46,1.65,-0.03,75,153,3.836988687515259,3.8368630409240723
52,-0.17890344560146332,2.6794588565826416,-0.02749284729361534,36.7144831,3.1815455,20.79,-4.07,2.03,0.0,75,153,4.551854133605957,4.551853179931641
53,-0.027982043102383614,2.8746137619018555,0.17250272631645203,36.7144293,3.1815751,20.75,-3.71,1.01,0.05,75,164,3.8526253700256348,3.852216958999634
54,-0.39386582374572754,-2.235163450241089,0.14017924666404724,36.7143781,3.1815563,20.72,-2.96,-3.3,0.01,74,231,4.442574501037598,4.442531585693359
55,-0.45589548349380493,-2.1407785415649414,0.020060298964381218,36.7143322,3.1814728,20.72,-4.03,-6.4,0.01,74,237,7.572479724884033,7.572467803955078
56,-0.49239057302474976,-2.1473331451416016,-0.0140449870377779,36.7142603,3.1813308,20.73,-4.91,-7.7,0.0,73,236,9.13559341430664,9.135592460632324
57,-0.32661500573158264,-2.150888681411743,0.017268192023038864,36.7141936,3.1812016,20.74,-4.76,-7.36,-0.01,73,236,8.768259048461914,8.768247604370117
58,-0.2369907945394516,-2.1473348140716553,-0.016444571316242218,36.7141343,3.181087,20.74,-3.93,-6.16,0.02,73,236,7.314484596252441,7.314441680908203
59,-0.24689362943172455,-2.1165812015533447,0.0304698683321476,36.7140779,3.180973,20.72,-3.37,-5.67,0.01,72,238,6.603198051452637,6.603189945220947
60,-0.29232046008110046,-2.1000797748565674,-0.021112270653247833,36.7140335,3.1808775,20.72,-3.21,-5.64,0.0,72,239,6.497583389282227,6.4975810050964355
61,-0.1511630415916443,-2.0999364852905273,-0.005592863541096449,36.713983,3.1807672,20.72,-3.04,-5.34,0.0,71,239,6.149203777313232,6.149202346801758
62,0.08323905616998672,-2.100839614868164,0.0043319049291312695,36.7139483,3.1806917,20.71,-1.86,-3.28,0.03,71,239,3.7785208225250244,3.7783362865448
63,0.10750216245651245,-2.100576877593994,-0.02741110883653164,36.7139334,3.1806591,20.71,-0.2,-0.36,-0.02,71,239,0.4206734001636505,0.4200662076473236
64,-0.001144837005995214,-2.1005611419677734,0.06236479431390762,36.7139337,3.1806595,20.7,0.14,0.12,0.03,70,239,0.19959601759910583,0.1959097683429718
