timestamp,pitch,yaw,roll,lat,lon,alt,velocity_x,velocity_y,velocity_z,battery,heading,airspeed,groundspeed
0,0.027676938101649284,-0.037746164947748184,0.01905408501625061,36.7156066,3.1846299,17.16,-0.02,0.03,-0.03,96,357,0.05583462119102478,0.042134303599596024
1,-0.0778929591178894,-0.04523902013897896,0.0799405574798584,36.7156075,3.1846319,17.22,0.27,0.47,-0.02,95,357,0.552085280418396,0.5516362190246582
2,-0.2042546570301056,1.5191845893859863,-0.14581023156642914,36.7156214,3.1846595,17.18,1.64,2.55,-0.01,95,87,3.038221597671509,3.0381863117218018
3,-0.138666570186615,0.848351240158081,0.03237996995449066,36.715649,3.184712,17.21,2.27,3.49,-0.02,95,48,4.169763088226318,4.169675350189209
4,0.020099256187677383,0.9690655469894409,0.01778421550989151,36.7156848,3.184779,17.22,1.91,2.91,0.0,94,55,3.4903018474578857,3.4902946949005127
5,0.38234975934028625,1.0801281929016113,0.02212257869541645,36.7156972,3.1848021,17.2,-0.51,-0.72,0.01,94,61,0.8894651532173157,0.8893411159515381
6,-0.056305330246686935,2.738232374191284,0.21668896079063416,36.715677,3.1847655,17.23,-2.16,-3.09,-0.03,93,156,3.7766759395599365,3.776550054550171
7,-0.13466791808605194,-1.9252045154571533,-0.005923504009842873,36.7156418,3.1847004,17.23,-2.16,-3.25,0.0,93,249,3.9115703105926514,3.9115638732910156
8,0.0010405539069324732,-1.6528575420379639,0.22875288128852844,36.7156231,3.184647,17.21,-0.17,-2.92,0.0,93,265,2.928271532058716,2.928260087966919
9,-0.42499133944511414,-0.6528518199920654,0.09930291771888733,36.7156549,3.1845906,17.21,4.18,-3.19,0.0,92,322,5.2691121101379395,5.269110679626465
10,-0.48418742418289185,-0.6164819002151489,0.03672533854842186,36.7157156,3.184537,17.21,6.46,-4.48,0.0,92,324,7.8689045906066895,7.868899822235107
11,-0.5179431438446045,-0.615726888179779,-0.02744634635746479,36.7158313,3.1844372,17.22,7.84,-5.46,0.0,91,324,9.557548522949219,9.55754566192627
12,-0.3599713146686554,-0.6185481548309326,0.015105980448424816,36.7159553,3.1843286,17.25,7.56,-5.34,-0.02,91,324,9.267916679382324,9.26788330078125
13,-0.08865079283714294,-0.6222710013389587,-0.03140253201127052,36.7160469,3.1842478,17.28,5.64,-4.02,0.04,91,324,6.932214260101318,6.932092189788818
14,0.040215976536273956,-1.1941719055175781,-0.2868764400482178,36.7161043,3.1841836,17.4,1.13,-2.88,-0.25,90,291,3.108764886856079,3.098234176635742
15,-0.41660645604133606,-2.1260719299316406,-0.08087559789419174,36.7160916,3.1841267,18.27,-2.78,-4.31,-0.87,90,238,5.212456226348877,5.137702465057373
16,-0.4522171914577484,-2.1609935760498047,-0.00937430839985609,36.7160275,3.1840138,20.42,-4.96,-7.13,-1.47,89,236,8.812151908874512,8.688438415527344
17,-0.46441683173179626,-2.1620700359344482,-0.04073488339781761,36.7159549,3.1838831,22.83,-5.51,-8.03,-1.6,89,236,9.8773193359375,9.745528221130371
18,-0.4841472804546356,-2.165048360824585,0.029872186481952667,36.7158796,3.1837453,25.29,-5.53,-8.18,-1.58,88,235,10.007918357849121,9.881569862365723
19,-0.43292391300201416,-2.164086103439331,-0.019047319889068604,36.7157919,3.1835828,28.17,-5.54,-8.26,-1.58,88,236,10.076355934143066,9.950697898864746
20,-0.48433545231819153,-2.161968946456909,-0.018832359462976456,36.7157172,3.1834433,30.65,-5.5,-8.25,-1.59,88,236,10.050482749938965,9.923377990722656
21,-0.4297872483730316,-2.1649506092071533,0.03055502474308014,36.7156299,3.1832806,33.54,-5.54,-8.24,-1.61,87,235,10.067418098449707,9.936455726623535
22,-0.4437284767627716,-2.1647746562957764,-0.025204569101333618,36.7155552,3.1831413,36.04,-5.5,-8.27,-1.62,87,235,10.070414543151855,9.939234733581543
23,-0.4899078905582428,-2.1630735397338867,-0.010254139080643654,36.7154806,3.1830015,38.54,-5.52,-8.31,-1.61,86,236,10.114809036254883,9.984436988830566
24,-0.42725518345832825,-2.164254665374756,0.021516617387533188,36.7153933,3.1828383,41.45,-5.51,-8.27,-1.63,86,236,10.074984550476074,9.941575050354004
25,-0.44991302490234375,-2.1667213439941406,-0.024433769285678864,36.7153186,3.1826986,43.95,-5.53,-8.29,-1.63,85,235,10.106258392333984,9.973401069641113
26,-0.4955800175666809,-2.165609359741211,-0.0009635281166993082,36.7152439,3.182559,46.46,-5.52,-8.29,-1.62,85,235,10.099896430969238,9.967891693115234
27,-0.42047151923179626,-2.163116931915283,0.002151984954252839,36.7151567,3.1823955,49.37,-5.5,-8.29,-1.64,84,236,10.0916109085083,9.956985473632812
28,-0.45796364545822144,-2.1654481887817383,-0.026196960359811783,36.7150818,3.1822559,51.88,-5.52,-8.28,-1.63,84,235,10.092151641845703,9.958938598632812
29,-0.2419208288192749,-2.1674416065216064,0.03057740442454815,36.7149985,3.1821009,54.69,-4.75,-7.09,-1.41,83,235,8.656472206115723,8.540193557739258
30,-0.044600680470466614,-2.1632370948791504,-0.009189850650727749,36.7149451,3.1820011,56.4,-3.11,-4.71,-0.75,83,236,5.696732521057129,5.646482467651367
31,-0.1231827363371849,-2.11724591255188,0.035013001412153244,36.7149055,3.1819227,57.14,-2.19,-3.69,-0.15,83,238,4.295363426208496,4.292551040649414
32,-0.16052097082138062,-2.101630687713623,-0.024186119437217712,36.7148772,3.1818615,57.19,-2.07,-3.68,0.0,82,239,4.2273454666137695,4.227336883544922
33,-0.01910199038684368,-2.102858066558838,0.028264835476875305,36.7148498,3.1818017,57.19,-1.82,-3.22,0.0,82,239,3.7017667293548584,3.7017667293548584
34,-0.0015504742041230202,-2.3098578453063965,-0.045972324907779694,36.7148266,3.1817566,56.38,-1.2,-1.41,1.11,82,227,2.1697213649749756,1.8634812831878662
35,-0.005802453961223364,-2.482332944869995,0.0075536142103374004,36.7148116,3.1817399,54.18,-1.03,-0.79,1.46,81,217,1.959415078163147,1.3041720390319824
36,-0.04746891185641289,-2.4712483882904053,0.028332287445664406,36.7147953,3.1817247,51.56,-1.03,-0.83,1.42,81,218,1.9481133222579956,1.3305330276489258
37,-0.020508205518126488,-2.470334053039551,-0.02063700743019581,36.714781,3.1817105,49.32,-1.07,-0.88,1.44,81,218,1.9990501403808594,1.3859655857086182
38,-0.01585533283650875,-2.4695260524749756,0.017097508534789085,36.7147641,3.1816935,46.7,-1.06,-0.88,1.44,80,218,2.000767946243286,1.3827550411224365
39,-0.04224193096160889,-2.469127893447876,-0.024996740743517876,36.7147495,3.1816789,44.46,-1.07,-0.88,1.44,80,218,2.0092175006866455,1.3921623229980469
40,-0.021671490743756294,-2.469555616378784,0.026991404592990875,36.7147349,3.1816643,42.22,-1.07,-0.86,1.46,79,218,2.0114779472351074,1.3823177814483643
41,-0.05687061697244644,-2.4694924354553223,0.0022962610237300396,36.7147179,3.1816471,39.6,-1.06,-0.88,1.46,79,218,2.017740488052368,1.3857327699661255
42,-0.009473931044340134,-2.4699766635894775,0.002637967001646757,36.7147034,3.1816325,37.35,-1.07,-0.88,1.46,79,218,2.0221569538116455,1.3940019607543945
43,-0.059443142265081406,-2.469069719314575,-0.0067735640332102776,36.7146888,3.1816177,35.11,-1.06,-0.89,1.47,78,218,2.0250539779663086,1.3912830352783203
44,-0.027711719274520874,-2.4697394371032715,-0.02359653078019619,36.7146718,3.1816005,32.48,-1.07,-0.88,1.47,78,218,2.030895709991455,1.3923234939575195
45,-0.04826247692108154,-2.469703435897827,0.0258355513215065,36.7146572,3.1815858,30.23,-1.06,-0.88,1.47,78,218,2.0215044021606445,1.3856509923934937
46,-0.0556153729557991,-2.4695184230804443,-0.01403890922665596,36.7146401,3.1815686,27.61,-1.06,-0.88,1.47,77,218,2.0259385108947754,1.3896582126617432
47,-0.015250256285071373,-2.469238758087158,0.02107178047299385,36.7146256,3.1815539,25.37,-1.06,-0.87,1.48,77,218,2.0212855339050293,1.3762094974517822
48,-0.051704633980989456,-2.4691834449768066,-0.02139618806540966,36.714611,3.1815392,23.11,-1.06,-0.89,1.47,77,218,2.028304100036621,1.389830231666565
49,-0.009414028376340866,-2.4697134494781494,-0.011964733712375164,36.714594,3.181522,20.48,-1.07,-0.87,1.47,76,218,2.0220088958740234,1.3874132633209229
50,-0.12719814479351044,-2.8978257179260254,-0.08932575583457947,36.7145772,3.181509,18.28,-1.62,-0.45,1.3,76,193,2.135964870452881,1.6909135580062866
51,-0.2439197152853012,2.674391746520996,-0.05169273167848587,36.7145378,3.1815205,17.2,-3.42,1.62,-0.01,75,153,3.7913689613342285,3.79131817817688
52,-0.1821749359369278,2.6799395084381104,0.02082231640815735,36.7144855,3.1815523,17.3,-4.07,2.03,0.0,75,153,4.554819583892822,4.554808616638184
53,-0.05231974273920059,2.950349807739258,0.16870103776454926,36.7144229,3.1815855,17.25,-3.61,0.68,0.05,75,169,3.6798524856567383,3.6794724464416504
54,-0.33273807168006897,-2.245741844177246,0.15712429583072662,36.7143799,3.1815673,17.23,-2.93,-3.15,0.01,74,231,4.310573101043701,4.310527324676514
55,-0.49563413858413696,-2.1392569541931152,-0.026124173775315285,36.7143347,3.181486,17.23,-3.96,-6.32,0.01,74,237,7.460657119750977,7.460637092590332
56,-0.4507209360599518,-2.1472532749176025,0.023762527853250504,36.7142632,3.1813448,17.24,-4.9,-7.68,0.0,73,236,9.116860389709473,9.116859436035156
57,-0.3460811376571655,-2.1514627933502197,-0.027666505426168442,36.7141963,3.1812153,17.26,-4.78,-7.38,0.0,73,236,8.8002290725708,8.800225257873535
58,-0.22228579223155975,-2.145033597946167,0.042672038078308105,36.7141279,3.1810831,17.26,-3.82,-6.02,0.03,73,237,7.135112762451172,7.135043144226074
59,-0.2651856243610382,-2.1178956031799316,-0.012705131433904171,36.7140799,3.1809855,17.24,-3.38,-5.69,0.02,72,238,6.621923923492432,6.621892929077148
60,-0.300387978553772,-2.1009278297424316,0.021207433193922043,36.7140355,3.1808902,17.24,-3.21,-5.64,0.01,72,239,6.493314266204834,6.493304252624512
61,-0.19020359218120575,-2.1005706787109375,-0.02466798759996891,36.7139849,3.1807798,17.24,-3.08,-5.4,0.0,71,239,6.222293853759766,6.222293376922607
62,0.09440576285123825,-2.1010053157806396,0.02970319241285324,36.7139495,3.1807026,17.22,-1.96,-3.43,0.04,71,239,3.95707106590271,3.9568536281585693
63,0.09042458236217499,-2.1000101566314697,-0.011184870265424252,36.7139335,3.1806675,17.22,-0.22,-0.41,-0.02,71,239,0.4702972173690796,0.46980205178260803
64,0.025165218859910965,-2.0997488498687744,0.0434563085436821,36.7139338,3.1806679,17.21,0.13,0.14,0.03,70,239,0.20240308344364166,0.19888342916965485
