timestamp,pitch,yaw,roll,lat,lon,alt,velocity_x,velocity_y,velocity_z,battery,heading,airspeed,groundspeed
0,0.01855221763253212,-0.04986203834414482,0.026254871860146523,36.7156066,3.1846299,20.52,-0.02,0.03,0.02,96,357,0.047936826944351196,0.040781259536743164
1,-0.07308867573738098,-0.05401555448770523,0.07620732486248016,36.7156078,3.1846324,20.48,0.32,0.54,-0.01,95,356,0.6357229948043823,0.6356263756752014
2,-0.16602468490600586,1.4502463340759277,-0.10471080243587494,36.7156192,3.1846546,20.47,1.48,2.27,-0.02,95,83,2.7192795276641846,2.719179391860962
3,-0.13417503237724304,0.8674942851066589,0.03307800740003586,36.7156501,3.1847126,20.5,2.21,3.36,-0.03,95,49,4.031533241271973,4.031399726867676
4,0.0077937874011695385,0.9525532126426697,-0.024036932736635208,36.71568,3.184768,20.52,1.97,2.92,-0.01,94,54,3.5301613807678223,3.5301170349121094
5,0.35952699184417725,1.0743721723556519,0.0160019900649786,36.7156931,3.1847913,20.51,-0.81,-1.18,0.0,94,61,1.4322251081466675,1.4322245121002197
6,-0.06457354873418808,2.852165699005127,0.19717639684677124,36.7156705,3.1847504,20.55,-2.21,-3.15,-0.02,93,163,3.861269235610962,3.861177444458008
7,-0.12515655159950256,-1.902867078781128,0.0306610856205225,36.7156353,3.1846853,20.53,-2.08,-3.23,0.0,93,247,3.929969310760498,3.9299657344818115
8,-0.028672941029071808,-1.496959924697876,0.24421918392181396,36.7156199,3.1846325,20.52,0.22,-2.86,0.0,93,274,2.869946241378784,2.869940757751465
9,-0.42990198731422424,-0.6629651784896851,0.08860553801059723,36.7156488,3.1845841,20.52,4.01,-3.14,0.0,92,322,5.097626209259033,5.097625732421875
10,-0.494171142578125,-0.6276667714118958,-0.01406015083193779,36.7157379,3.1845053,20.52,6.96,-4.84,-0.01,92,324,8.484119415283203,8.484111785888672
11,-0.5216224789619446,-0.6225271821022034,-0.0033632151316851377,36.7158398,3.1844166,20.54,7.86,-5.52,0.0,91,324,9.613390922546387,9.613390922546387
12,-0.39662712812423706,-0.62221759557724,0.03343406319618225,36.7159456,3.1843233,20.56,7.6,-5.41,-0.02,91,324,9.33849048614502,9.33846664428711
13,-0.06621956080198288,-0.6278055310249329,-0.04112651199102402,36.7160509,3.1842299,20.59,5.22,-3.78,0.04,91,324,6.454041957855225,6.45386266708374
14,0.05492020770907402,-1.155903935432434,-0.26424312591552734,36.7160975,3.184176,20.7,1.25,-2.88,-0.23,90,293,3.1533775329589844,3.144382953643799
15,-0.4254092872142792,-2.1348633766174316,-0.026734666898846626,36.7160797,3.1841076,21.77,-3.17,-4.62,-0.96,90,237,5.694812297821045,5.612303733825684
16,-0.4464466869831085,-2.162069797515869,0.002974869916215539,36.7160229,3.1840083,23.66,-4.9,-7.08,-1.46,89,236,8.73830795288086,8.613832473754883
17,-0.46965453028678894,-2.1634533405303955,-0.0352887362241745,36.7159506,3.183878,26.07,-5.51,-8.02,-1.6,89,236,9.87404727935791,9.742527961730957
18,-0.43816041946411133,-2.163496732711792,0.03091738186776638,36.7158629,3.1837171,28.95,-5.52,-8.2,-1.57,88,236,10.01992416381836,9.894826889038086
19,-0.4261991083621979,-2.1639726161956787,-0.021691715344786644,36.7157878,3.1835777,31.41,-5.55,-8.25,-1.59,88,236,10.076742172241211,9.95045280456543
20,-0.47779762744903564,-2.1634013652801514,0.028890764340758324,36.7157003,3.1834149,34.3,-5.52,-8.26,-1.6,87,236,10.06995677947998,9.94157600402832
21,-0.43757209181785583,-2.1628830432891846,0.028042884543538094,36.7156257,3.1832758,36.78,-5.55,-8.28,-1.62,87,236,10.102042198181152,9.971295356750488
22,-0.4869993329048157,-2.164555549621582,-0.008291754871606827,36.7155383,3.1831125,39.7,-5.5,-8.28,-1.61,87,235,10.079205513000488,9.948705673217773
23,-0.49470528960227966,-2.165405511856079,0.0019085834501311183,36.715476,3.1829962,41.78,-5.5,-8.28,-1.61,86,235,10.075383186340332,9.94429874420166
24,-0.4211842715740204,-2.1626574993133545,0.0005569627392105758,36.7153889,3.1828329,44.69,-5.51,-8.3,-1.63,86,236,10.099919319152832,9.967240333557129
25,-0.4924967288970947,-2.166477680206299,0.011305294930934906,36.7153017,3.1826701,47.61,-5.53,-8.27,-1.62,85,235,10.085174560546875,9.953009605407715
26,-0.4478324055671692,-2.1639232635498047,0.0382159948348999,36.7152269,3.1825302,50.13,-5.5,-8.3,-1.63,85,236,10.090575218200684,9.957893371582031
27,-0.47850021719932556,-2.1629385948181152,-0.029308419674634933,36.7151399,3.1823669,53.05,-5.52,-8.29,-1.62,84,236,10.093851089477539,9.961865425109863
28,-0.47440066933631897,-2.1636874675750732,0.01973731443285942,36.7150651,3.1822272,55.54,-5.52,-8.26,-1.63,84,236,10.077922821044922,9.944321632385254
29,-0.22727170586585999,-2.167966604232788,0.0182208064943552,36.7149936,3.182095,57.93,-4.79,-7.12,-1.43,84,235,8.712080955505371,8.593503952026367
30,-0.08881115168333054,-2.158905506134033,0.017083918675780296,36.7149331,3.1819817,59.86,-2.89,-4.46,-0.66,83,236,5.359633445739746,5.317605972290039
31,-0.1110791563987732,-2.105963706970215,0.0073179523460567,36.7149005,3.1819156,60.45,-2.14,-3.72,-0.16,83,239,4.299576759338379,4.2964863777160645
32,-0.1808832585811615,-2.0859014987945557,0.0026753535494208336,36.714873,3.1818541,60.5,-1.99,-3.68,0.0,82,240,4.1908087730407715,4.190800666809082
33,-0.0015816334635019302,-2.088587999343872,-0.03299746289849281,36.7148426,3.1817852,60.48,-1.66,-3.03,0.05,82,240,3.456864595413208,3.456387519836426
34,0.011102329008281231,-2.296663999557495,-0.025965938344597816,36.7148238,3.1817481,59.72,-1.21,-1.45,1.09,82,228,2.183035135269165,1.890938401222229
35,-0.057384975254535675,-2.472895860671997,-0.0066060409881174564,36.7148064,3.181729,57.14,-1.03,-0.8,1.44,81,218,1.9480198621749878,1.3111145496368408
36,-0.013543453998863697,-2.4710726737976074,0.015489357523620129,36.7147924,3.1817158,54.9,-1.04,-0.83,1.42,81,218,1.9541298151016235,1.3398056030273438
37,-0.04894764721393585,-2.47013521194458,0.025293128564953804,36.7147757,3.1816993,52.29,-1.06,-0.87,1.43,81,218,1.991733193397522,1.3800019025802612
38,-0.02344643697142601,-2.469801902770996,-0.020893678069114685,36.7147612,3.1816847,50.06,-1.08,-0.88,1.45,80,218,2.0173652172088623,1.4019659757614136
39,-0.04813980683684349,-2.4697840213775635,0.025577668100595474,36.7147466,3.1816701,47.81,-1.07,-0.87,1.45,80,218,2.008033514022827,1.3830149173736572
40,-0.057977136224508286,-2.4693257808685303,-0.012014352716505527,36.7147295,3.181653,45.19,-1.07,-0.89,1.46,79,218,2.020355701446533,1.3957223892211914
41,-0.015208063647150993,-2.4693500995635986,0.0222854595631361,36.714715,3.1816384,42.95,-1.06,-0.87,1.46,79,218,2.0131938457489014,1.3808181285858154
42,-0.05730500817298889,-2.4702107906341553,0.02019234374165535,36.714698,3.1816212,40.33,-1.06,-0.88,1.46,79,218,2.0162761211395264,1.3808207511901855
43,-0.007923037745058537,-2.469285249710083,-0.008660104125738144,36.7146834,3.1816065,38.07,-1.06,-0.88,1.46,78,218,2.020648241043091,1.388875961303711
44,-0.05691170319914818,-2.4696483612060547,0.01665784977376461,36.7146688,3.1815918,35.83,-1.05,-0.88,1.47,78,218,2.016632556915283,1.3787543773651123
45,-0.04477636143565178,-2.469294548034668,-0.022857926785945892,36.7146518,3.1815746,33.21,-1.06,-0.88,1.47,78,218,2.02596378326416,1.3894784450531006
46,-0.02430221252143383,-2.469594955444336,0.02392634190618992,36.7146372,3.1815599,30.96,-1.05,-0.88,1.47,77,218,2.0196659564971924,1.3782179355621338
47,-0.06000387296080589,-2.469637155532837,0.010001038201153278,36.7146202,3.1815427,28.34,-1.06,-0.88,1.48,77,218,2.030858278274536,1.3866863250732422
48,-0.008027722127735615,-2.4696218967437744,-0.005215617828071117,36.7146056,3.1815279,26.09,-1.07,-0.87,1.48,77,218,2.0272412300109863,1.3843642473220825
49,-0.06287684291601181,-2.4697635173797607,0.005857453681528568,36.714591,3.1815132,23.83,-1.05,-0.88,1.47,76,218,2.0216150283813477,1.379396915435791
50,-0.12644067406654358,-3.054659605026245,-0.1369975209236145,36.7145705,3.1814991,21.3,-1.81,-0.23,1.16,76,184,2.1724841594696045,1.8341580629348755
51,-0.22942766547203064,2.675132989883423,0.0033369846642017365,36.7145354,3.1815109,20.51,-3.38,1.6,-0.01,75,153,3.748208999633789,3.7481698989868164
52,-0.19281911849975586,2.679727792739868,-0.011571533977985382,36.7144738,3.1815486,20.61,-4.06,2.04,0.02,75,153,4.550434112548828,4.550389766693115
53,0.0001590329920873046,2.9484424591064453,0.1791047602891922,36.7144205,3.1815763,20.56,-3.61,0.72,0.05,75,168,3.6860733032226562,3.6856935024261475
54,-0.3819599151611328,-2.26236629486084,0.13900557160377502,36.7143774,3.1815591,20.54,-2.94,-3.1,0.02,74,230,4.2769646644592285,4.276907444000244
55,-0.45894110202789307,-2.1444292068481445,-0.011899987235665321,36.7143232,3.1814605,20.54,-4.17,-6.6,0.01,74,237,7.813228607177734,7.813220024108887
56,-0.4976283311843872,-2.146393299102783,-0.023888736963272095,36.7142611,3.1813381,20.55,-4.9,-7.71,0.0,73,237,9.1396484375,9.1396484375
57,-0.3032344877719879,-2.152156352996826,-0.001791411079466343,36.7141835,3.1811877,20.57,-4.69,-7.21,0.0,73,236,8.607695579528809,8.607691764831543
58,-0.2530243396759033,-2.1458797454833984,-0.005069728009402752,36.7141253,3.1810753,20.57,-3.83,-6.03,0.03,73,237,7.1541428565979,7.154063701629639
59,-0.25926607847213745,-2.117953300476074,0.04240472987294197,36.7140774,3.1809781,20.55,-3.36,-5.66,0.02,72,238,6.590475082397461,6.590436935424805
60,-0.31138819456100464,-2.0997307300567627,-0.00514942966401577,36.7140259,3.1808672,20.55,-3.21,-5.65,0.01,72,239,6.510214328765869,6.510202407836914
61,-0.16537773609161377,-2.099996566772461,0.01873442716896534,36.7139825,3.1807723,20.55,-3.09,-5.42,0.0,71,239,6.240932464599609,6.240931510925293
62,0.11931625008583069,-2.100863456726074,0.02065996080636978,36.7139424,3.1806853,20.52,-1.68,-2.94,0.03,71,239,3.391272783279419,3.3910458087921143
63,0.1398017704486847,-2.1009438037872314,-0.01940641924738884,36.7139304,3.1806587,20.53,-0.24,-0.43,-0.02,71,239,0.5006465911865234,0.5001612901687622
64,-0.02393871732056141,-2.101025342941284,0.042957160621881485,36.7139305,3.1806589,20.52,0.12,0.13,0.03,70,239,0.1926131546497345,0.1891312301158905
