timestamp,pitch,yaw,roll,lat,lon,alt,velocity_x,velocity_y,velocity_z,battery,heading,airspeed,groundspeed
0,0.022731536999344826,-0.0499393530189991,-0.01420292817056179,36.7156067,3.1846299,21.42,-0.02,0.02,-0.03,96,357,0.053808651864528656,0.04052460193634033
1,-0.07494260370731354,-0.057601939886808395,0.10980565845966339,36.7156078,3.1846318,21.37,0.3,0.46,-0.02,95,356,0.5596270561218262,0.5590015053749084
2,-0.2318965643644333,1.3683180809020996,-0.09805567562580109,36.7156238,3.1846572,21.4,1.84,2.33,-0.04,95,78,2.9718360900878906,2.9715611934661865
3,-0.1427440494298935,0.8300365209579468,-0.012658361345529556,36.7156545,3.1847054,21.42,2.54,3.23,-0.01,95,47,4.113775730133057,4.113726615905762
4,0.04387780278921127,0.882959246635437,0.023944657295942307,36.7156946,3.1847672,21.41,2.19,2.68,0.0,94,50,3.468245029449463,3.46823787689209
5,0.3115764856338501,0.4372466504573822,-0.1989453285932541,36.7157098,3.1847875,21.44,-0.38,-0.78,-0.02,94,25,0.8721439838409424,0.8716690540313721
6,-0.08940188586711884,-1.134523630142212,-0.1397721916437149,36.7156902,3.1847502,21.42,-2.15,-3.13,0.05,93,295,3.802281379699707,3.8019003868103027
7,-0.11578252911567688,-2.365299701690674,0.06599699705839157,36.7156549,3.1846859,21.47,-2.19,-3.27,0.0,93,224,3.944498062133789,3.9444947242736816
8,0.0030815391801297665,-1.6745107173919678,0.21437621116638184,36.715636,3.1846319,21.42,-0.19,-2.93,0.02,93,264,2.9441475868225098,2.944002628326416
9,-0.40367892384529114,-0.66302490234375,0.10605422407388687,36.715668,3.1845749,21.41,4.19,-3.19,0.0,92,322,5.270813941955566,5.270811557769775
10,-0.4989214539527893,-0.6278330683708191,-0.015019572339951992,36.7157435,3.1845084,21.42,6.8,-4.7,0.0,92,324,8.275163650512695,8.275162696838379
11,-0.5233789682388306,-0.6216485500335693,-0.002007721923291683,36.7158441,3.184421,21.43,7.85,-5.5,0.0,91,324,9.59461498260498,9.594615936279297
12,-0.3515416383743286,-0.6234629154205322,-0.0003464429173618555,36.7159677,3.184312,21.45,7.53,-5.36,-0.01,91,324,9.244049072265625,9.244028091430664
13,-0.09306635707616806,-0.6252915263175964,-0.028367329388856888,36.7160585,3.1842313,21.48,5.56,-3.97,0.04,91,324,6.836944580078125,6.836818695068359
14,0.017718693241477013,-1.2304985523223877,-0.2997177243232727,36.716114,3.1841673,21.61,1.02,-2.89,-0.27,90,289,3.081922769546509,3.070006847381592
15,-0.41494593024253845,-2.125699043273926,-0.06310563534498215,36.7161002,3.1841095,22.51,-2.84,-4.36,-0.89,90,238,5.285130977630615,5.208669662475586
16,-0.4463233947753906,-2.163036823272705,0.01700473763048649,36.7160466,3.1840152,24.32,-4.8,-6.85,-1.41,89,236,8.48999309539795,8.370606422424316
17,-0.48338884115219116,-2.162379503250122,-0.029407352209091187,36.7159626,3.1838646,27.11,-5.55,-8.01,-1.59,89,236,9.882757186889648,9.752708435058594
18,-0.46902525424957275,-2.165550470352173,0.039582595229148865,36.7158871,3.1837269,29.55,-5.53,-8.18,-1.58,88,235,10.010787963867188,9.88485050201416
19,-0.44636037945747375,-2.16389799118042,-0.02809733711183071,36.7157995,3.1835642,32.43,-5.53,-8.25,-1.59,88,236,10.067004203796387,9.940095901489258
20,-0.49135705828666687,-2.1631693840026855,-0.004367901012301445,36.7157248,3.183425,34.91,-5.51,-8.27,-1.59,88,236,10.070725440979004,9.943202018737793
21,-0.4669080674648285,-2.1638596057891846,0.04323046654462814,36.7156501,3.1832854,37.39,-5.5,-8.25,-1.61,87,236,10.05659294128418,9.926127433776855
22,-0.4452674984931946,-2.1640899181365967,-0.022966649383306503,36.7155628,3.1831225,40.3,-5.51,-8.25,-1.62,87,236,10.064092636108398,9.932409286499023
23,-0.49925652146339417,-2.164706230163574,0.002969615627080202,36.7154882,3.1829833,42.8,-5.51,-8.28,-1.62,86,235,10.084447860717773,9.952590942382812
24,-0.422970712184906,-2.164926052093506,0.012114250101149082,36.7154008,3.18282,45.71,-5.52,-8.31,-1.63,86,235,10.114322662353516,9.980484008789062
25,-0.4544670581817627,-2.1647098064422607,-0.028708480298519135,36.7153261,3.18268,48.22,-5.49,-8.31,-1.63,85,235,10.09421157836914,9.961389541625977
26,-0.4744431972503662,-2.16355562210083,0.036834027618169785,36.7152393,3.182517,51.14,-5.52,-8.28,-1.63,85,236,10.088475227355957,9.955080032348633
27,-0.423706591129303,-2.1641628742218018,0.012475765310227871,36.7151643,3.1823772,53.64,-5.53,-8.28,-1.64,84,236,10.09544563293457,9.96131706237793
28,-0.4562612771987915,-2.1660611629486084,-0.02381768450140953,36.7150894,3.1822374,56.14,-5.52,-8.3,-1.64,84,235,10.10577392578125,9.971805572509766
29,-0.2375042736530304,-2.168212652206421,0.03336045891046524,36.7150064,3.182083,58.94,-4.71,-7.03,-1.4,83,235,8.588746070861816,8.472905158996582
30,-0.04597049951553345,-2.1620566844940186,-0.0038529899902641773,36.7149537,3.1819844,60.63,-3.07,-4.65,-0.73,83,236,5.627685070037842,5.579191207885742
31,-0.16215191781520844,-2.1133670806884766,0.035998549312353134,36.7149198,3.1819167,61.31,-2.17,-3.7,-0.2,83,238,4.306861400604248,4.302119731903076
32,-0.16316331923007965,-2.086012125015259,-0.0243244469165802,36.7148875,3.181845,61.39,-2.0,-3.68,0.0,82,240,4.195061206817627,4.195052623748779
33,-0.021816536784172058,-2.087387800216675,0.02767704240977764,36.7148612,3.1817855,61.39,-1.73,-3.19,0.01,82,240,3.632478713989258,3.6324501037597656
34,-0.007692708633840084,-2.316033124923706,-0.05511439964175224,36.7148389,3.1817412,60.52,-1.19,-1.4,1.15,82,227,2.177877902984619,1.8466873168945312
35,-0.011053853668272495,-2.480849504470825,0.012428168207406998,36.714824,3.1817246,58.3,-1.02,-0.79,1.46,81,217,1.9569849967956543,1.301011323928833
36,-0.05923176556825638,-2.472322702407837,-0.01464025117456913,36.71481,3.1817115,56.06,-1.04,-0.83,1.42,81,218,1.954492449760437,1.3340176343917847
37,-0.013239311054348946,-2.470311403274536,-0.010994695127010345,36.7147933,3.1816952,53.45,-1.07,-0.87,1.44,81,218,1.9981352090835571,1.3813096284866333
38,-0.05913911014795303,-2.4697978496551514,0.01379413902759552,36.7147787,3.1816807,51.2,-1.05,-0.88,1.45,80,218,2.001357316970825,1.3793237209320068
39,-0.03040006197988987,-2.4693973064422607,-0.024505535140633583,36.7147618,3.1816637,48.58,-1.07,-0.89,1.45,80,218,2.013406991958618,1.3940101861953735
40,-0.03839337080717087,-2.469515562057495,0.02914159558713436,36.7147473,3.1816489,46.34,-1.07,-0.88,1.46,79,218,2.018509864807129,1.3919973373413086
41,-0.05760880559682846,-2.4691884517669678,-0.012356414459645748,36.7147302,3.1816318,43.73,-1.07,-0.89,1.47,79,218,2.0268380641937256,1.3928803205490112
42,-0.015822935849428177,-2.4696335792541504,0.01735682040452957,36.7147157,3.1816172,41.47,-1.06,-0.88,1.47,79,218,2.020641565322876,1.386088490486145
43,-0.05027684196829796,-2.4691717624664307,-0.022966472432017326,36.7147011,3.1816024,39.23,-1.07,-0.89,1.47,78,218,2.028528928756714,1.3960081338882446
44,-0.010010247118771076,-2.4697635173797607,-0.012768153101205826,36.7146841,3.1815851,36.61,-1.07,-0.88,1.48,78,218,2.0325124263763428,1.3921334743499756
45,-0.06583306938409805,-2.4693245887756348,0.00437035271897912,36.7146694,3.1815704,34.36,-1.06,-0.88,1.48,78,218,2.0283524990081787,1.3851585388183594
46,-0.034966759383678436,-2.4699783325195312,-0.02338499017059803,36.7146524,3.1815534,31.73,-1.07,-0.88,1.47,77,218,2.028686046600342,1.389801025390625
47,-0.038171615451574326,-2.4695022106170654,0.027408812195062637,36.7146379,3.1815386,29.49,-1.05,-0.88,1.48,77,218,2.022369623184204,1.3756489753723145
48,-0.026242999359965324,-2.46954083442688,-0.02401903085410595,36.7146233,3.1815238,27.24,-1.06,-0.88,1.48,77,218,2.0288562774658203,1.3842878341674805
49,-0.058529678732156754,-2.4696836471557617,0.02569625899195671,36.7146088,3.1815091,24.98,-1.06,-0.88,1.47,76,218,2.028620481491089,1.387934923171997
50,-0.12533865869045258,-2.934213876724243,-0.11793006211519241,36.7145891,3.1814939,22.41,-1.68,-0.4,1.27,76,191,2.149660110473633,1.729913592338562
51,-0.20850074291229248,2.6733815670013428,-0.0382615365087986,36.7145489,3.1815067,21.4,-3.43,1.66,-0.03,75,153,3.818608522415161,3.8184773921966553
52,-0.1982600837945938,2.6799163818359375,0.0019396607531234622,36.7144963,3.1815388,21.5,-4.07,2.02,0.0,75,153,4.548731803894043,4.548730850219727
53,-0.009789790026843548,2.8724286556243896,0.14582014083862305,36.7144423,3.1815685,21.45,-3.71,1.02,0.05,75,164,3.8517374992370605,3.851349353790283
54,-0.3736208379268646,-2.2366952896118164,0.16072288155555725,36.7143913,3.1815505,21.43,-2.95,-3.26,0.02,74,231,4.404952049255371,4.404903888702393
55,-0.45754754543304443,-2.14151930809021,-0.012714065611362457,36.7143456,3.1814676,21.43,-4.02,-6.38,0.01,74,237,7.548866271972656,7.548852443695068
56,-0.48773548007011414,-2.148850202560425,0.025058729574084282,36.7142737,3.1813256,21.44,-4.9,-7.71,0.0,73,236,9.141712188720703,9.141711235046387
57,-0.3210422098636627,-2.152036190032959,0.006040095817297697,36.714207,3.1811963,21.46,-4.77,-7.35,-0.01,73,236,8.767790794372559,8.767784118652344
58,-0.24883656203746796,-2.1477813720703125,-0.011799958534538746,36.7141477,3.1810819,21.46,-3.94,-6.17,0.02,73,236,7.326163291931152,7.326101779937744
59,-0.24444760382175446,-2.1165168285369873,0.019469503313302994,36.7140912,3.1809677,21.43,-3.37,-5.69,0.01,72,238,6.6201372146606445,6.620117664337158
60,-0.29176533222198486,-2.0998711585998535,-0.018328234553337097,36.7140469,3.1808721,21.44,-3.22,-5.65,0.0,72,239,6.5060648918151855,6.5060577392578125
61,-0.14883141219615936,-2.100130796432495,0.003927872981876135,36.7139963,3.1807618,21.44,-3.06,-5.34,0.0,71,239,6.158453941345215,6.158454418182373
62,0.08231043070554733,-2.1005938053131104,-0.009114360436797142,36.7139614,3.1806859,21.42,-1.9,-3.3,0.03,71,239,3.8162765502929688,3.816075325012207
63,0.1263066828250885,-2.1005184650421143,-0.023265859112143517,36.7139462,3.1806526,21.42,-0.2,-0.38,-0.02,71,239,0.43167078495025635,0.4311503767967224
64,-0.020651651546359062,-2.1013882160186768,0.057468727231025696,36.7139466,3.180653,21.41,0.14,0.12,0.04,70,239,0.19540263712406158,0.19124861061573029
