timestamp,pitch,yaw,roll,lat,lon,alt,velocity_x,velocity_y,velocity_z,battery,heading,airspeed,groundspeed
0,0.02805502712726593,-0.008864146657288074,-0.001953170634806156,36.7156066,3.1846299,18.36,-0.02,0.02,0.01,96,359,0.038237664848566055,0.035808175802230835
1,-0.07371221482753754,-0.01800156757235527,0.10798987746238708,36.7156077,3.1846321,18.38,0.28,0.52,0.0,95,358,0.5986261367797852,0.5986086130142212
2,-0.19915735721588135,1.4345901012420654,-0.11604666709899902,36.7156181,3.1846531,18.33,1.37,2.22,-0.01,95,82,2.6178698539733887,2.6178245544433594
3,-0.14002470672130585,0.893512487411499,-0.005625070072710514,36.7156476,3.1847119,18.37,2.15,3.46,-0.03,95,51,4.080424785614014,4.080245494842529
4,-0.04733267053961754,0.9764197468757629,0.0047020516358315945,36.7156774,3.1847701,18.4,2.04,3.18,-0.02,94,55,3.7847373485565186,3.7846689224243164
5,0.3319394588470459,1.203555703163147,0.05975193902850151,36.7156943,3.1848024,18.4,-0.48,-0.65,0.01,94,68,0.8138531446456909,0.8137743473052979
6,-0.02856055088341236,2.804809093475342,0.21007706224918365,36.7156743,3.1847665,18.43,-2.15,-3.05,-0.03,93,160,3.7407045364379883,3.7405712604522705
7,-0.14189332723617554,-1.992863416671753,-0.03202296420931816,36.7156439,3.1847111,18.43,-2.22,-3.27,0.0,93,245,3.960861921310425,3.960852861404419
8,-0.020751681178808212,-1.659417748451233,0.18379433453083038,36.71562,3.1846482,18.41,-0.23,-2.95,0.0,93,264,2.9652037620544434,2.965191602706909
9,-0.3876710534095764,-0.6609473824501038,0.1191510260105133,36.7156421,3.1846002,18.41,3.54,-3.01,0.0,92,322,4.650683403015137,4.6506829261779785
10,-0.529183030128479,-0.6257686614990234,-0.013346962630748749,36.7157253,3.1845255,18.41,6.74,-4.7,0.0,92,324,8.224247932434082,8.22424602508545
11,-0.5146166682243347,-0.6190015077590942,0.022877734154462814,36.7158253,3.1844386,18.43,7.84,-5.48,0.0,91,324,9.576380729675293,9.576377868652344
12,-0.38050171732902527,-0.6212539672851562,0.0033786946441978216,36.7159318,3.1843449,18.45,7.69,-5.47,-0.01,91,324,9.443072319030762,9.44305419921875
13,-0.09818693995475769,-0.6253567934036255,0.009295410476624966,36.7160409,3.1842481,18.48,5.61,-4.03,0.04,91,324,6.914985656738281,6.914864540100098
14,0.08606190979480743,-0.998029887676239,-0.26421046257019043,36.7160944,3.1841919,18.54,1.87,-2.92,-0.16,90,302,3.478455066680908,3.4743266105651855
15,-0.35768699645996094,-2.131333351135254,-0.05135907605290413,36.7160851,3.184127,19.46,-2.77,-4.31,-0.88,90,237,5.209132194519043,5.133853435516357
16,-0.4798414707183838,-2.1645023822784424,-0.0268558356910944,36.716032,3.1840336,21.24,-4.73,-6.82,-1.41,89,235,8.425315856933594,8.30480670928955
17,-0.5010782480239868,-2.162764072418213,0.006652532145380974,36.715961,3.1839059,23.61,-5.48,-7.99,-1.6,89,236,9.825675964355469,9.693004608154297
18,-0.43329712748527527,-2.16516375541687,-0.016303865239024162,36.7158733,3.1837456,26.5,-5.54,-8.17,-1.57,88,235,9.99853229522705,9.873568534851074
19,-0.4845207929611206,-2.164379835128784,-0.021320737898349762,36.7157982,3.1836066,28.96,-5.55,-8.26,-1.58,88,236,10.082971572875977,9.95805835723877
20,-0.43244025111198425,-2.1642425060272217,0.024537816643714905,36.7157109,3.1834436,31.85,-5.54,-8.27,-1.6,88,236,10.08997631072998,9.962175369262695
21,-0.4314536452293396,-2.16440486907959,-0.01872129924595356,36.7156359,3.1833039,34.33,-5.52,-8.28,-1.6,87,235,10.088516235351562,9.959527015686035
22,-0.4656963646411896,-2.1631250381469727,0.027797119691967964,36.7155486,3.1831407,37.24,-5.51,-8.26,-1.62,87,236,10.067419052124023,9.935108184814453
23,-0.45325544476509094,-2.1641900539398193,0.03592972457408905,36.7154862,3.1830245,39.32,-5.5,-8.26,-1.63,86,236,10.061749458312988,9.92857551574707
24,-0.4680740535259247,-2.1662166118621826,-0.02889084257185459,36.7153993,3.182862,42.24,-5.5,-8.28,-1.62,86,235,10.08498477935791,9.952768325805664
25,-0.4499601721763611,-2.163705587387085,0.03636981174349785,36.7153121,3.1826986,45.16,-5.5,-8.29,-1.63,85,236,10.093914031982422,9.960439682006836
26,-0.4296782612800598,-2.1637330055236816,-0.01499249879270792,36.7152373,3.1825585,47.66,-5.52,-8.28,-1.63,85,236,10.092907905578613,9.959854125976562
27,-0.4884414076805115,-2.1635406017303467,-0.018444277346134186,36.7151626,3.182419,50.17,-5.52,-8.3,-1.62,84,236,10.106122970581055,9.974328994750977
28,-0.4322713017463684,-2.164841890335083,0.029101388528943062,36.7150754,3.1822561,53.09,-5.53,-8.31,-1.63,84,235,10.118197441101074,9.985456466674805
29,-0.2848410904407501,-2.168229103088379,-0.02504032664000988,36.7150029,3.1821211,55.52,-4.97,-7.38,-1.47,84,235,9.020820617675781,8.898811340332031
30,-0.05169735848903656,-2.162275791168213,0.038078777492046356,36.7149385,3.1820011,57.6,-3.08,-4.68,-0.75,83,236,5.6577348709106445,5.60713529586792
31,-0.15606753528118134,-2.114254951477051,-0.007700933143496513,36.7149045,3.1819333,58.29,-2.16,-3.69,-0.21,83,238,4.291156768798828,4.285794734954834
32,-0.14863556623458862,-2.0869758129119873,0.03344472497701645,36.7148768,3.181872,58.39,-2.0,-3.68,-0.01,82,240,4.195918083190918,4.195890426635742
33,-0.047426313161849976,-2.0873849391937256,-0.0019037168240174651,36.7148459,3.1818018,58.38,-1.76,-3.22,0.0,82,240,3.6786274909973145,3.6786270141601562
34,0.04680366441607475,-2.2445778846740723,-0.04455796629190445,36.7148261,3.1817609,57.82,-1.23,-1.62,0.9,82,231,2.2296481132507324,2.0377748012542725
35,-0.03310013562440872,-2.4824531078338623,0.027811961248517036,36.7148082,3.1817399,55.35,-1.03,-0.79,1.46,81,217,1.956473469734192,1.3018964529037476
36,-0.031168023124337196,-2.472430467605591,-0.025683827698230743,36.7147943,3.1817269,53.1,-1.03,-0.81,1.42,81,218,1.939906358718872,1.321630835533142
37,-0.010179567150771618,-2.470010757446289,0.010535544715821743,36.7147777,3.1817106,50.49,-1.07,-0.87,1.43,81,218,1.9916167259216309,1.3854809999465942
38,-0.06208104267716408,-2.469546318054199,-0.008019846864044666,36.7147631,3.1816959,48.25,-1.07,-0.88,1.43,80,218,2.003868818283081,1.3940497636795044
39,-0.009780829772353172,-2.4692795276641846,0.007538677658885717,36.7147486,3.1816812,46.0,-1.06,-0.87,1.44,80,218,2.002009630203247,1.3824453353881836
40,-0.043070726096630096,-2.469811201095581,0.028043637052178383,36.7147315,3.1816642,43.39,-1.07,-0.87,1.46,79,218,2.013016939163208,1.383797526359558
41,-0.02223428525030613,-2.469937801361084,-0.020868953317403793,36.714717,3.1816497,41.15,-1.06,-0.88,1.46,79,218,2.022305727005005,1.3891520500183105
42,-0.014948594383895397,-2.4697649478912354,0.01456704642623663,36.7147,3.1816325,38.53,-1.06,-0.88,1.47,79,218,2.020364284515381,1.3846423625946045
43,-0.052505992352962494,-2.4688873291015625,-0.018369169905781746,36.7146854,3.1816177,36.28,-1.06,-0.89,1.47,78,218,2.027634620666504,1.3951308727264404
44,-0.008227004669606686,-2.4691665172576904,0.013945316895842552,36.7146708,3.1816029,34.03,-1.07,-0.88,1.47,78,218,2.0257890224456787,1.3916672468185425
45,-0.05225105956196785,-2.4697725772857666,0.019555771723389626,36.7146538,3.1815858,31.4,-1.06,-0.88,1.47,78,218,2.020089864730835,1.3821666240692139
46,-0.019215289503335953,-2.4702577590942383,-0.018430616706609726,36.7146392,3.1815712,29.15,-1.07,-0.88,1.47,77,218,2.022136688232422,1.3879503011703491
47,-0.016145853325724602,-2.4692580699920654,0.020601710304617882,36.7146222,3.181554,26.53,-1.06,-0.88,1.47,77,218,2.020404100418091,1.3833171129226685
48,-0.05408183112740517,-2.4691264629364014,-0.018337704241275787,36.7146076,3.1815392,24.29,-1.05,-0.89,1.48,77,218,2.0271003246307373,1.3842428922653198
49,-0.020519202575087547,-2.4691808223724365,0.025369448587298393,36.714593,3.1815244,22.04,-1.06,-0.88,1.47,76,218,2.022486925125122,1.379464030265808
50,-0.12414627522230148,-2.9104886054992676,-0.07943760603666306,36.7145737,3.1815091,19.46,-1.64,-0.43,1.29,76,193,2.1354291439056396,1.6984790563583374
51,-0.2114073634147644,2.6790549755096436,-0.054768726229667664,36.7145416,3.1815168,18.4,-3.2,1.43,0.06,75,153,3.508788585662842,3.508136749267578
52,-0.1613195240497589,2.679738998413086,0.026168936863541603,36.7144815,3.1815531,18.5,-4.06,2.03,-0.01,75,153,4.544299125671387,4.544285297393799
53,-0.05640321969985962,2.852714776992798,0.11840902268886566,36.7144276,3.1815833,18.46,-3.73,1.07,0.05,75,163,3.8898844718933105,3.889434337615967
54,-0.3357853591442108,-2.2402610778808594,0.13233830034732819,36.714383,3.1815749,18.43,-2.93,-2.51,0.02,74,224,3.863513708114624,3.863413095474243
55,-0.5132932066917419,-2.1383814811706543,-0.006038168910890818,36.7143309,3.1814849,18.43,-3.97,-6.35,0.01,74,237,7.49513053894043,7.495108604431152
56,-0.4710950553417206,-2.147496461868286,0.02655445970594883,36.7142701,3.1813648,18.44,-4.85,-7.61,0.0,73,236,9.029223442077637,9.02922248840332
57,-0.37862253189086914,-2.1513493061065674,-0.01965443417429924,36.7141924,3.181214,18.46,-4.77,-7.37,0.0,73,236,8.78697681427002,8.786974906921387
58,-0.236191526055336,-2.1477701663970947,0.03781299665570259,36.7141327,3.1810989,18.46,-3.96,-6.19,0.03,73,236,7.3574323654174805,7.357367515563965
59,-0.2669585645198822,-2.122851610183716,-0.00901519600301981,36.7140837,3.1810006,18.44,-3.41,-5.68,0.02,72,238,6.634964942932129,6.634908676147461
60,-0.26726260781288147,-2.100273847579956,0.030990520492196083,36.7140319,3.1808896,18.44,-3.22,-5.65,0.01,72,239,6.510591506958008,6.510578632354736
61,-0.22643126547336578,-2.1001131534576416,-0.02422248013317585,36.7139883,3.1807942,18.44,-3.15,-5.55,0.0,71,239,6.389873027801514,6.389872074127197
62,0.1320536732673645,-2.1013145446777344,-0.005526898428797722,36.7139459,3.180702,18.42,-1.94,-3.38,0.04,71,239,3.9005138874053955,3.900266408920288
63,0.10388286411762238,-2.1007866859436035,0.0008954686345532537,36.7139309,3.1806692,18.41,-0.38,-0.68,-0.02,71,239,0.7844560742378235,0.784160315990448
64,0.03236253559589386,-2.0998566150665283,0.008547788485884666,36.7139303,3.1806678,18.42,0.11,0.15,0.02,70,239,0.19473004341125488,0.19304847717285156
