timestamp,pitch,yaw,roll,lat,lon,alt,velocity_x,velocity_y,velocity_z,battery,heading,airspeed,groundspeed
0,-0.02440485544502735,0.025020403787493706,0.011530393734574318,36.7156066,3.1846299,17.55,-0.01,0.02,-0.01,96,1,0.03300856798887253,0.03014056757092476
1,-0.03359910845756531,0.022193189710378647,0.08114294707775116,36.7156076,3.1846319,17.61,0.29,0.48,-0.01,95,1,0.5674611926078796,0.5671446919441223
2,-0.15946123003959656,1.4594169855117798,-0.08870480954647064,36.7156222,3.18466,17.56,1.65,2.53,-0.02,95,83,3.029510736465454,3.0294106006622314
3,-0.16755467653274536,0.9098348021507263,0.012640382163226604,36.7156495,3.1847115,17.6,2.18,3.32,-0.03,95,52,3.980407476425171,3.980293035507202
4,0.11587805300951004,0.9754131436347961,-0.03428637608885765,36.7156825,3.1847727,17.61,1.62,2.41,0.0,94,55,2.909160614013672,2.909156084060669
5,0.3308403491973877,1.1544796228408813,0.1007995754480362,36.7156888,3.1847835,17.6,-0.99,-1.43,0.0,94,66,1.7425717115402222,1.7425698041915894
6,-0.06481312215328217,2.948025941848755,0.12918396294116974,36.715665,3.1847405,17.64,-2.23,-3.17,-0.01,93,168,3.881613254547119,3.8815629482269287
7,-0.06615005433559418,-1.9080393314361572,0.0339430533349514,36.7156301,3.1846752,17.62,-2.0,-3.23,0.0,93,250,3.8062875270843506,3.806283712387085
8,-0.12227468192577362,-1.3889145851135254,0.26746702194213867,36.7156173,3.1846229,17.61,0.5,-2.83,0.0,93,280,2.8767733573913574,2.8767640590667725
9,-0.4475537836551666,-0.6417964696884155,0.017788436263799667,36.7156601,3.1845645,17.61,4.8,-3.46,0.0,92,323,5.922098159790039,5.922097682952881
10,-0.5266402363777161,-0.6290237903594971,0.047234371304512024,36.7157416,3.1844932,17.61,7.08,-4.9,-0.01,92,323,8.615944862365723,8.615938186645508
11,-0.45874059200286865,-0.6185315847396851,-0.0028248843736946583,36.7158446,3.1844041,17.63,7.85,-5.5,-0.01,91,324,9.592669486999512,9.592660903930664
12,-0.3649127781391144,-0.6234721541404724,0.007970611564815044,36.7159671,3.1842957,17.66,7.28,-5.2,-0.02,91,324,8.95039176940918,8.950355529785156
13,0.0033781661186367273,-0.6338627338409424,-0.029123861342668533,36.7160526,3.1842198,17.67,4.98,-3.66,0.04,91,323,6.19085693359375,6.190710544586182
14,-0.12549227476119995,-1.4879227876663208,-0.255137175321579,36.7160966,3.1841588,17.9,0.19,-2.99,-0.37,90,274,3.0206284523010254,2.997067451477051
15,-0.3955456614494324,-2.1406967639923096,-0.07426320016384125,36.7160736,3.1840961,18.96,-3.32,-4.76,-1.01,90,237,5.901311874389648,5.813898086547852
16,-0.510387122631073,-2.162180185317993,0.002245508600026369,36.716015,3.1839937,20.91,-5.0,-7.14,-1.48,89,236,8.84677505493164,8.72148609161377
17,-0.4164283573627472,-2.162963628768921,0.02027764543890953,36.7159299,3.1838404,23.73,-5.5,-8.07,-1.6,89,236,9.906393051147461,9.774961471557617
18,-0.4635857939720154,-2.1644797325134277,-0.03351328521966934,36.7158549,3.1837026,26.19,-5.56,-8.23,-1.58,88,235,10.061848640441895,9.93620491027832
19,-0.47204238176345825,-2.164724826812744,0.04082026705145836,36.715767,3.1835398,29.07,-5.52,-8.25,-1.59,88,235,10.062960624694824,9.936491966247559
20,-0.42016512155532837,-2.1626193523406982,0.0030749605502933264,36.7156921,3.1833996,31.55,-5.49,-8.24,-1.6,88,236,10.035836219787598,9.906757354736328
21,-0.487449586391449,-2.1628692150115967,-0.00023728280211798847,36.7156052,3.1832372,34.44,-5.53,-8.23,-1.62,87,236,10.053458213806152,9.92154312133789
22,-0.45195746421813965,-2.1641573905944824,0.0335661806166172,36.7155302,3.1830978,36.94,-5.52,-8.29,-1.63,87,236,10.09766960144043,9.964820861816406
23,-0.4315855801105499,-2.1638646125793457,-0.0012829132610931993,36.7154557,3.1829584,39.45,-5.5,-8.29,-1.62,86,236,10.091569900512695,9.960147857666016
24,-0.4967941343784332,-2.162914514541626,0.011225965805351734,36.7153687,3.1827951,42.36,-5.5,-8.27,-1.63,86,236,10.07075023651123,9.937732696533203
25,-0.4442594349384308,-2.164936065673828,0.04041898623108864,36.7152937,3.182655,44.86,-5.55,-8.27,-1.64,85,235,10.09946060180664,9.964818954467773
26,-0.4279686510562897,-2.164761543273926,-0.012310516089200974,36.7152188,3.1825154,47.37,-5.52,-8.3,-1.63,85,235,10.112946510314941,9.979334831237793
27,-0.49128907918930054,-2.164910316467285,0.023796724155545235,36.7151319,3.1823525,50.29,-5.51,-8.31,-1.63,84,235,10.117137908935547,9.983336448669434
28,-0.4219626784324646,-2.163463592529297,0.027417823672294617,36.7150571,3.1822124,52.79,-5.49,-8.23,-1.63,84,236,10.038413047790527,9.90428352355957
29,-0.2065318375825882,-2.1680703163146973,-0.012213209643959999,36.7149759,3.1820619,55.52,-4.44,-6.6,-1.31,83,235,8.068000793457031,7.9595723152160645
30,-0.05984311178326607,-2.1567275524139404,0.04322829097509384,36.7149274,3.181971,57.01,-2.81,-4.34,-0.62,83,236,5.216711521148682,5.179196357727051
31,-0.1389022022485733,-2.104227304458618,-0.01226115133613348,36.7148955,3.1819059,57.55,-2.12,-3.71,-0.14,83,239,4.282800197601318,4.28038215637207
32,-0.13582202792167664,-2.0862245559692383,0.01482438575476408,36.7148636,3.1818342,57.59,-2.0,-3.69,-0.01,82,240,4.200444221496582,4.200424671173096
33,-0.01725771650671959,-2.0900144577026367,-0.025517141446471214,36.7148379,3.1817762,57.57,-1.6,-2.92,0.09,82,240,3.341942310333252,3.3406262397766113
34,0.03628772869706154,-2.3810958862304688,-0.05468020960688591,36.7148169,3.1817374,56.37,-1.17,-1.22,1.33,82,223,2.1580233573913574,1.699224591255188
35,-0.054401036351919174,-2.469405174255371,0.015382402576506138,36.7148023,3.1817223,54.1,-1.03,-0.8,1.44,81,218,1.9479453563690186,1.3085194826126099
36,-0.04762192443013191,-2.4688193798065186,-0.023129623383283615,36.714786,3.1817069,51.48,-1.05,-0.84,1.43,81,218,1.9729083776474,1.3577572107315063
37,-0.034239280968904495,-2.469609260559082,0.028753984719514847,36.7147716,3.1816926,49.25,-1.06,-0.87,1.44,81,218,1.9968501329421997,1.3771369457244873
38,-0.034981563687324524,-2.469578266143799,-0.025341734290122986,36.714757,3.181678,47.0,-1.07,-0.89,1.45,80,218,2.0165176391601562,1.3993258476257324
39,-0.010229966603219509,-2.4691131114959717,0.013447129167616367,36.71474,3.181661,44.38,-1.07,-0.87,1.45,80,218,2.0052855014801025,1.379966378211975
40,-0.061516255140304565,-2.4697701930999756,-0.00547015992924571,36.7147255,3.1816464,42.14,-1.07,-0.89,1.46,79,218,2.0242228507995605,1.3954054117202759
41,-0.01917438767850399,-2.469684600830078,-0.020808059722185135,36.7147084,3.1816292,39.52,-1.07,-0.88,1.46,79,218,2.0234742164611816,1.391479253768921
42,-0.0504058301448822,-2.4701695442199707,0.022525500506162643,36.7146938,3.1816144,37.27,-1.06,-0.88,1.46,79,218,2.016300916671753,1.383345365524292
43,-0.008304934948682785,-2.4691591262817383,-0.006328296847641468,36.7146793,3.1815998,35.03,-1.07,-0.88,1.47,78,218,2.0281906127929688,1.3949841260910034
44,-0.022165970876812935,-2.4692389965057373,0.025916988030076027,36.7146623,3.1815826,32.41,-1.06,-0.88,1.48,78,218,2.023989200592041,1.3798763751983643
45,-0.03669542446732521,-2.4693405628204346,-0.02144298143684864,36.7146477,3.1815679,30.15,-1.06,-0.88,1.47,78,218,2.0235707759857178,1.386454463005066
46,-0.009594114497303963,-2.4695725440979004,0.00020607195619959384,36.7146307,3.1815506,27.53,-1.06,-0.86,1.47,77,218,2.018282651901245,1.3759424686431885
47,-0.05855007842183113,-2.469348669052124,-0.0038304177578538656,36.7146161,3.1815359,25.29,-1.06,-0.88,1.48,77,218,2.0297019481658936,1.3861714601516724
48,-0.008087385445833206,-2.469219446182251,0.0071305399760603905,36.7146015,3.1815212,23.03,-1.06,-0.87,1.47,77,218,2.022759437561035,1.3804842233657837
49,-0.05069471150636673,-2.4702165126800537,0.0230910275131464,36.7145845,3.1815041,20.4,-1.06,-0.88,1.47,76,218,2.0211474895477295,1.3841253519058228
50,-0.12028248608112335,-3.12034273147583,-0.1324317753314972,36.7145656,3.1814931,18.29,-1.9,-0.12,1.09,76,181,2.198377847671509,1.904006004333496
51,-0.19523105025291443,2.676741123199463,0.007905603386461735,36.714521,3.1815118,17.62,-3.64,1.8,-0.06,75,153,4.0639238357543945,4.063449382781982
52,-0.1714690625667572,2.679666757583618,-0.030173586681485176,36.7144672,3.181545,17.7,-4.07,2.04,0.03,75,153,4.56385612487793,4.563745021820068
53,-0.013126031495630741,-3.137165069580078,0.2218104898929596,36.7144065,3.1815721,17.64,-3.39,0.01,0.04,75,180,3.398836374282837,3.3985891342163086
54,-0.43092986941337585,-2.197793483734131,0.10893861204385757,36.7143649,3.18154,17.63,-3.03,-3.95,0.01,74,234,4.984563827514648,4.984532833099365
55,-0.4526790976524353,-2.146958589553833,0.02637697383761406,36.7143161,3.1814472,17.63,-4.22,-6.71,0.0,74,236,7.929285526275635,7.929283142089844
56,-0.47527992725372314,-2.148834228515625,-0.01969834603369236,36.7142425,3.1813023,17.64,-4.92,-7.74,0.0,73,236,9.177326202392578,9.177322387695312
57,-0.3180873394012451,-2.152787923812866,0.029783882200717926,36.7141764,3.1811744,17.66,-4.64,-7.16,0.0,73,236,8.540643692016602,8.540639877319336
58,-0.22580908238887787,-2.144620656967163,-0.005575285293161869,36.7141191,3.1810635,17.65,-3.77,-5.96,0.03,73,237,7.061798572540283,7.061731815338135
59,-0.2562577426433563,-2.112225294113159,0.04085477441549301,36.7140638,3.18095,17.63,-3.3,-5.63,0.01,72,238,6.53554105758667,6.5355329513549805
60,-0.26485496759414673,-2.1000332832336426,-0.01803114451467991,36.7140199,3.1808553,17.63,-3.22,-5.66,0.0,72,239,6.519209384918213,6.519205093383789
61,-0.120174340903759,-2.0997467041015625,0.021687079221010208,36.7139699,3.180746,17.64,-2.93,-5.14,0.0,71,239,5.923758506774902,5.923758029937744
62,0.13164451718330383,-2.1006815433502197,-0.02745731920003891,36.7139379,3.1806767,17.61,-1.59,-2.76,0.03,71,239,3.1899805068969727,3.1898193359375
63,0.11705175787210464,-2.1004738807678223,-0.007799984887242317,36.7139267,3.1806517,17.62,-0.06,-0.13,-0.01,71,239,0.14523127675056458,0.14437784254550934
64,-0.03496760502457619,-2.102912425994873,0.0701725110411644,36.7139278,3.1806535,17.59,0.23,0.04,0.03,70,239,0.24533452093601227,0.2423037439584732
