timestamp,pitch,yaw,roll,lat,lon,alt,velocity_x,velocity_y,velocity_z,battery,heading,airspeed,groundspeed
0,-0.019667742773890495,-0.05234290659427643,-0.015130212530493736,36.7156065,3.1846299,17.9,-0.01,0.02,0.01,96,357,0.03659176453948021,0.03191808611154556
1,-0.04263826832175255,-0.050512295216321945,0.076334148645401,36.7156079,3.1846325,17.94,0.33,0.55,0.0,95,357,0.6523455381393433,0.6523410081863403
2,-0.2006405144929886,1.468894362449646,-0.089809849858284,36.7156193,3.1846551,17.89,1.5,2.32,-0.01,95,84,2.772629737854004,2.7726006507873535
3,-0.17932337522506714,0.8684379458427429,0.0397065095603466,36.7156513,3.1847151,17.93,2.33,3.5,-0.03,95,49,4.212635040283203,4.212521076202393
4,-0.006032916251569986,0.9531572461128235,-0.022826746106147766,36.7156829,3.1847736,17.95,2.14,3.21,-0.01,94,54,3.8594913482666016,3.8594648838043213
5,0.3860522210597992,1.0309115648269653,0.03519750386476517,36.7157003,3.1848052,17.94,-0.47,-0.67,0.01,94,57,0.0712638571858406,0.06888996809720993
6,-0.068113312125206,2.6977224349975586,0.19585028290748596,36.7156805,3.184769,17.98,-2.14,-3.06,-0.02,93,154,3.746704578399658,3.7465901374816895
7,-0.09658866375684738,-2.0839285850524902,-0.010697483085095882,36.7156503,3.1847141,17.98,-2.24,-3.28,0.01,93,240,3.9742705821990967,3.974240303039551
8,-0.0040034460835158825,-1.6825975179672241,0.24236035346984863,36.7156265,3.1846514,17.95,-0.21,-2.95,0.01,93,263,2.9659922122955322,2.9659698009490967
9,-0.40898439288139343,-0.6679150462150574,0.08144738525152206,36.7156487,3.1846032,17.95,3.55,-3.0,0.0,92,321,4.649821758270264,4.649820327758789
10,-0.49069949984550476,-0.6157401204109192,0.04117004573345184,36.7157175,3.1845412,17.95,6.41,-4.43,0.0,92,324,7.80405855178833,7.804056644439697
11,-0.5222584009170532,-0.6142592430114746,-0.03142506629228592,36.7158325,3.1844423,17.96,7.86,-5.44,0.0,91,324,9.571194648742676,9.57119369506836
12,-0.43936288356781006,-0.6180227398872375,0.025389239192008972,36.7159392,3.1843489,17.98,7.73,-5.47,-0.02,91,324,9.48010540008545,9.480076789855957
13,-0.10302718728780746,-0.621576189994812,-0.030472127720713615,36.716049,3.184252,18.01,5.68,-4.03,0.03,91,324,6.971041202545166,6.970965385437012
14,0.09502627700567245,-0.9792315363883972,-0.21003606915473938,36.7161033,3.1841958,18.07,1.98,-2.89,-0.17,90,303,3.5148680210113525,3.5107192993164062
15,-0.4046943783760071,-2.124682664871216,-0.07172121852636337,36.7160955,3.184131,18.98,-2.71,-4.26,-0.87,90,238,5.131626129150391,5.057110786437988
16,-0.43964284658432007,-2.1629552841186523,0.004358121193945408,36.7160428,3.1840382,20.76,-4.72,-6.74,-1.4,89,236,8.354422569274902,8.234699249267578
17,-0.4732683300971985,-2.163161039352417,-0.033007748425006866,36.7159719,3.1839115,23.12,-5.49,-7.98,-1.6,89,236,9.824748039245605,9.693365097045898
18,-0.4448256492614746,-2.1634910106658936,0.03452746942639351,36.7158843,3.1837518,25.98,-5.53,-8.22,-1.58,88,236,10.041984558105469,9.915887832641602
19,-0.42989614605903625,-2.1630475521087646,-0.019255321472883224,36.7158092,3.1836118,28.44,-5.55,-8.26,-1.6,88,236,10.089004516601562,9.96111011505127
20,-0.4759930670261383,-2.164222478866577,0.02974591962993145,36.7157215,3.183449,31.33,-5.51,-8.23,-1.61,88,236,10.044891357421875,9.914933204650879
21,-0.42962417006492615,-2.1633520126342773,0.0342206172645092,36.7156468,3.18331,33.81,-5.51,-8.26,-1.62,87,236,10.069804191589355,9.93808650970459
22,-0.4612877368927002,-2.1642768383026123,-0.03282126411795616,36.7155722,3.1831702,36.31,-5.51,-8.27,-1.62,87,236,10.079879760742188,9.948234558105469
23,-0.45225122570991516,-2.1646554470062256,0.0411556251347065,36.7154849,3.1830072,39.23,-5.51,-8.26,-1.63,86,235,10.069308280944824,9.936172485351562
24,-0.429414838552475,-2.166335344314575,-0.006712883710861206,36.7154104,3.1828678,41.72,-5.52,-8.29,-1.63,86,235,10.100831031799316,9.966851234436035
25,-0.49198973178863525,-2.1663050651550293,0.025797400623559952,36.7153232,3.1827047,44.64,-5.52,-8.27,-1.64,85,235,10.079997062683105,9.945622444152832
26,-0.433473140001297,-2.1632497310638428,0.02993941307067871,36.7152483,3.1825645,47.15,-5.51,-8.3,-1.63,85,236,10.099350929260254,9.965537071228027
27,-0.45436176657676697,-2.1640405654907227,-0.02867766097187996,36.7151739,3.1824249,49.65,-5.5,-8.3,-1.63,84,236,10.09583854675293,9.963101387023926
28,-0.47517579793930054,-2.1639957427978516,0.0339202806353569,36.7150867,3.1822618,52.57,-5.55,-8.3,-1.64,84,236,10.123676300048828,9.989055633544922
29,-0.2655481696128845,-2.167587995529175,0.00016814515402074903,36.7150137,3.1821266,55.01,-4.98,-7.4,-1.48,83,235,9.047503471374512,8.923970222473145
30,-0.09039086103439331,-2.1641058921813965,0.029469281435012817,36.7149491,3.1820062,57.11,-3.12,-4.72,-0.77,83,236,5.718674659729004,5.666208744049072
31,-0.131269633769989,-2.125150203704834,-0.009318127296864986,36.7149143,3.1819378,57.83,-2.24,-3.72,-0.22,83,238,4.355130195617676,4.349466323852539
32,-0.1754237711429596,-2.103484869003296,0.02262219227850437,36.7148855,3.1818761,57.94,-2.07,-3.66,0.0,82,239,4.208835601806641,4.2088236808776855
33,-0.041037801653146744,-2.10318922996521,-0.024086836725473404,36.7148534,3.1818061,57.93,-1.82,-3.23,0.0,82,239,3.7137811183929443,3.7137808799743652
34,0.030007388442754745,-2.2423417568206787,-0.02595965750515461,36.7148331,3.1817651,57.4,-1.25,-1.65,0.86,82,231,2.2499659061431885,2.0760908126831055
35,-0.05404147505760193,-2.483433485031128,0.016337236389517784,36.7148151,3.1817436,54.96,-1.03,-0.81,1.46,81,217,1.9730892181396484,1.3177412748336792
36,-0.01683182269334793,-2.472585678100586,-0.013160375878214836,36.7148011,3.1817305,52.72,-1.05,-0.82,1.42,81,218,1.9557974338531494,1.3361129760742188
37,-0.06051526963710785,-2.4704248905181885,0.01657596044242382,36.7147869,3.1817166,50.48,-1.05,-0.87,1.44,81,218,1.9920203685760498,1.370940923690796
38,-0.04759569838643074,-2.4697108268737793,-0.01859448291361332,36.71477,3.1816997,47.87,-1.06,-0.89,1.45,80,218,2.0144765377044678,1.3956949710845947
39,-0.01995021104812622,-2.4693822860717773,0.021720051765441895,36.7147555,3.181685,45.62,-1.07,-0.88,1.45,80,218,2.013124465942383,1.390575885772705
40,-0.05823653191328049,-2.4699368476867676,0.01735870912671089,36.7147384,3.1816679,43.01,-1.07,-0.88,1.46,79,218,2.018634080886841,1.389176845550537
41,-0.011301984079182148,-2.469818115234375,-0.009546729736030102,36.7147239,3.1816533,40.76,-1.08,-0.88,1.47,79,218,2.033330202102661,1.3992888927459717
42,-0.059882260859012604,-2.469545602798462,0.011889014393091202,36.7147092,3.1816385,38.51,-1.06,-0.88,1.47,79,218,2.020995855331421,1.3841779232025146
43,-0.04102203994989395,-2.4689581394195557,-0.022444885224103928,36.7146922,3.1816214,35.89,-1.07,-0.89,1.47,78,218,2.0285348892211914,1.394520878791809
44,-0.020241020247340202,-2.469088554382324,0.023565802723169327,36.7146777,3.1816067,33.65,-1.06,-0.88,1.48,78,218,2.0313832759857178,1.3906899690628052
45,-0.058540355414152145,-2.470094680786133,0.016543464735150337,36.7146607,3.1815894,31.02,-1.06,-0.89,1.48,78,218,2.0306413173675537,1.3870207071304321
46,-0.012084081768989563,-2.4701454639434814,-0.010927274823188782,36.7146461,3.1815747,28.77,-1.07,-0.87,1.47,77,218,2.0240814685821533,1.3821320533752441
47,-0.05949509143829346,-2.469221591949463,0.007131042890250683,36.7146315,3.1815601,26.52,-1.06,-0.89,1.48,77,218,2.0291800498962402,1.3866822719573975
48,-0.04977753758430481,-2.469316005706787,-0.022667517885565758,36.7146145,3.1815428,23.9,-1.06,-0.88,1.48,77,218,2.0300533771514893,1.3863873481750488
49,-0.020359288901090622,-2.4694485664367676,0.024054644629359245,36.7145999,3.1815281,21.64,-1.06,-0.86,1.47,76,218,2.016273021697998,1.3722912073135376
50,-0.12165132164955139,-2.883096218109131,-0.08580057322978973,36.7145808,3.1815126,19.06,-1.61,-0.47,1.31,76,194,2.136652708053589,1.6805366277694702
51,-0.20775200426578522,2.6742308139801025,-0.05875223129987717,36.7145493,3.1815197,17.95,-3.13,1.41,0.09,75,153,3.4384968280792236,3.4371354579925537
52,-0.16228249669075012,2.672494411468506,0.02440013363957405,36.7144902,3.1815559,18.04,-4.01,2.02,-0.01,75,153,4.5008063316345215,4.5007853507995605
53,-0.05943180248141289,2.8465092182159424,0.11781428754329681,36.714437,3.1815861,18.0,-3.71,1.09,0.05,75,163,3.869938850402832,3.8694841861724854
54,-0.3148953914642334,-2.367642879486084,0.2120954990386963,36.7143925,3.1815777,17.97,-2.95,-2.48,0.02,74,224,3.8597846031188965,3.8596861362457275
55,-0.5111840963363647,-2.144897937774658,-0.00042224727803841233,36.7143398,3.181488,17.97,-4.01,-6.31,0.01,74,237,7.481154441833496,7.481134414672852
56,-0.4652484059333801,-2.1512346267700195,0.028870832175016403,36.7142786,3.1813686,17.98,-4.87,-7.61,0.0,73,236,9.042118072509766,9.042119026184082
57,-0.3901916444301605,-2.15612530708313,-0.012287963181734085,36.7142005,3.1812186,17.99,-4.85,-7.41,0.0,73,236,8.860280990600586,8.860278129577637
58,-0.23086003959178925,-2.1519224643707275,0.03846229240298271,36.7141401,3.1811031,18.0,-4.02,-6.21,0.02,73,236,7.404649257659912,7.404608726501465
59,-0.27265405654907227,-2.1249210834503174,-0.009110402315855026,36.7140906,3.1810045,17.97,-3.42,-5.66,0.01,72,238,6.620414733886719,6.62038516998291
60,-0.2522280514240265,-2.1002609729766846,0.022373413667082787,36.7140386,3.1808936,17.97,-3.2,-5.63,0.0,72,239,6.481917858123779,6.481916427612305
61,-0.23765382170677185,-2.1001553535461426,-0.017939725890755653,36.713995,3.1807984,17.97,-3.15,-5.54,0.0,71,239,6.381551742553711,6.381551742553711
62,0.12436293810606003,-2.101102352142334,-0.01610012911260128,36.7139525,3.1807058,17.96,-1.95,-3.41,0.03,71,239,3.9310412406921387,3.930852174758911
63,0.10668997466564178,-2.1007721424102783,0.0121018560603261,36.7139374,3.1806728,17.95,-0.39,-0.72,-0.02,71,239,0.8224340677261353,0.8220992684364319
64,-0.008724180050194263,-2.101060628890991,0.0010483440710231662,36.7139369,3.1806713,17.95,0.12,0.13,0.03,70,239,0.19236847758293152,0.18880917131900787
