timestamp,pitch,yaw,roll,lat,lon,alt,velocity_x,velocity_y,velocity_z,battery,heading,airspeed,groundspeed
0,-0.022551394999027252,-0.0036407371517270803,-0.00808018073439598,36.7156066,3.18463,17.8,-0.02,0.02,-0.02,96,359,0.04109302908182144,0.0358971506357193
1,-0.03142239898443222,-0.0018070302903652191,0.10210040956735611,36.7156078,3.1846325,17.85,0.3,0.54,0.0,95,359,0.6272003054618835,0.6271857619285583
2,-0.2363342046737671,1.4568597078323364,-0.0891236737370491,36.715619,3.1846546,17.8,1.44,2.29,-0.01,95,83,2.716184377670288,2.7161457538604736
3,-0.19579577445983887,0.9195445775985718,-0.0030189494136720896,36.7156497,3.1847142,17.84,2.22,3.5,-0.03,95,52,4.1551032066345215,4.154994010925293
4,0.0009218844352290034,0.9715226888656616,0.018768256530165672,36.7156803,3.1847728,17.86,2.09,3.21,-0.01,94,55,3.832603693008423,3.8325700759887695
5,0.34134092926979065,1.1357152462005615,0.08638089150190353,36.7156975,3.1848049,17.85,-0.5,-0.7,0.01,94,60,0.046279411762952805,0.04357147589325905
6,-0.025719819590449333,2.767914056777954,0.1703811138868332,36.7156773,3.1847685,17.88,-2.15,-3.07,-0.03,93,158,3.76053524017334,3.7603979110717773
7,-0.14263953268527985,-2.0203537940979004,0.006432373076677322,36.715647,3.184713,17.88,-2.22,-3.25,0.0,93,244,3.9461300373077393,3.946117639541626
8,-0.056445688009262085,-1.669169306755066,0.22252517938613892,36.715623,3.1846504,17.86,-0.2,-2.94,0.0,93,264,2.9514479637145996,2.9514405727386475
9,-0.34859737753868103,-0.6566922664642334,0.09134451299905777,36.7156456,3.1846024,17.86,3.58,-3.01,0.0,92,322,4.6793012619018555,4.679299354553223
10,-0.5320476293563843,-0.6241686940193176,0.03303052857518196,36.7157295,3.1845276,17.86,6.76,-4.67,0.0,92,324,8.22486686706543,8.224862098693848
11,-0.4719780683517456,-0.6170313358306885,0.01773523911833763,36.71583,3.1844408,17.88,7.84,-5.46,-0.01,91,324,9.565471649169922,9.565465927124023
12,-0.41395679116249084,-0.6197003722190857,-0.02350844442844391,36.7159365,3.1843477,17.89,7.77,-5.49,-0.01,91,324,9.517828941345215,9.517818450927734
13,-0.07873270660638809,-0.6227395534515381,0.02064027450978756,36.7160463,3.1842509,17.93,5.66,-4.04,0.03,91,324,6.957491397857666,6.957387447357178
14,0.06208336725831032,-0.9792675971984863,-0.25904974341392517,36.7161006,3.1841946,17.99,1.94,-2.9,-0.16,90,303,3.497394561767578,3.4934158325195312
15,-0.35616129636764526,-2.1315419673919678,-0.07630468904972076,36.7160919,3.1841301,18.9,-2.76,-4.29,-0.87,90,237,5.185744762420654,5.110867977142334
16,-0.5045032501220703,-2.164295196533203,-0.01282597053796053,36.716039,3.1840369,20.68,-4.72,-6.79,-1.41,89,236,8.394878387451172,8.274829864501953
17,-0.4817071855068207,-2.1645524501800537,0.03774014115333557,36.7159679,3.1839096,23.05,-5.47,-8.0,-1.6,89,235,9.828126907348633,9.695507049560547
18,-0.4499138295650482,-2.163036584854126,-0.028737787157297134,36.7158804,3.1837492,25.92,-5.54,-8.19,-1.57,88,236,10.021047592163086,9.89644718170166
19,-0.48898884654045105,-2.163069725036621,-0.01344421599060297,36.7158051,3.1836098,28.38,-5.55,-8.25,-1.58,88,236,10.069426536560059,9.944047927856445
20,-0.4233553111553192,-2.1622300148010254,0.004835127852857113,36.7157179,3.1834472,31.27,-5.5,-8.24,-1.6,88,236,10.045605659484863,9.917269706726074
21,-0.46080857515335083,-2.1638786792755127,-0.03339371457695961,36.7156434,3.1833083,33.75,-5.56,-8.27,-1.61,87,236,10.107507705688477,9.977813720703125
22,-0.4898868501186371,-2.1655590534210205,0.013288688845932484,36.7155682,3.1831683,36.25,-5.51,-8.29,-1.61,87,235,10.09329605102539,9.962482452392578
23,-0.42422279715538025,-2.1640396118164062,-0.002081303857266903,36.715481,3.1830049,39.16,-5.51,-8.29,-1.62,86,236,10.091116905212402,9.958927154541016
24,-0.4695809483528137,-2.165670156478882,-0.028485490009188652,36.7154064,3.1828655,41.66,-5.51,-8.27,-1.62,86,235,10.078296661376953,9.946600914001465
25,-0.44617828726768494,-2.165269136428833,0.039802540093660355,36.7153192,3.1827025,44.58,-5.51,-8.31,-1.63,85,235,10.10963249206543,9.97669792175293
26,-0.4214283227920532,-2.1634697914123535,-3.7916786823188886e-05,36.7152444,3.1825624,47.09,-5.51,-8.28,-1.62,85,236,10.083001136779785,9.950797080993652
27,-0.48037436604499817,-2.1646275520324707,-0.019002718850970268,36.7151697,3.1824227,49.59,-5.51,-8.28,-1.62,84,235,10.083510398864746,9.951167106628418
28,-0.447318434715271,-2.163296699523926,0.03453357145190239,36.7150824,3.1822595,52.52,-5.52,-8.29,-1.63,84,236,10.097311973571777,9.963863372802734
29,-0.2807219922542572,-2.168313503265381,-0.020387563854455948,36.71501,3.1821249,54.94,-4.98,-7.38,-1.47,84,235,9.033801078796387,8.912006378173828
30,-0.06947028636932373,-2.163485288619995,0.032219938933849335,36.7149457,3.1820048,57.03,-3.12,-4.74,-0.77,83,236,5.732259750366211,5.680091857910156
31,-0.1350301057100296,-2.1247522830963135,-0.012603194452822208,36.7149108,3.1819362,57.75,-2.24,-3.73,-0.21,83,238,4.361698627471924,4.356429100036621
32,-0.12848232686519623,-2.1013386249542236,0.02026519738137722,36.7148774,3.1818644,57.84,-2.07,-3.66,0.0,82,239,4.208324432373047,4.208316326141357
33,-0.044206514954566956,-2.1028573513031006,-0.020771631971001625,36.71485,3.1818048,57.84,-1.83,-3.22,0.0,82,239,3.707258701324463,3.707257032394409
34,0.04202009737491608,-2.246526002883911,-0.028364282101392746,36.7148297,3.1817639,57.3,-1.24,-1.63,0.87,82,231,2.233668088912964,2.054387331008911
35,-0.05862172693014145,-2.482746124267578,0.002661611884832382,36.7148118,3.1817426,54.84,-1.03,-0.8,1.46,81,217,1.9619637727737427,1.3096940517425537
36,-0.008906831964850426,-2.472292423248291,-0.005795464385300875,36.7147978,3.1817295,52.6,-1.04,-0.81,1.41,81,218,1.9436062574386597,1.3273142576217651
37,-0.03887449577450752,-2.470128297805786,0.028667107224464417,36.7147811,3.1817133,49.99,-1.06,-0.87,1.43,81,218,1.990979552268982,1.3797951936721802
38,-0.03334378823637962,-2.4700095653533936,-0.0277265477925539,36.7147666,3.1816987,47.75,-1.07,-0.87,1.44,80,218,2.0072569847106934,1.3880740404129028
39,-0.04473498463630676,-2.4695370197296143,0.022565096616744995,36.7147521,3.181684,45.5,-1.06,-0.88,1.45,80,218,2.0081069469451904,1.3853116035461426
40,-0.05909929797053337,-2.4694013595581055,-0.008995180018246174,36.7147351,3.1816669,42.89,-1.07,-0.88,1.46,79,218,2.020402193069458,1.396486520767212
41,-0.014492180198431015,-2.469259738922119,0.017283467575907707,36.7147204,3.1816523,40.64,-1.06,-0.88,1.46,79,218,2.013627052307129,1.3831630945205688
42,-0.05467811971902847,-2.4702792167663574,0.02371709607541561,36.7147034,3.1816352,38.02,-1.06,-0.88,1.46,79,218,2.0169382095336914,1.3837891817092896
43,-0.010050271637737751,-2.4690773487091064,-0.004709326196461916,36.7146889,3.1816205,35.77,-1.06,-0.88,1.46,78,218,2.0187454223632812,1.3883464336395264
44,-0.05883345752954483,-2.4695539474487305,0.01604238897562027,36.7146743,3.1816057,33.52,-1.06,-0.89,1.47,78,218,2.0242245197296143,1.3914231061935425
45,-0.04604154825210571,-2.4693591594696045,-0.028492027893662453,36.7146573,3.1815885,30.9,-1.08,-0.89,1.47,78,218,2.033327341079712,1.4005531072616577
46,-0.028266066685318947,-2.4696056842803955,0.030059028416872025,36.7146426,3.1815738,28.65,-1.05,-0.88,1.47,77,218,2.019685983657837,1.3792780637741089
47,-0.0645318254828453,-2.4697818756103516,-0.0008305878145620227,36.7146258,3.1815567,26.04,-1.06,-0.88,1.48,77,218,2.0322883129119873,1.3890374898910522
48,-0.007971083745360374,-2.4693148136138916,0.008063145913183689,36.7146111,3.1815419,23.78,-1.06,-0.88,1.47,77,218,2.025752305984497,1.3834631443023682
49,-0.06481574475765228,-2.4691038131713867,-0.010477015748620033,36.7145965,3.1815272,21.53,-1.07,-0.88,1.47,76,218,2.028615951538086,1.391294002532959
50,-0.08576972037553787,-2.893416166305542,-0.12505210936069489,36.7145773,3.1815117,18.94,-1.62,-0.45,1.3,76,194,2.131695032119751,1.6840779781341553
51,-0.251482754945755,2.6823768615722656,-0.012119505554437637,36.7145456,3.1815187,17.86,-3.17,1.4,0.08,75,153,3.4708800315856934,3.4699230194091797
52,-0.187028706073761,2.6799824237823486,-0.027252405881881714,36.7144859,3.1815548,17.95,-4.06,2.03,-0.01,75,153,4.5472822189331055,4.547267436981201
53,-0.08875126391649246,2.764280319213867,0.11795804649591446,36.7144403,3.1815816,17.92,-3.85,1.47,0.06,75,158,4.127297401428223,4.126780033111572
54,-0.32375913858413696,-2.3883798122406006,0.1671474277973175,36.7143869,3.1815778,17.88,-2.93,-2.45,0.02,74,223,3.822763681411743,3.8226683139801025
55,-0.4485318660736084,-2.139556407928467,0.011139082722365856,36.7143351,3.1814892,17.88,-3.96,-6.28,0.01,74,237,7.432854175567627,7.432834625244141
56,-0.4846663475036621,-2.146639347076416,-0.035417839884757996,36.7142749,3.1813702,17.89,-4.85,-7.64,0.0,73,237,9.058276176452637,9.058272361755371
57,-0.3391765058040619,-2.151294469833374,0.021244877949357033,36.7141969,3.1812191,17.91,-4.79,-7.4,-0.01,73,236,8.823318481445312,8.823310852050781
58,-0.2297029048204422,-2.1482884883880615,-0.016392771154642105,36.714137,3.1811035,17.91,-3.98,-6.22,0.03,73,236,7.391993522644043,7.391931533813477
59,-0.2509930729866028,-2.1176319122314453,0.03941978141665459,36.7140802,3.1809889,17.88,-3.36,-5.67,0.01,72,238,6.593685150146484,6.593660831451416
60,-0.27996760606765747,-2.1007065773010254,-0.02384333871304989,36.7140361,3.1808938,17.89,-3.22,-5.64,0.01,72,239,6.505362510681152,6.505352973937988
61,-0.2318519502878189,-2.100393295288086,0.029749395325779915,36.7139924,3.1807986,17.89,-3.16,-5.56,0.0,71,239,6.400394916534424,6.400394916534424
62,0.07682611793279648,-2.100309133529663,-0.02011607401072979,36.7139496,3.1807055,17.87,-1.97,-3.44,0.04,71,239,3.9735188484191895,3.973299026489258
63,0.15104977786540985,-2.100271224975586,0.024387773126363754,36.7139343,3.1806719,17.86,-0.4,-0.71,-0.02,71,239,0.8221814632415771,0.8218775987625122
64,-0.026695918291807175,-2.101405143737793,0.042647771537303925,36.7139338,3.1806705,17.86,0.12,0.14,0.03,70,239,0.20031574368476868,0.1968947947025299
