timestamp,pitch,yaw,roll,lat,lon,alt,velocity_x,velocity_y,velocity_z,battery,heading,airspeed,groundspeed
0,-0.003241982078179717,-0.001889700535684824,0.027106840163469315,36.7156066,3.18463,20.64,-0.02,0.02,-0.01,96,359,0.03678483888506889,0.034840233623981476
1,-0.067593052983284,-0.002429023152217269,0.07505263388156891,36.7156078,3.1846323,20.62,0.34,0.55,-0.02,95,359,0.6514373421669006,0.6509837508201599
2,-0.1613970249891281,1.4460420608520508,-0.11765427142381668,36.7156246,3.1846632,20.62,1.86,2.68,-0.03,95,82,3.269540786743164,3.2693769931793213
3,-0.15575821697711945,0.9136093258857727,0.02886720933020115,36.7156542,3.1847162,20.64,2.35,3.4,-0.02,95,52,4.13637638092041,4.136297702789307
4,0.11055217683315277,0.9559390544891357,-0.02893812209367752,36.7156892,3.184778,20.64,1.64,2.33,0.0,94,54,2.8556337356567383,2.8556325435638428
5,0.3441658318042755,0.6328815817832947,-0.09079796820878983,36.7156948,3.1847865,20.62,-1.07,-1.59,0.0,94,36,1.9279056787490845,1.9278842210769653
6,-0.09561143070459366,-1.0908846855163574,-0.1500566005706787,36.7156703,3.1847416,20.67,-2.23,-3.25,-0.01,93,297,3.9482595920562744,3.9482204914093018
7,-0.058252617716789246,-2.378607988357544,0.04807107895612717,36.7156355,3.1846768,20.66,-1.95,-3.25,0.01,93,223,3.7941486835479736,3.7941222190856934
8,-0.10233476012945175,-1.3740226030349731,0.30000245571136475,36.715624,3.1846245,20.64,0.66,-2.79,0.01,93,281,2.8681588172912598,2.8681294918060303
9,-0.47954463958740234,-0.6455460786819458,0.034111857414245605,36.7156696,3.184566,20.64,4.92,-3.5,0.0,92,323,6.043919563293457,6.043919563293457
10,-0.49509984254837036,-0.6241464614868164,0.0367962084710598,36.7157529,3.1844938,20.65,7.17,-4.96,-0.01,92,324,8.723267555236816,8.723255157470703
11,-0.47071465849876404,-0.6194090843200684,-0.022848796099424362,36.7158563,3.1844042,20.66,7.9,-5.53,0.0,91,324,9.650651931762695,9.650651931762695
12,-0.3383927047252655,-0.6212332248687744,0.03160621225833893,36.7159792,3.1842962,20.7,7.26,-5.14,-0.01,91,324,8.902698516845703,8.902679443359375
13,0.00545673631131649,-0.633777916431427,-0.06460021436214447,36.7160642,3.1842211,20.71,4.89,-3.59,0.04,91,323,6.068021774291992,6.0678229331970215
14,-0.1191503033041954,-1.5444532632827759,-0.2549501657485962,36.7161062,3.184161,20.95,0.08,-3.0,-0.38,90,271,3.0261566638946533,3.001272678375244
15,-0.4319442808628082,-2.1414051055908203,-0.0752161517739296,36.7160818,3.1840973,22.05,-3.41,-4.87,-1.02,90,237,6.0391058921813965,5.952000141143799
16,-0.4997350573539734,-2.1614937782287598,0.033810388296842575,36.7160228,3.1839937,24.02,-5.03,-7.22,-1.48,89,236,8.927752494812012,8.802898406982422
17,-0.4290127754211426,-2.1645233631134033,-0.020541371777653694,36.7159372,3.1838397,26.84,-5.55,-8.03,-1.59,89,235,9.902302742004395,9.772368431091309
18,-0.4907510280609131,-2.166006565093994,-0.0048315925523638725,36.7158617,3.1837013,29.3,-5.55,-8.21,-1.57,88,235,10.04177188873291,9.91678524017334
19,-0.425910621881485,-2.162886142730713,0.022632230073213577,36.7157742,3.1835383,32.19,-5.51,-8.25,-1.59,88,236,10.054911613464355,9.928145408630371
20,-0.44753438234329224,-2.165057897567749,-0.02962072193622589,36.7156997,3.1833994,34.66,-5.53,-8.25,-1.6,88,235,10.068655967712402,9.94052791595459
21,-0.49684077501296997,-2.165107488632202,-0.010933605954051018,36.7156247,3.18326,37.15,-5.54,-8.28,-1.6,87,235,10.103105545043945,9.974331855773926
22,-0.42550674080848694,-2.163905620574951,0.01704857498407364,36.7155372,3.1830966,40.06,-5.49,-8.27,-1.61,87,236,10.062987327575684,9.931983947753906
23,-0.45698487758636475,-2.1636650562286377,-0.03199637681245804,36.715463,3.1829573,42.56,-5.49,-8.27,-1.61,86,236,10.066961288452148,9.935946464538574
24,-0.46387961506843567,-2.166504383087158,0.0410391241312027,36.7153757,3.1827945,45.47,-5.54,-8.31,-1.63,86,235,10.131680488586426,9.998739242553711
25,-0.4197896718978882,-2.165172815322876,0.008608857169747353,36.7153007,3.1826541,47.98,-5.51,-8.31,-1.63,85,235,10.107651710510254,9.975085258483887
26,-0.45990505814552307,-2.1643495559692383,-0.026617318391799927,36.715226,3.1825141,50.48,-5.5,-8.27,-1.62,85,236,10.066481590270996,9.933917045593262
27,-0.45770230889320374,-2.164714813232422,0.03846104443073273,36.7151392,3.1823517,53.4,-5.52,-8.3,-1.63,84,235,10.102603912353516,9.968827247619629
28,-0.40128493309020996,-2.1659135818481445,-0.006945802364498377,36.7150642,3.1822118,55.9,-5.51,-8.27,-1.63,84,235,10.078439712524414,9.944686889648438
29,-0.20380899310112,-2.168182134628296,0.01879291608929634,36.7149837,3.1820622,58.61,-4.38,-6.53,-1.29,83,235,7.977063179016113,7.8707380294799805
30,-0.04175766184926033,-2.1568994522094727,0.021265791729092598,36.7149358,3.1819721,60.07,-2.8,-4.29,-0.6,83,236,5.164966583251953,5.129370212554932
31,-0.16594620048999786,-2.115511655807495,0.006340877152979374,36.7149035,3.1819072,60.59,-2.16,-3.69,-0.13,83,238,4.283400058746338,4.281351566314697
32,-0.13714757561683655,-2.1025609970092773,-0.014525623992085457,36.7148705,3.1818357,60.62,-2.09,-3.7,-0.01,82,239,4.251608371734619,4.251574993133545
33,-0.017166774719953537,-2.1064376831054688,0.0055299606174230576,36.7148442,3.1817786,60.59,-1.64,-2.88,0.1,82,239,3.32307505607605,3.321498155593872
34,0.0020716243889182806,-2.390927791595459,-0.060285113751888275,36.7148229,3.1817404,59.36,-1.16,-1.19,1.35,82,223,2.150698184967041,1.672813057899475
35,-0.026744050905108452,-2.4678876399993896,0.028997043147683144,36.7148083,3.1817257,57.07,-1.03,-0.78,1.43,81,218,1.9371097087860107,1.3004003763198853
36,-0.06507698446512222,-2.4691786766052246,0.007917363196611404,36.7147919,3.1817102,54.46,-1.03,-0.85,1.43,81,218,1.962837815284729,1.3442656993865967
37,-0.00988569762557745,-2.4696033000946045,0.0058372789062559605,36.7147776,3.181696,52.22,-1.07,-0.88,1.44,81,218,2.0027008056640625,1.3885853290557861
38,-0.062050048261880875,-2.4697115421295166,-0.00688936747610569,36.714763,3.1816813,49.97,-1.07,-0.89,1.44,80,218,2.007194757461548,1.394316554069519
39,-0.015497448854148388,-2.4693257808685303,-0.014808936975896358,36.714746,3.1816642,47.36,-1.07,-0.88,1.44,80,218,2.007193088531494,1.3883849382400513
40,-0.05358246713876724,-2.46975040435791,0.02300615981221199,36.7147316,3.1816496,45.12,-1.05,-0.88,1.46,79,218,2.0088467597961426,1.3773833513259888
41,-0.04725866764783859,-2.4693281650543213,-0.015568013302981853,36.7147145,3.1816324,42.5,-1.07,-0.89,1.46,79,218,2.029679298400879,1.4004442691802979
42,-0.023434406146407127,-2.4696426391601562,0.025125116109848022,36.7146999,3.1816177,40.25,-1.06,-0.87,1.46,79,218,2.015366792678833,1.3799502849578857
43,-0.040618252009153366,-2.4691591262817383,-0.02284204214811325,36.7146854,3.181603,38.01,-1.07,-0.89,1.47,78,218,2.03226637840271,1.3983221054077148
44,-0.008902881294488907,-2.4693779945373535,-0.0031234307680279016,36.7146683,3.1815858,35.38,-1.07,-0.88,1.47,78,218,2.0293471813201904,1.3903207778930664
45,-0.063651442527771,-2.4695487022399902,0.0024823243729770184,36.7146537,3.1815711,33.13,-1.06,-0.88,1.47,78,218,2.0258476734161377,1.3881009817123413
46,-0.030701929703354836,-2.4699113368988037,-0.02356524020433426,36.7146367,3.181554,30.51,-1.07,-0.88,1.47,77,218,2.0275793075561523,1.387737512588501
47,-0.04416283220052719,-2.46952748298645,0.030036570504307747,36.7146221,3.1815392,28.26,-1.05,-0.88,1.47,77,218,2.0208218097686768,1.3785618543624878
48,-0.020509988069534302,-2.469864845275879,-0.02143758535385132,36.7146075,3.1815245,26.01,-1.07,-0.88,1.47,77,218,2.0298473834991455,1.3946720361709595
49,-0.016051670536398888,-2.4700586795806885,0.014093159697949886,36.7145905,3.1815073,23.38,-1.06,-0.87,1.47,76,218,2.0169742107391357,1.3785579204559326
50,-0.16164417564868927,-3.139087200164795,-0.12880723178386688,36.7145715,3.1814967,21.28,-1.94,-0.08,1.06,76,180,2.2177186012268066,1.9427849054336548
51,-0.20195648074150085,2.6766183376312256,-0.025468342006206512,36.7145264,3.1815161,20.65,-3.66,1.82,-0.06,75,153,4.095024585723877,4.094479560852051
52,-0.18121017515659332,2.679537296295166,0.00494998088106513,36.7144721,3.1815494,20.73,-4.06,2.02,0.03,75,153,4.538487911224365,4.538351535797119
53,-0.003272654954344034,3.014688014984131,0.1915270835161209,36.7144195,3.1815749,20.68,-3.53,0.48,0.04,75,172,3.5654547214508057,3.5651144981384277
54,-0.40264877676963806,-2.1934382915496826,0.1301252692937851,36.7143702,3.1815418,20.66,-3.04,-4.04,0.01,74,234,5.066690921783447,5.06666374206543
55,-0.4640996754169464,-2.150360584259033,-0.008729015477001667,36.7143214,3.1814485,20.66,-4.27,-6.77,0.0,74,236,8.013072967529297,8.013069152832031
56,-0.47763657569885254,-2.1509785652160645,0.028544893488287926,36.7142474,3.1813027,20.68,-4.94,-7.72,0.0,73,236,9.171599388122559,9.171599388122559
57,-0.2967399060726166,-2.1531572341918945,0.004805291537195444,36.7141813,3.1811751,20.7,-4.63,-7.11,0.0,73,236,8.493962287902832,8.493961334228516
58,-0.25524085760116577,-2.144439935684204,-0.005975073669105768,36.7141241,3.1810645,20.69,-3.77,-5.96,0.03,73,237,7.060831546783447,7.060744762420654
59,-0.24478033185005188,-2.1111650466918945,0.011117840185761452,36.7140692,3.1809516,20.66,-3.31,-5.66,0.01,72,239,6.559381484985352,6.5593671798706055
60,-0.3092179000377655,-2.09950852394104,-0.008247618563473225,36.7140253,3.1808565,20.67,-3.23,-5.67,0.01,72,239,6.529300212860107,6.529288291931152
61,-0.10203056782484055,-2.0999886989593506,-0.007464156486093998,36.7139752,3.1807472,20.67,-2.91,-5.09,0.0,71,239,5.868923664093018,5.868921756744385
62,0.12564986944198608,-2.1006176471710205,0.010018645785748959,36.7139437,3.1806789,20.64,-1.52,-2.65,0.03,71,239,3.0615782737731934,3.0614078044891357
63,0.13720333576202393,-2.100515127182007,-0.0002943791332654655,36.7139333,3.180656,20.65,-0.16,-0.31,-0.01,71,239,0.35345277190208435,0.35303735733032227
64,-0.012069118209183216,-2.1013755798339844,0.10024329274892807,36.7139344,3.1806573,20.62,0.26,0.01,0.03,70,239,0.26283395290374756,0.2606276571750641
