timestamp,pitch,yaw,roll,lat,lon,alt,velocity_x,velocity_y,velocity_z,battery,heading,airspeed,groundspeed
0,0.03128017112612724,0.02782086469233036,0.001299087656661868,36.7156067,3.1846299,20.26,-0.03,0.02,0.03,96,1,0.05947199463844299,0.04561289772391319
1,-0.10209403932094574,0.04099898412823677,0.1184462308883667,36.715608,3.1846328,20.22,0.38,0.63,0.0,95,2,0.7429155707359314,0.7428842782974243
2,-0.19890689849853516,1.4055583477020264,-0.1271994411945343,36.7156218,3.1846577,20.2,1.74,2.51,-0.02,95,80,3.061577796936035,3.061439275741577
3,-0.12618613243103027,0.9630032777786255,-0.014356267638504505,36.7156567,3.1847198,20.24,2.45,3.49,-0.03,95,55,4.274434566497803,4.2742743492126465
4,0.012668062001466751,0.944025456905365,-0.0012987270019948483,36.7156894,3.1847769,20.26,2.08,2.9,-0.01,94,54,3.577651023864746,3.5776002407073975
5,0.32126370072364807,0.6543782353401184,-0.12348687648773193,36.7157025,3.1847977,20.25,-0.89,-1.35,0.0,94,37,1.6224329471588135,1.6224312782287598
6,-0.0438825860619545,-1.0433298349380493,-0.13063164055347443,36.7156791,3.1847549,20.3,-2.23,-3.22,-0.02,93,300,3.9234702587127686,3.923396348953247
7,-0.11575724929571152,-2.421842098236084,0.03760430961847305,36.7156487,3.1846994,20.29,-2.19,-3.25,0.01,93,221,3.927490711212158,3.9274749755859375
8,-0.05824655294418335,-1.483428955078125,0.21959838271141052,36.7156299,3.1846373,20.27,0.33,-2.82,0.01,93,275,2.842104911804199,2.8420791625976562
9,-0.409216046333313,-0.6573077440261841,0.10896080732345581,36.7156607,3.184589,20.27,4.14,-3.17,0.0,92,322,5.21809196472168,5.21809196472168
10,-0.4844948351383209,-0.6227580308914185,-0.004681551828980446,36.715736,3.1845233,20.27,6.74,-4.68,0.0,92,324,8.211133003234863,8.211128234863281
11,-0.5010545253753662,-0.6182101964950562,0.025600524619221687,36.715854,3.1844211,20.29,7.86,-5.53,0.0,91,324,9.615272521972656,9.615270614624023
12,-0.3528812825679779,-0.6213950514793396,-0.021924547851085663,36.7159771,3.1843126,20.33,7.38,-5.24,-0.01,91,324,9.057746887207031,9.057740211486816
13,-0.04781927913427353,-0.6260751485824585,-0.005715306848287582,36.7160648,3.1842354,20.35,5.17,-3.72,0.05,91,324,6.374094009399414,6.373836517333984
14,0.02403191290795803,-1.167421579360962,-0.3021756112575531,36.7161105,3.1841822,20.46,1.2,-2.88,-0.23,90,293,3.133350372314453,3.124251365661621
15,-0.38228046894073486,-2.137701988220215,-0.04083259403705597,36.7160918,3.1841133,21.55,-3.21,-4.66,-0.97,90,237,5.749505043029785,5.666480541229248
16,-0.49774444103240967,-2.15954327583313,-0.028355151414871216,36.7160349,3.1840136,23.45,-4.91,-7.08,-1.46,89,236,8.747461318969727,8.624634742736816
17,-0.4408951699733734,-2.1633477210998535,0.029845427721738815,36.7159499,3.1838601,26.27,-5.52,-8.02,-1.6,89,236,9.875877380371094,9.745079040527344
18,-0.4306052327156067,-2.1639537811279297,-0.019292712211608887,36.7158745,3.1837217,28.72,-5.53,-8.18,-1.57,88,236,10.01043701171875,9.885388374328613
19,-0.4840981662273407,-2.1634132862091064,-0.015039262361824512,36.7157995,3.1835824,31.19,-5.53,-8.21,-1.58,88,236,10.02791976928711,9.90211009979248
20,-0.42699846625328064,-2.1631011962890625,0.02001843973994255,36.7157124,3.1834205,34.09,-5.54,-8.28,-1.59,87,236,10.092862129211426,9.96608829498291
21,-0.4460068345069885,-2.164422035217285,-0.02823936752974987,36.7156374,3.1832808,36.57,-5.54,-8.28,-1.6,87,235,10.097824096679688,9.969269752502441
22,-0.48836448788642883,-2.164482355117798,0.015485988929867744,36.7155626,3.183141,39.06,-5.49,-8.27,-1.61,87,235,10.062841415405273,9.932568550109863
23,-0.4413313865661621,-2.1644656658172607,0.03488535434007645,36.7154879,3.1830015,41.57,-5.5,-8.27,-1.62,86,235,10.073441505432129,9.94205093383789
24,-0.4827023148536682,-2.166346311569214,-0.021774927154183388,36.715401,3.1828387,44.48,-5.51,-8.3,-1.62,86,235,10.098894119262695,9.967948913574219
25,-0.43308568000793457,-2.1637356281280518,0.03042799048125744,36.7153138,3.1826752,47.4,-5.52,-8.28,-1.63,85,236,10.096365928649902,9.963435173034668
26,-0.446634441614151,-2.1638970375061035,-0.023857444524765015,36.7152389,3.1825354,49.91,-5.52,-8.29,-1.62,85,236,10.09977912902832,9.968240737915039
27,-0.4660806357860565,-2.16428542137146,0.03577154129743576,36.7151518,3.1823722,52.83,-5.52,-8.3,-1.62,84,236,10.109460830688477,9.977567672729492
28,-0.41048747301101685,-2.163623332977295,0.00247904728166759,36.7150768,3.1822322,55.32,-5.51,-8.26,-1.63,84,236,10.07331371307373,9.939657211303711
29,-0.26858529448509216,-2.1672897338867188,-0.019463231787085533,36.7150058,3.1821005,57.72,-4.75,-7.09,-1.41,83,235,8.652997970581055,8.535892486572266
30,-0.036940399557352066,-2.159100294113159,0.021607691422104836,36.7149453,3.1819874,59.63,-2.9,-4.43,-0.64,83,236,5.340446472167969,5.300753593444824
31,-0.16626152396202087,-2.1180810928344727,0.011033554561436176,36.7149124,3.1819216,60.2,-2.18,-3.7,-0.15,83,238,4.305911064147949,4.303012847900391
32,-0.14442867040634155,-2.102299213409424,-0.02340993657708168,36.7148795,3.1818502,60.24,-2.09,-3.69,-0.01,82,239,4.2447357177734375,4.244694709777832
33,-0.019702058285474777,-2.1040005683898926,0.018858855590224266,36.7148527,3.181792,60.23,-1.72,-3.02,0.05,82,239,3.4854555130004883,3.48502254486084
34,0.039532620459795,-2.3054099082946777,-0.062208060175180435,36.7148333,3.1817549,59.46,-1.23,-1.45,1.08,82,227,2.1937336921691895,1.9049726724624634
35,-0.007836873643100262,-2.472632884979248,0.013287542387843132,36.7148159,3.1817357,56.89,-1.03,-0.78,1.43,81,218,1.937923789024353,1.2971312999725342
36,-0.06374158710241318,-2.471078872680664,-0.012870564125478268,36.7148019,3.1817226,54.64,-1.04,-0.84,1.41,81,218,1.9537674188613892,1.3453700542449951
37,-0.01787971518933773,-2.470036506652832,-0.018161838874220848,36.7147852,3.1817061,52.04,-1.06,-0.87,1.43,81,218,1.9902924299240112,1.3805497884750366
38,-0.05386780947446823,-2.4697141647338867,0.025616496801376343,36.7147707,3.1816915,49.8,-1.06,-0.88,1.44,80,218,1.9943219423294067,1.378927230834961
39,-0.018529003486037254,-2.4696531295776367,-0.018539629876613617,36.7147562,3.1816769,47.55,-1.07,-0.87,1.44,80,218,2.0038907527923584,1.3894189596176147
40,-0.013781983405351639,-2.4694876670837402,0.019315434619784355,36.7147392,3.1816598,44.93,-1.07,-0.88,1.45,79,218,2.0095903873443604,1.3902738094329834
41,-0.0532003715634346,-2.469552755355835,-0.018374072387814522,36.7147245,3.1816451,42.7,-1.07,-0.88,1.46,79,218,2.0209951400756836,1.3907500505447388
42,-0.012575911357998848,-2.4701571464538574,-0.015862414613366127,36.7147076,3.181628,40.07,-1.07,-0.88,1.46,79,218,2.0204660892486572,1.391030192375183
43,-0.06024106964468956,-2.4694621562957764,0.018483677878975868,36.714693,3.1816134,37.82,-1.06,-0.89,1.46,78,218,2.0223143100738525,1.3915767669677734
44,-0.053319089114665985,-2.4693312644958496,-0.016263755038380623,36.7146759,3.1815962,35.21,-1.06,-0.89,1.47,78,218,2.02740478515625,1.3900136947631836
45,-0.02035733312368393,-2.469329595565796,0.02780020795762539,36.7146614,3.1815813,32.96,-1.06,-0.88,1.47,78,218,2.022812843322754,1.3829355239868164
46,-0.046349458396434784,-2.469775676727295,-0.02026396058499813,36.7146468,3.1815666,30.7,-1.07,-0.89,1.47,77,218,2.028615713119507,1.395693302154541
47,-0.005628172308206558,-2.4696121215820312,-0.007717132102698088,36.7146297,3.1815495,28.09,-1.06,-0.88,1.47,77,218,2.022939920425415,1.3838788270950317
48,-0.05650508031249046,-2.46996808052063,0.02003505825996399,36.7146152,3.1815348,25.83,-1.05,-0.88,1.47,77,218,2.019589424133301,1.3784700632095337
49,-0.010244223289191723,-2.4696366786956787,-0.01060407143086195,36.7146006,3.1815201,23.58,-1.06,-0.87,1.47,76,218,2.0189764499664307,1.3818120956420898
50,-0.10920391231775284,-3.0612895488739014,-0.07902906835079193,36.7145801,3.181506,21.05,-1.81,-0.21,1.16,76,184,2.1665868759155273,1.8274189233779907
51,-0.24583746492862701,2.669037342071533,-0.050333425402641296,36.7145451,3.181518,20.25,-3.37,1.62,-0.01,75,152,3.746406316757202,3.746358871459961
52,-0.13787741959095,2.672107219696045,-0.007669570855796337,36.7144842,3.1815559,20.36,-4.0,2.06,0.01,75,153,4.500648498535156,4.500606060028076
53,-0.049588873982429504,2.9543097019195557,0.1961120069026947,36.7144316,3.1815834,20.31,-3.55,0.65,0.05,75,169,3.617626428604126,3.6172573566436768
54,-0.39655500650405884,-2.197641372680664,0.07855231314897537,36.7143822,3.1815549,20.29,-2.99,-3.84,0.01,74,234,4.87647819519043,4.876447677612305
55,-0.5010524988174438,-2.1443824768066406,0.032897915691137314,36.7143348,3.1814644,20.29,-4.18,-6.67,0.0,74,237,7.872966766357422,7.87296199798584
56,-0.43578505516052246,-2.1475019454956055,-0.00829994771629572,36.7142722,3.1813409,20.3,-4.94,-7.68,0.0,73,236,9.14069938659668,9.140698432922363
57,-0.34457001090049744,-2.153871536254883,0.027856390923261642,36.7141945,3.1811911,20.33,-4.66,-7.16,0.0,73,236,8.550458908081055,8.550457954406738
58,-0.20615242421627045,-2.146265745162964,0.012654443271458149,36.7141367,3.1810793,20.32,-3.81,-6.0,0.03,73,237,7.116570472717285,7.116475582122803
59,-0.28795671463012695,-2.119891881942749,0.039355769753456116,36.714081,3.1809665,20.3,-3.38,-5.68,0.01,72,238,6.615536212921143,6.615508556365967
60,-0.2579483985900879,-2.1081435680389404,-0.007952334359288216,36.7140361,3.1808712,20.3,-3.3,-5.66,0.01,72,239,6.5579705238342285,6.557950496673584
61,-0.21055954694747925,-2.109071969985962,0.01588314026594162,36.7139918,3.1807766,20.3,-3.12,-5.38,0.0,71,239,6.22672700881958,6.226724147796631
62,0.1362636536359787,-2.1094369888305664,-0.02869643084704876,36.7139516,3.1806909,20.28,-1.66,-2.85,0.03,71,239,3.309419870376587,3.3091788291931152
63,0.11831387132406235,-2.1091465950012207,0.028947116807103157,36.7139398,3.1806653,20.28,-0.22,-0.39,-0.01,71,239,0.4511722922325134,0.45076069235801697
64,-0.03452431038022041,-2.111048460006714,0.06238524988293648,36.7139407,3.1806663,20.25,0.2,0.05,0.03,70,239,0.21614332497119904,0.21271280944347382
