timestamp,pitch,yaw,roll,lat,lon,alt,velocity_x,velocity_y,velocity_z,battery,heading,airspeed,groundspeed
0,-0.02117478847503662,-0.05279343202710152,-0.012720894999802113,36.7156065,3.1846299,21.89,-0.01,0.02,-0.08,96,356,0.08877348154783249,0.03295348584651947
1,-0.05723634734749794,-0.034211426973342896,0.07777970284223557,36.7156082,3.1846327,21.86,0.42,0.59,-0.04,95,358,0.7323781251907349,0.7312088012695312
2,-0.2045835256576538,1.418620228767395,-0.08433403819799423,36.7156222,3.1846569,21.9,1.78,2.42,-0.05,95,81,3.0069055557250977,3.006474256515503
3,-0.17861373722553253,0.8932377099990845,0.02695363387465477,36.7156586,3.1847171,21.9,2.59,3.43,-0.01,95,51,4.304008483886719,4.303973197937012
4,0.036985132843256,0.9036821126937866,-0.022925108671188354,36.7156932,3.1847736,21.9,2.24,2.95,0.0,94,51,3.7119247913360596,3.7119200229644775
5,0.3521159589290619,0.6405684947967529,-0.07369914650917053,36.7157103,3.1847993,21.92,-0.2,-0.44,-0.03,94,36,0.48781439661979675,0.4865780770778656
6,-0.11060493439435959,-1.1572282314300537,-0.15499620139598846,36.7156875,3.1847564,21.9,-2.2,-3.19,0.05,93,293,3.8819587230682373,3.881629228591919
7,-0.07973601669073105,-2.4184021949768066,0.038467202335596085,36.7156569,3.1847008,21.94,-2.22,-3.26,-0.02,93,221,3.955033779144287,3.954972505569458
8,-0.03281722590327263,-1.5724292993545532,0.274474173784256,36.715636,3.1846387,21.9,0.12,-2.86,0.02,93,269,2.8666605949401855,2.8665268421173096
9,-0.4228154420852661,-0.6664474010467529,0.06436417996883392,36.7156635,3.1845905,21.89,3.93,-3.13,0.0,92,321,5.0337371826171875,5.0337371826171875
10,-0.4979285001754761,-0.6246767640113831,0.04728405177593231,36.7157365,3.1845255,21.89,6.63,-4.6,0.0,92,324,8.07125186920166,8.071249008178711
11,-0.5027864575386047,-0.6220775246620178,-0.025926124304533005,36.7158534,3.1844239,21.91,7.86,-5.51,0.0,91,324,9.608439445495605,9.608439445495605
12,-0.41402584314346313,-0.6219159364700317,0.02877548709511757,36.7159593,3.1843305,21.93,7.62,-5.39,-0.01,91,324,9.346639633178711,9.346624374389648
13,-0.06250788271427155,-0.6270661950111389,-0.04930275306105614,36.716065,3.1842366,21.96,5.3,-3.82,0.04,91,324,6.540796279907227,6.540616512298584
14,0.05843973532319069,-1.1263437271118164,-0.2447906881570816,36.7161127,3.1841822,22.06,1.38,-2.88,-0.22,90,295,3.2051477432250977,3.1970338821411133
15,-0.42806392908096313,-2.130261182785034,-0.04755065590143204,36.7160968,3.1841142,23.12,-3.1,-4.56,-0.94,90,237,5.604776382446289,5.523724555969238
16,-0.44291597604751587,-2.1584765911102295,0.004986945074051619,36.7160407,3.1840158,24.99,-4.88,-7.01,-1.45,89,236,8.674073219299316,8.551121711730957
17,-0.4609456956386566,-2.1624701023101807,-0.02822660095989704,36.7159684,3.1838861,27.39,-5.54,-8.01,-1.6,89,236,9.874268531799316,9.743492126464844
18,-0.44626039266586304,-2.163003921508789,0.037128791213035583,36.7158808,3.183726,30.25,-5.54,-8.21,-1.57,88,236,10.036907196044922,9.911823272705078
19,-0.43350473046302795,-2.1624529361724854,-0.0175000112503767,36.7158057,3.1835863,32.71,-5.56,-8.27,-1.59,88,236,10.095450401306152,9.968236923217773
20,-0.475496768951416,-2.1648643016815186,0.03211794048547745,36.7157179,3.1834233,35.61,-5.51,-8.23,-1.6,87,235,10.037299156188965,9.908808708190918
21,-0.4257194995880127,-2.1634626388549805,0.0342756025493145,36.7156432,3.1832841,38.1,-5.5,-8.25,-1.6,87,236,10.050297737121582,9.920793533325195
22,-0.46504104137420654,-2.1642048358917236,-0.03280803933739662,36.7155689,3.1831449,40.59,-5.52,-8.29,-1.61,87,236,10.095051765441895,9.96495246887207
23,-0.49128738045692444,-2.1645469665527344,0.01045849360525608,36.7154939,3.1830049,43.09,-5.52,-8.29,-1.62,86,235,10.097616195678711,9.966025352478027
24,-0.42537814378738403,-2.166276454925537,-0.0066362228244543076,36.7154066,3.1828418,46.0,-5.51,-8.29,-1.62,86,235,10.08788013458252,9.955558776855469
25,-0.49362248182296753,-2.1664881706237793,0.02697611227631569,36.7153197,3.1826792,48.91,-5.52,-8.28,-1.63,85,235,10.089194297790527,9.955753326416016
26,-0.43355363607406616,-2.163118362426758,0.030073482543230057,36.7152448,3.1825389,51.43,-5.51,-8.31,-1.63,85,236,10.109556198120117,9.975749969482422
27,-0.4496837854385376,-2.1636343002319336,-0.029074721038341522,36.7151702,3.1823989,53.93,-5.51,-8.3,-1.63,84,236,10.100894927978516,9.968085289001465
28,-0.46662113070487976,-2.164241313934326,0.03441258892416954,36.7150831,3.1822361,56.85,-5.53,-8.28,-1.64,84,236,10.102511405944824,9.968360900878906
29,-0.23431067168712616,-2.168060064315796,-0.0018176395678892732,36.7150114,3.1821032,59.25,-4.83,-7.17,-1.44,83,235,8.766884803771973,8.64698600769043
30,-0.07752406597137451,-2.159719467163086,0.038747988641262054,36.71495,3.1819885,61.21,-2.92,-4.48,-0.67,83,236,5.396851062774658,5.353988170623779
31,-0.13111241161823273,-2.107809066772461,-0.008016794919967651,36.7149173,3.1819224,61.81,-2.14,-3.7,-0.16,83,239,4.287529945373535,4.284272193908691
32,-0.1298380196094513,-2.0860977172851562,0.021902063861489296,36.7148852,3.1818507,61.87,-2.01,-3.7,0.0,82,240,4.211599826812744,4.211588382720947
33,-0.027576882392168045,-2.088114023208618,-0.024338115006685257,36.7148591,3.1817917,61.86,-1.67,-3.07,0.04,82,240,3.4966342449188232,3.496330499649048
34,0.03305375948548317,-2.287268877029419,-0.027259401977062225,36.7148403,3.1817541,61.13,-1.21,-1.48,1.05,82,228,2.1912989616394043,1.9196040630340576
35,-0.050964273512363434,-2.47509503364563,0.020351076498627663,36.7148228,3.1817345,58.58,-1.03,-0.8,1.45,81,218,1.958695888519287,1.314038634300232
36,-0.017380408942699432,-2.471679925918579,-0.014051420614123344,36.7148086,3.1817213,56.34,-1.04,-0.83,1.43,81,218,1.9621360301971436,1.3424739837646484
37,-0.05722863972187042,-2.4705936908721924,0.020048493519425392,36.7147945,3.1817073,54.1,-1.05,-0.87,1.43,81,218,1.9818452596664429,1.3650870323181152
38,-0.05219808593392372,-2.4697113037109375,-0.02006753906607628,36.7147776,3.1816904,51.49,-1.07,-0.88,1.45,80,218,2.012834310531616,1.3943425416946411
39,-0.015606420114636421,-2.4692039489746094,0.02056838572025299,36.7147629,3.1816757,49.24,-1.07,-0.88,1.45,80,218,2.0143542289733887,1.3904236555099487
40,-0.05365265533328056,-2.4699912071228027,0.021305711939930916,36.714746,3.1816586,46.62,-1.06,-0.87,1.46,79,218,2.008108377456665,1.3782322406768799
41,-0.014906110242009163,-2.46996808052063,-0.014607475139200687,36.7147314,3.1816441,44.38,-1.08,-0.88,1.46,79,218,2.027231454849243,1.3967329263687134
42,-0.05818316340446472,-2.4696688652038574,0.017145447432994843,36.7147168,3.1816293,42.14,-1.07,-0.88,1.47,79,218,2.026937484741211,1.3921078443527222
43,-0.04981119558215141,-2.468967914581299,-0.022675083950161934,36.7146997,3.181612,39.51,-1.06,-0.88,1.47,78,218,2.023423910140991,1.3898264169692993
44,-0.017592916265130043,-2.4692208766937256,0.022562727332115173,36.7146852,3.1815974,37.26,-1.07,-0.88,1.47,78,218,2.026481866836548,1.390038251876831
45,-0.05503212288022041,-2.4702601432800293,0.023453865200281143,36.7146682,3.1815802,34.64,-1.06,-0.89,1.48,78,218,2.0306222438812256,1.3896039724349976
46,-0.01181000005453825,-2.469987154006958,-0.0156001728028059,36.7146536,3.1815654,32.39,-1.06,-0.88,1.47,77,218,2.024526834487915,1.3872349262237549
47,-0.015963835641741753,-2.469215154647827,0.022266127169132233,36.7146366,3.1815482,29.76,-1.06,-0.87,1.47,77,218,2.014822483062744,1.3739614486694336
48,-0.055394116789102554,-2.4693493843078613,-0.017135579138994217,36.7146221,3.1815337,27.52,-1.06,-0.88,1.47,76,218,2.0301733016967773,1.389797568321228
49,-0.01803172565996647,-2.4693751335144043,0.02265532687306404,36.7146074,3.1815188,25.26,-1.06,-0.88,1.47,76,218,2.025730848312378,1.3855332136154175
50,-0.14077334105968475,-3.0254054069519043,-0.08321595937013626,36.7145871,3.1815044,22.72,-1.77,-0.27,1.18,76,186,2.158135175704956,1.8009333610534668
51,-0.21364428102970123,2.674365997314453,-0.043896764516830444,36.7145526,3.1815156,21.88,-3.36,1.57,0.0,75,153,3.7103731632232666,3.7103734016418457
52,-0.15433867275714874,2.6798245906829834,0.02246805466711521,36.7144913,3.1815529,21.98,-4.05,2.02,0.01,75,153,4.5388712882995605,4.5388503074646
53,-0.04945084825158119,2.9208343029022217,0.1470470279455185,36.7144379,3.1815811,21.93,-3.64,0.79,0.05,75,167,3.7294857501983643,3.7291295528411865
54,-0.3332047462463379,-2.272028923034668,0.17590180039405823,36.7143945,3.1815656,21.91,-2.93,-2.96,0.02,74,229,4.17637300491333,4.17631721496582
55,-0.5143226981163025,-2.1440842151641846,0.00887966062873602,36.7143407,3.1814686,21.91,-4.13,-6.57,0.01,74,237,7.761538505554199,7.761529922485352
56,-0.44658711552619934,-2.146810293197632,0.017741112038493156,36.7142788,3.1813463,21.92,-4.88,-7.65,0.0,73,237,9.079753875732422,9.079753875732422
57,-0.3666503429412842,-2.151547908782959,-0.005064820870757103,36.7142014,3.1811966,21.94,-4.71,-7.27,0.0,73,236,8.669270515441895,8.669266700744629
58,-0.21438828110694885,-2.1453475952148438,0.036565255373716354,36.714143,3.1810836,21.94,-3.87,-6.08,0.02,73,237,7.217215061187744,7.217164039611816
59,-0.2771065831184387,-2.119515895843506,-0.008821498602628708,36.7140945,3.1809856,21.91,-3.39,-5.69,0.01,72,238,6.626442909240723,6.626413822174072
60,-0.25842705368995667,-2.099489212036133,0.020916234701871872,36.7140429,3.1808745,21.92,-3.21,-5.63,0.01,72,239,6.487300395965576,6.4872918128967285
61,-0.22128883004188538,-2.1003777980804443,-0.013911191374063492,36.7139995,3.18078,21.92,-3.1,-5.45,0.0,71,239,6.275012969970703,6.275012493133545
62,0.15416237711906433,-2.1008245944976807,-0.019556986168026924,36.7139591,3.1806919,21.9,-1.73,-3.02,0.03,71,239,3.4891676902770996,3.488940715789795
63,0.09786912053823471,-2.100642681121826,0.02090487815439701,36.7139464,3.1806641,21.9,-0.26,-0.49,-0.02,71,239,0.5600536465644836,0.5596809983253479
64,0.021798469126224518,-2.0998342037200928,0.004722600802779198,36.7139464,3.1806639,21.9,0.12,0.15,0.01,70,239,0.19329355657100677,0.19254034757614136
