timestamp,pitch,yaw,roll,lat,lon,alt,velocity_x,velocity_y,velocity_z,battery,heading,airspeed,groundspeed
0,0.02205423079431057,-0.02100301720201969,0.02249695546925068,36.7156067,3.1846299,21.87,-0.02,0.03,-0.04,96,358,0.06306774914264679,0.04184959828853607
1,-0.07560882717370987,-0.025821330025792122,0.07428009808063507,36.7156078,3.1846323,21.83,0.31,0.54,-0.03,95,358,0.6326671838760376,0.6315934658050537
2,-0.1696062982082367,1.444251537322998,-0.11182110011577606,36.7156189,3.1846541,21.87,1.47,2.23,-0.04,95,82,2.6797640323638916,2.6794557571411133
3,-0.13916385173797607,0.8900789618492126,0.027100957930088043,36.7156501,3.1847122,21.87,2.26,3.41,-0.01,95,50,4.0995073318481445,4.099470138549805
4,-0.02814018912613392,0.9548799991607666,-0.018589522689580917,36.7156809,3.1847693,21.87,2.07,3.11,0.0,94,54,3.7414562702178955,3.7414512634277344
5,0.37238019704818726,1.0269676446914673,0.0034204977564513683,36.7156971,3.1847985,21.89,-0.56,-0.83,-0.02,94,58,1.006264328956604,1.0059481859207153
6,-0.056921303272247314,2.7358314990997314,0.2190094143152237,36.7156765,3.1847611,21.87,-2.15,-3.08,0.05,93,156,3.7605907917022705,3.760145425796509
7,-0.1144293025135994,-2.054569959640503,-0.031528081744909286,36.7156463,3.184706,21.9,-2.23,-3.31,-0.03,93,242,3.9946815967559814,3.994516372680664
8,0.002198369475081563,-1.6457010507583618,0.21814067661762238,36.7156231,3.1846431,21.87,-0.12,-2.93,0.02,93,265,2.9379751682281494,2.9378814697265625
9,-0.4139009416103363,-0.6654157638549805,0.09774388372898102,36.7156468,3.1845951,21.85,3.67,-3.01,0.0,92,321,4.752449035644531,4.752446174621582
10,-0.47976255416870117,-0.6161977648735046,0.029787668958306313,36.7157166,3.1845328,21.86,6.47,-4.48,0.0,92,324,7.874722480773926,7.874720573425293
11,-0.5304640531539917,-0.6191757321357727,-0.002977726748213172,36.7158324,3.1844328,21.87,7.84,-5.46,0.0,91,324,9.560827255249023,9.56082534790039
12,-0.4137609302997589,-0.6188080310821533,0.030495714396238327,36.7159393,3.1843393,21.89,7.71,-5.44,-0.02,91,324,9.44123649597168,9.44119644165039
13,-0.09858132898807526,-0.6221871972084045,-0.029347077012062073,36.7160479,3.1842435,21.92,5.6,-3.99,0.03,91,324,6.882775783538818,6.8826751708984375
14,0.09750763326883316,-1.010685920715332,-0.22450128197669983,36.7161009,3.1841877,21.99,1.85,-2.9,-0.18,90,302,3.4456772804260254,3.4408328533172607
15,-0.41000044345855713,-2.12709379196167,-0.05515303835272789,36.7160912,3.1841222,22.94,-2.78,-4.32,-0.88,90,238,5.2184038162231445,5.142258644104004
16,-0.44447487592697144,-2.1631927490234375,0.004441486205905676,36.716038,3.1840284,24.73,-4.79,-6.81,-1.41,89,236,8.447978019714355,8.328349113464355
17,-0.4658057391643524,-2.163886308670044,-0.027096107602119446,36.7159666,3.1839009,27.1,-5.51,-7.99,-1.6,89,236,9.845602035522461,9.713934898376465
18,-0.45035192370414734,-2.1642374992370605,0.04010526090860367,36.715879,3.183741,29.96,-5.53,-8.21,-1.58,88,236,10.032156944274902,9.90661907196045
19,-0.43017178773880005,-2.161226272583008,-0.009833892807364464,36.7158039,3.1836012,32.42,-5.53,-8.24,-1.59,88,236,10.063016891479492,9.935530662536621
20,-0.4865211546421051,-2.1684722900390625,0.02463648095726967,36.7157162,3.1834385,35.3,-5.51,-8.21,-1.61,87,235,10.031990051269531,9.901369094848633
21,-0.4346185028553009,-2.1640355587005615,0.043877340853214264,36.7156414,3.1832991,37.79,-5.49,-8.27,-1.62,87,236,10.068679809570312,9.937135696411133
22,-0.47558265924453735,-2.162184000015259,-0.02484244294464588,36.7155546,3.1831362,40.71,-5.51,-8.28,-1.62,87,236,10.087639808654785,9.956385612487793
23,-0.48431915044784546,-2.164977788925171,0.03775392472743988,36.7154799,3.182997,43.21,-5.51,-8.27,-1.62,86,235,10.079351425170898,9.946928977966309
24,-0.4217117428779602,-2.162299871444702,0.015912851318717003,36.715405,3.1828566,45.7,-5.5,-8.29,-1.63,86,236,10.086066246032715,9.952006340026855
25,-0.4929760694503784,-2.165546178817749,-0.004195400979369879,36.7153179,3.1826941,48.63,-5.54,-8.28,-1.62,85,235,10.0949125289917,9.962647438049316
26,-0.46941113471984863,-2.164180278778076,0.034154921770095825,36.7152431,3.1825541,51.13,-5.51,-8.31,-1.63,85,236,10.113905906677246,9.980287551879883
27,-0.44953054189682007,-2.1644434928894043,-0.032940637320280075,36.715156,3.1823906,54.04,-5.53,-8.3,-1.64,84,235,10.108696937561035,9.974434852600098
28,-0.4915940761566162,-2.1661338806152344,0.006972204893827438,36.7150811,3.1822511,56.54,-5.51,-8.26,-1.64,84,235,10.070223808288574,9.935041427612305
29,-0.27666720747947693,-2.1677966117858887,0.03241626173257828,36.7150087,3.1821165,58.97,-4.95,-7.35,-1.49,83,235,8.994561195373535,8.870019912719727
30,-0.08815252035856247,-2.1630373001098633,-0.010282788425683975,36.7149448,3.1819971,61.06,-3.08,-4.69,-0.75,83,236,5.672080039978027,5.621629238128662
31,-0.12223470956087112,-2.1232218742370605,0.030879590660333633,36.7149104,3.1819292,61.76,-2.23,-3.72,-0.2,83,238,4.343501091003418,4.3386359214782715
32,-0.18540790677070618,-2.1018238067626953,0.019585363566875458,36.714877,3.1818575,61.85,-2.07,-3.66,0.0,82,239,4.212693691253662,4.212693214416504
33,0.004266247618943453,-2.103222131729126,-0.009847907349467278,36.7148496,3.1817979,61.84,-1.82,-3.2,0.0,82,239,3.690654993057251,3.6906445026397705
34,-0.0031044878996908665,-2.2502505779266357,-0.04984405264258385,36.7148293,3.1817575,61.28,-1.23,-1.62,0.9,82,231,2.231621026992798,2.039497137069702
35,-0.034716177731752396,-2.4820289611816406,-0.02663695067167282,36.7148115,3.1817364,58.81,-1.03,-0.8,1.46,81,217,1.9635056257247925,1.3096799850463867
36,-0.04153779149055481,-2.4725728034973145,0.031192965805530548,36.7147975,3.1817233,56.57,-1.03,-0.81,1.42,81,218,1.9425859451293945,1.3171714544296265
37,-0.06405296921730042,-2.469984531402588,-0.004315074533224106,36.7147809,3.181707,53.96,-1.06,-0.88,1.44,81,218,1.9981720447540283,1.3781788349151611
38,-0.011464839801192284,-2.469665288925171,0.011807306669652462,36.7147664,3.1816924,51.71,-1.07,-0.87,1.45,80,218,2.0051512718200684,1.3843568563461304
39,-0.05897274613380432,-2.469564437866211,-0.007882768288254738,36.7147518,3.1816778,49.47,-1.06,-0.88,1.45,80,218,2.010747194290161,1.3875861167907715
40,-0.0232396200299263,-2.469796895980835,-0.022829903289675713,36.7147348,3.1816608,46.85,-1.07,-0.88,1.46,79,218,2.018164873123169,1.3916360139846802
41,-0.05343448743224144,-2.469879388809204,0.02271324209868908,36.7147202,3.181646,44.6,-1.05,-0.88,1.46,79,218,2.0146431922912598,1.3813616037368774
42,-0.05327267572283745,-2.469492197036743,-0.018115047365427017,36.7147032,3.1816289,41.98,-1.07,-0.88,1.46,79,218,2.022718667984009,1.3917367458343506
43,-0.023138614371418953,-2.468958616256714,0.028621923178434372,36.7146886,3.1816141,39.74,-1.06,-0.88,1.47,78,218,2.0213868618011475,1.384775996208191
44,-0.05786716938018799,-2.4698081016540527,0.018696319311857224,36.7146716,3.181597,37.12,-1.06,-0.88,1.47,78,218,2.0219924449920654,1.3817499876022339
45,-0.008171972818672657,-2.469357490539551,-0.006896472070366144,36.7146571,3.1815823,34.87,-1.06,-0.88,1.47,78,218,2.0241944789886475,1.3818379640579224
46,-0.058136843144893646,-2.470120429992676,0.008409603498876095,36.7146424,3.1815675,32.63,-1.06,-0.88,1.48,77,218,2.03110933303833,1.3836771249771118
47,-0.03826915845274925,-2.4692940711975098,-0.02494889311492443,36.7146254,3.1815503,30.0,-1.06,-0.88,1.48,77,218,2.030693531036377,1.388102412223816
48,-0.030366817489266396,-2.4695043563842773,0.028143828734755516,36.7146108,3.1815356,27.74,-1.06,-0.88,1.47,77,218,2.0216920375823975,1.3781123161315918
49,-0.06246814504265785,-2.4698688983917236,0.004228587262332439,36.7145938,3.1815185,25.12,-1.06,-0.88,1.47,76,218,2.0230979919433594,1.3819444179534912
50,-0.07150937616825104,-2.9119319915771484,-0.09337151050567627,36.7145769,3.1815056,22.91,-1.63,-0.43,1.29,76,193,2.1312437057495117,1.693009614944458
51,-0.26365408301353455,2.681553840637207,-0.04258142039179802,36.7145449,3.1815132,21.86,-3.19,1.4,0.07,75,153,3.4942357540130615,3.493513822555542
52,-0.1527557224035263,2.679600477218628,-0.028652042150497437,36.7144849,3.1815493,21.95,-4.06,2.03,0.0,75,153,4.546394348144531,4.546384811401367
53,-0.05789346620440483,2.8506104946136475,0.16794033348560333,36.7144311,3.1815796,21.91,-3.74,1.08,0.06,75,163,3.897242307662964,3.896773338317871
54,-0.2979355454444885,-2.365903377532959,0.16803690791130066,36.7143863,3.1815712,21.88,-2.93,-2.48,0.02,74,224,3.846590042114258,3.8464856147766113
55,-0.4696802496910095,-2.1396422386169434,0.03194916620850563,36.7143341,3.1814814,21.88,-3.96,-6.31,0.01,74,237,7.454597473144531,7.454586029052734
56,-0.4496346414089203,-2.146880626678467,-0.021709095686674118,36.7142735,3.1813618,21.89,-4.84,-7.64,0.0,73,237,9.046932220458984,9.046932220458984
57,-0.3680339753627777,-2.1526038646698,0.027920909225940704,36.714196,3.1812114,21.91,-4.78,-7.39,0.0,73,236,8.809041976928711,8.809041976928711
58,-0.2152332216501236,-2.1480212211608887,0.0010282406583428383,36.7141364,3.1810963,21.91,-3.97,-6.21,0.02,73,236,7.381920337677002,7.381860256195068
59,-0.27961477637290955,-2.117576837539673,0.04457573592662811,36.7140796,3.1809813,21.88,-3.37,-5.69,0.01,72,238,6.617149353027344,6.61713171005249
60,-0.25197094678878784,-2.100660562515259,-0.006893960293382406,36.7140352,3.1808859,21.88,-3.23,-5.64,0.0,72,239,6.50887393951416,6.508870601654053
61,-0.2445240318775177,-2.1002197265625,0.010626339353621006,36.7139915,3.1807907,21.88,-3.15,-5.53,0.0,71,239,6.365957260131836,6.365956783294678
62,0.09769612550735474,-2.1009442806243896,-0.029327116906642914,36.7139492,3.1806987,21.87,-1.94,-3.38,0.03,71,239,3.9042441844940186,3.904045581817627
63,0.12586024403572083,-2.100881576538086,0.027929965406656265,36.7139342,3.1806658,21.86,-0.38,-0.69,-0.02,71,239,0.7972695231437683,0.7969280481338501
64,-0.027623707428574562,-2.1014251708984375,0.01904289983212948,36.7139337,3.1806645,21.86,0.13,0.13,0.03,70,239,0.19841012358665466,0.19499939680099487
