timestamp,pitch,yaw,roll,lat,lon,alt,velocity_x,velocity_y,velocity_z,battery,heading,airspeed,groundspeed
0,0.004978323820978403,-0.05496722832322121,0.03034117817878723,36.7156065,3.1846299,20.31,-0.01,0.03,0.04,96,356,0.05587082356214523,0.0384894534945488
1,-0.07369550317525864,-0.053529366850852966,0.07091695070266724,36.715608,3.1846326,20.27,0.35,0.57,0.0,95,356,0.6783775687217712,0.6783492565155029
2,-0.18151496350765228,1.451090693473816,-0.1035723090171814,36.7156203,3.1846557,20.25,1.6,2.36,-0.02,95,83,2.852851390838623,2.8527631759643555
3,-0.15342886745929718,0.8743883371353149,0.03314058482646942,36.7156537,3.184716,20.29,2.42,3.49,-0.03,95,50,4.25079870223999,4.250665187835693
4,-0.01354501023888588,0.9352753162384033,-0.024692174047231674,36.7156864,3.1847738,20.31,2.18,3.11,-0.01,94,53,3.8071751594543457,3.8071329593658447
5,0.389250248670578,0.8246946930885315,-0.05932515859603882,36.7157034,3.1848023,20.3,-0.58,-0.87,0.0,94,47,1.0541648864746094,1.0541236400604248
6,-0.05360977351665497,-0.8544270992279053,-0.15551342070102692,36.7156824,3.1847639,20.34,-2.18,-3.13,-0.03,93,311,3.8244669437408447,3.8243484497070312
7,-0.11199654638767242,-2.3420238494873047,0.011628016829490662,36.7156521,3.1847089,20.34,-2.25,-3.26,0.01,93,225,3.9664852619171143,3.966442823410034
8,-0.007484946399927139,-1.584643840789795,0.22704236209392548,36.7156297,3.1846462,20.32,-0.09,-2.9,0.01,93,269,2.9029531478881836,2.902925491333008
9,-0.42074447870254517,-0.6503217816352844,0.09748425334692001,36.7156543,3.1845982,20.31,3.72,-3.03,0.0,92,322,4.805449485778809,4.80544900894165
10,-0.49637919664382935,-0.6243569254875183,-0.01803596131503582,36.7157402,3.1845222,20.31,6.83,-4.73,0.0,92,324,8.314888954162598,8.3148832321167
11,-0.5247337818145752,-0.616305947303772,-0.002574958372861147,36.7158411,3.1844351,20.33,7.87,-5.48,0.0,91,324,9.590862274169922,9.590861320495605
12,-0.3945489525794983,-0.6186156272888184,0.027341188862919807,36.7159476,3.1843417,20.35,7.68,-5.43,-0.02,91,324,9.413477897644043,9.413451194763184
13,-0.09994100034236908,-0.6222195625305176,-0.015107973478734493,36.7160559,3.1842461,20.38,5.54,-3.94,0.04,91,324,6.803651332855225,6.803518772125244
14,0.07751312106847763,-0.8710649609565735,-0.1650698333978653,36.7161028,3.1841989,20.41,2.51,-2.95,-0.11,90,310,3.8789737224578857,3.8773744106292725
15,-0.38542455434799194,-2.1288278102874756,-0.04820845648646355,36.7160968,3.184125,21.41,-2.86,-4.36,-0.9,90,238,5.302460670471191,5.225283145904541
16,-0.45110759139060974,-2.1606192588806152,-0.023898739367723465,36.7160428,3.1840301,23.23,-4.77,-6.85,-1.42,89,236,8.475648880004883,8.355347633361816
17,-0.49840590357780457,-2.16255784034729,-0.01090377476066351,36.7159716,3.1839024,25.6,-5.52,-7.99,-1.59,89,236,9.849210739135742,9.718387603759766
18,-0.4290439486503601,-2.16387939453125,0.015907209366559982,36.7158838,3.1837422,28.47,-5.56,-8.21,-1.58,88,236,10.050453186035156,9.925415992736816
19,-0.4524286091327667,-2.1632637977600098,-0.030112842097878456,36.7158085,3.1836022,30.93,-5.54,-8.23,-1.58,88,236,10.053959846496582,9.928406715393066
20,-0.45212844014167786,-2.1670053005218506,0.04134189710021019,36.715721,3.1834398,33.82,-5.51,-8.23,-1.6,87,235,10.040643692016602,9.911806106567383
21,-0.42266684770584106,-2.163849115371704,-0.005235827062278986,36.7156466,3.183301,36.3,-5.5,-8.25,-1.61,87,236,10.055316925048828,9.92440414428711
22,-0.4822617471218109,-2.1629929542541504,-0.021929269656538963,36.7155719,3.1831612,38.8,-5.5,-8.3,-1.61,87,236,10.09367847442627,9.963404655456543
23,-0.43076837062835693,-2.1635489463806152,0.028630293905735016,36.7154848,3.1829981,41.71,-5.51,-8.28,-1.62,86,236,10.080669403076172,9.949108123779297
24,-0.443144828081131,-2.1631364822387695,-0.029861729592084885,36.7154102,3.1828585,44.2,-5.52,-8.3,-1.63,86,236,10.104843139648438,9.971774101257324
25,-0.46802711486816406,-2.1661295890808105,0.0388253815472126,36.7153227,3.1826952,47.12,-5.52,-8.29,-1.63,85,235,10.1017427444458,9.96787166595459
26,-0.4277818202972412,-2.164480209350586,0.0044600265100598335,36.7152479,3.1825554,49.63,-5.5,-8.27,-1.63,85,235,10.07542896270752,9.942447662353516
27,-0.47662898898124695,-2.163703441619873,-0.027262721210718155,36.7151734,3.1824157,52.13,-5.52,-8.31,-1.63,84,236,10.115863800048828,9.983013153076172
28,-0.4405732750892639,-2.1658096313476562,0.03634141758084297,36.715086,3.1822525,55.06,-5.52,-8.28,-1.63,84,235,10.092469215393066,9.95835018157959
29,-0.26569318771362305,-2.169010639190674,-0.017641885206103325,36.7150137,3.1821182,57.48,-4.92,-7.33,-1.46,83,235,8.952961921691895,8.832695960998535
30,-0.06514526158571243,-2.1629228591918945,0.036223843693733215,36.7149504,3.1819998,59.53,-3.06,-4.64,-0.73,83,236,5.61370325088501,5.565099716186523
31,-0.14996814727783203,-2.122884511947632,-0.008453579619526863,36.7149161,3.1819322,60.21,-2.24,-3.73,-0.2,83,238,4.357178211212158,4.35249137878418
32,-0.12471868097782135,-2.1010234355926514,0.006484535057097673,36.7148827,3.1818603,60.29,-2.07,-3.67,0.0,82,239,4.2172017097473145,4.217194557189941
33,-0.046662747859954834,-2.102715015411377,-0.00786334928125143,36.7148555,3.1818008,60.29,-1.78,-3.18,0.01,82,239,3.6497886180877686,3.6497726440429688
34,0.04733487218618393,-2.26015043258667,-0.03743741288781166,36.7148355,3.1817609,59.7,-1.24,-1.59,0.93,82,230,2.2319588661193848,2.027418851852417
35,-0.03683219477534294,-2.481301784515381,0.025555826723575592,36.7148176,3.1817401,57.21,-1.03,-0.79,1.45,81,217,1.9598057270050049,1.3074231147766113
36,-0.026640908792614937,-2.4729061126708984,-0.02023211307823658,36.7148036,3.1817271,54.97,-1.03,-0.81,1.42,81,218,1.9426296949386597,1.3226089477539062
37,-0.012640578672289848,-2.4703822135925293,0.013917946256697178,36.7147871,3.1817108,52.36,-1.06,-0.87,1.44,80,218,1.9950573444366455,1.3770731687545776
38,-0.057541463524103165,-2.470179557800293,-0.011496282182633877,36.7147725,3.1816962,50.12,-1.07,-0.88,1.44,80,218,2.008289337158203,1.3904324769973755
39,-0.010890037752687931,-2.4696710109710693,0.011313457041978836,36.7147579,3.1816815,47.87,-1.07,-0.87,1.44,80,218,2.005237102508545,1.3851048946380615
40,-0.041712090373039246,-2.470020055770874,0.02587745152413845,36.714741,3.1816645,45.26,-1.07,-0.89,1.46,79,218,2.0222270488739014,1.393856406211853
41,-0.02057029865682125,-2.470315933227539,-0.02045789547264576,36.7147264,3.1816498,43.01,-1.07,-0.88,1.46,79,218,2.024905204772949,1.3941009044647217
42,-0.015208096243441105,-2.470133066177368,0.01749085634946823,36.7147093,3.1816328,40.39,-1.06,-0.87,1.46,79,218,2.0139567852020264,1.3802133798599243
43,-0.053996194154024124,-2.469532012939453,-0.01750335283577442,36.7146948,3.181618,38.14,-1.06,-0.89,1.47,78,218,2.0279855728149414,1.3952041864395142
44,-0.009295069612562656,-2.4697282314300537,0.014317590743303299,36.7146802,3.1816032,35.9,-1.07,-0.89,1.47,78,218,2.0339789390563965,1.3954081535339355
45,-0.051588889211416245,-2.470116376876831,0.026136450469493866,36.7146631,3.1815861,33.27,-1.06,-0.88,1.47,78,218,2.020991325378418,1.3831232786178589
46,-0.01989060640335083,-2.4704935550689697,-0.01953306421637535,36.7146486,3.1815714,31.02,-1.06,-0.87,1.47,77,218,2.020862102508545,1.3814893960952759
47,-0.017525848001241684,-2.4694228172302246,0.017901422455906868,36.7146316,3.1815543,28.4,-1.06,-0.88,1.48,77,218,2.0282695293426514,1.3860853910446167
48,-0.05759984254837036,-2.4697530269622803,-0.013831786811351776,36.714617,3.1815395,26.15,-1.06,-0.88,1.47,76,218,2.0263538360595703,1.3859686851501465
49,-0.014230244792997837,-2.4696695804595947,0.02582002431154251,36.7146024,3.1815248,23.89,-1.05,-0.87,1.47,76,218,2.014573812484741,1.3748503923416138
50,-0.12561102211475372,-2.932016134262085,-0.07976125180721283,36.714583,3.1815096,21.32,-1.66,-0.41,1.28,76,192,2.1413705348968506,1.7153465747833252
51,-0.21503996849060059,2.670947551727295,-0.05479566380381584,36.7145505,3.181518,20.31,-3.21,1.47,0.05,75,153,3.538540840148926,3.538071870803833
52,-0.15218931436538696,2.672267198562622,0.020557720214128494,36.7144908,3.1815549,20.4,-3.99,2.04,0.0,75,153,4.48746395111084,4.487461090087891
53,-0.05383574217557907,2.8744187355041504,0.13432233035564423,36.7144377,3.1815845,20.36,-3.66,0.98,0.05,75,164,3.7938132286071777,3.793365955352783
54,-0.3164585828781128,-2.316373825073242,0.19694159924983978,36.7143938,3.1815732,20.33,-2.91,-2.71,0.02,74,227,3.986030101776123,3.9859628677368164
55,-0.510291337966919,-2.1417198181152344,0.006615933496505022,36.714341,3.1814799,20.33,-4.04,-6.44,0.01,74,237,7.610677242279053,7.610665321350098
56,-0.4560098350048065,-2.1468772888183594,0.0200254675000906,36.71428,3.1813594,20.34,-4.86,-7.63,0.0,73,237,9.057551383972168,9.057550430297852
57,-0.3730575144290924,-2.1510422229766846,-0.009359863586723804,36.7142023,3.1812089,20.36,-4.76,-7.36,-0.01,73,236,8.7737398147583,8.77373218536377
58,-0.21907280385494232,-2.147784471511841,0.03917672857642174,36.714143,3.1810944,20.36,-3.93,-6.15,0.02,73,236,7.301339626312256,7.301279067993164
59,-0.2773238718509674,-2.126279592514038,-0.013014380820095539,36.714094,3.1809962,20.33,-3.44,-5.67,0.02,72,238,6.641589164733887,6.6415534019470215
60,-0.25826317071914673,-2.1083736419677734,0.019644636660814285,36.7140414,3.1808855,20.34,-3.27,-5.63,0.0,72,239,6.521427154541016,6.521421432495117
61,-0.23125122487545013,-2.1085596084594727,-0.018201829865574837,36.713997,3.1807906,20.34,-3.18,-5.49,0.0,71,239,6.357712745666504,6.357712268829346
62,0.14369580149650574,-2.1096606254577637,-0.016309546306729317,36.7139546,3.1807,20.32,-1.89,-3.24,0.04,71,239,3.7557196617126465,3.755492925643921
63,0.10388469696044922,-2.109365463256836,0.012618782930076122,36.7139403,3.1806694,20.32,-0.34,-0.6,-0.01,71,239,0.6993064284324646,0.6990345120429993
64,0.03269943967461586,-2.1085045337677,0.0028378465212881565,36.7139399,3.1806685,20.32,0.11,0.15,0.03,70,239,0.19523672759532928,0.1929074078798294
