timestamp,pitch,yaw,roll,lat,lon,alt,velocity_x,velocity_y,velocity_z,battery,heading,airspeed,groundspeed
0,-0.019604085013270378,0.02754264324903488,0.021355418488383293,36.7156066,3.18463,18.59,-0.02,0.03,0.03,96,1,0.05023399740457535,0.03817961737513542
1,-0.060557782649993896,0.03311619162559509,0.07752726227045059,36.715608,3.1846325,18.59,0.37,0.56,0.0,95,1,0.681158185005188,0.6811472773551941
2,-0.21356827020645142,1.3393008708953857,-0.05116061121225357,36.7156222,3.1846559,18.55,1.74,2.39,-0.02,95,76,2.967876434326172,2.9677770137786865
3,-0.17709721624851227,0.9450274109840393,0.00792448315769434,36.7156568,3.1847154,18.6,2.46,3.36,-0.03,95,54,4.17805814743042,4.177874565124512
4,0.08110593259334564,0.9195178747177124,-0.01016222033649683,36.7156897,3.18477,18.63,2.08,2.73,-0.02,94,52,3.4359397888183594,3.435877561569214
5,0.3036732077598572,0.3369705379009247,-0.17129385471343994,36.7157018,3.1847868,18.63,-0.96,-1.51,0.0,94,19,1.797614574432373,1.7976046800613403
6,-0.11120656132698059,-1.2739531993865967,-0.15075454115867615,36.7156778,3.1847429,18.67,-2.25,-3.26,-0.01,93,287,3.967219591140747,3.9671833515167236
7,-0.05513869225978851,-2.272650718688965,0.03622191399335861,36.7156427,3.1846777,18.66,-1.97,-3.24,0.01,93,229,3.8037047386169434,3.80366849899292
8,-0.09781398624181747,-1.4285109043121338,0.2934557795524597,36.7156302,3.1846253,18.64,0.53,-2.79,0.01,93,278,2.85003662109375,2.8500025272369385
9,-0.41104623675346375,-0.661003828048706,0.04402562603354454,36.7156636,3.1845767,18.64,4.29,-3.23,0.0,92,322,5.376734733581543,5.376734733581543
10,-0.5455722808837891,-0.6275490522384644,0.03103920817375183,36.7157403,3.1845095,18.64,6.86,-4.74,0.0,92,324,8.35081958770752,8.350818634033203
11,-0.45725834369659424,-0.618053138256073,-0.023988109081983566,36.7158596,3.1844063,18.66,7.86,-5.51,0.0,91,324,9.602804183959961,9.602800369262695
12,-0.3529597222805023,-0.6209496855735779,0.030155960470438004,36.7159822,3.1842985,18.7,7.31,-5.18,-0.01,91,324,8.964483261108398,8.964469909667969
13,-0.0026368459220975637,-0.6308697462081909,-0.058875445276498795,36.7160682,3.1842226,18.71,5.02,-3.66,0.05,91,323,6.223423004150391,6.223217010498047
14,-0.028949860483407974,-1.2305927276611328,-0.2539471685886383,36.7161111,3.1841698,18.85,0.96,-2.89,-0.27,90,289,3.066101551055908,3.054025411605835
15,-0.4252946674823761,-2.1388890743255615,-0.07888585329055786,36.7160896,3.1840991,20.0,-3.33,-4.77,-0.99,90,237,5.913761138916016,5.828670978546143
16,-0.500562310218811,-2.1597602367401123,0.03644438087940216,36.7160317,3.1839974,21.93,-5.0,-7.16,-1.48,89,236,8.863893508911133,8.73930835723877
17,-0.42581290006637573,-2.1642794609069824,-0.026919975876808167,36.7159461,3.1838433,24.76,-5.52,-8.05,-1.6,89,236,9.89427375793457,9.764046669006348
18,-0.4952974021434784,-2.1640114784240723,0.0016926663229241967,36.7158708,3.1837051,27.22,-5.53,-8.19,-1.57,88,236,10.0103178024292,9.88627815246582
19,-0.4624078869819641,-2.1631596088409424,0.03787333145737648,36.7157957,3.1835659,29.68,-5.54,-8.26,-1.59,88,236,10.078777313232422,9.952170372009277
20,-0.4616181552410126,-2.165889024734497,-0.030077824369072914,36.7157084,3.1834033,32.58,-5.51,-8.24,-1.59,88,235,10.047792434692383,9.92011547088623
21,-0.4933261275291443,-2.1647236347198486,0.01639711856842041,36.7156337,3.1832638,35.07,-5.51,-8.28,-1.6,87,235,10.078676223754883,9.950699806213379
22,-0.4271310269832611,-2.1637632846832275,-0.011489927768707275,36.7155465,3.1831009,37.97,-5.51,-8.26,-1.61,87,236,10.066840171813965,9.936422348022461
23,-0.4814395308494568,-2.1639652252197266,-0.019278811290860176,36.7154718,3.1829614,40.47,-5.52,-8.3,-1.62,86,236,10.111482620239258,9.979690551757812
24,-0.4379957318305969,-2.1638343334198,0.03382815793156624,36.7153846,3.1827981,43.39,-5.5,-8.28,-1.62,86,236,10.082097053527832,9.949960708618164
25,-0.43577104806900024,-2.166221857070923,-0.021096691489219666,36.7153099,3.1826582,45.89,-5.52,-8.3,-1.63,85,235,10.108222007751465,9.975845336914062
26,-0.48552748560905457,-2.1639697551727295,-0.0060723344795405865,36.7152352,3.1825186,48.39,-5.52,-8.29,-1.63,85,236,10.101083755493164,9.967658996582031
27,-0.42769384384155273,-2.1644930839538574,0.02024226449429989,36.7151478,3.1823554,51.31,-5.52,-8.3,-1.64,84,235,10.103617668151855,9.969230651855469
28,-0.4345864951610565,-2.162209987640381,-0.03594045713543892,36.7150732,3.1822154,53.83,-5.49,-8.25,-1.62,84,236,10.053386688232422,9.921243667602539
29,-0.18002630770206451,-2.167917490005493,0.030128605663776398,36.7149923,3.1820654,56.54,-4.47,-6.62,-1.32,83,235,8.104411125183105,7.995232105255127
30,-0.04964457079768181,-2.1584300994873047,-0.013180815614759922,36.7149434,3.1819738,58.04,-2.84,-4.35,-0.62,83,236,5.235720157623291,5.198354244232178
31,-0.1515468806028366,-2.116370677947998,0.04057987779378891,36.7149109,3.1819086,58.58,-2.17,-3.69,-0.13,83,238,4.288083076477051,4.2858357429504395
32,-0.17973379790782928,-2.1024105548858643,-0.01640997640788555,36.714878,3.1818372,58.62,-2.08,-3.7,-0.01,82,239,4.25313663482666,4.25311279296875
33,0.019334377720952034,-2.105509042739868,0.01606258563697338,36.7148514,3.1817794,58.6,-1.68,-2.93,0.08,82,239,3.3842978477478027,3.3832881450653076
34,-0.001604848075658083,-2.380453586578369,-0.02701766975224018,36.7148298,3.1817402,57.42,-1.16,-1.2,1.31,82,223,2.1295182704925537,1.6717480421066284
35,-0.008181185461580753,-2.47009015083313,-0.00909420009702444,36.7148152,3.1817254,55.15,-1.03,-0.79,1.43,81,218,1.939709186553955,1.3049520254135132
36,-0.06526225060224533,-2.47139310836792,0.013681180775165558,36.7148012,3.1817121,52.91,-1.03,-0.84,1.43,81,218,1.9582104682922363,1.337249755859375
37,-0.04018576815724373,-2.470301866531372,-0.02373691275715828,36.7147844,3.1816956,50.29,-1.06,-0.87,1.43,81,218,1.9921753406524658,1.3826805353164673
38,-0.03410749137401581,-2.4699490070343018,0.02615976706147194,36.71477,3.181681,48.05,-1.06,-0.86,1.44,80,218,1.9944576025009155,1.3770630359649658
39,-0.061290860176086426,-2.469391345977783,-0.004463069140911102,36.714753,3.1816641,45.44,-1.06,-0.88,1.45,80,218,2.012521266937256,1.3879443407058716
40,-0.010697673074901104,-2.4699771404266357,0.0024570124223828316,36.7147384,3.1816494,43.19,-1.07,-0.88,1.46,79,218,2.017871141433716,1.3906786441802979
41,-0.06225981563329697,-2.4699347019195557,-0.002288564806804061,36.7147238,3.1816347,40.95,-1.06,-0.89,1.46,79,218,2.0180792808532715,1.3911241292953491
42,-0.0301144290715456,-2.4703917503356934,-0.023503901436924934,36.7147068,3.1816176,38.33,-1.07,-0.88,1.47,79,218,2.0255353450775146,1.3908830881118774
43,-0.051695577800273895,-2.469815731048584,0.02649042382836342,36.7146922,3.1816029,36.08,-1.06,-0.89,1.47,78,218,2.0256283283233643,1.3899458646774292
44,-0.0590851828455925,-2.4698598384857178,-0.007816103287041187,36.7146752,3.1815857,33.46,-1.06,-0.89,1.46,78,218,2.0243122577667236,1.391868233680725
45,-0.013725840486586094,-2.469608783721924,0.019792482256889343,36.7146607,3.181571,31.21,-1.06,-0.88,1.47,78,218,2.023444652557373,1.3833972215652466
46,-0.056770190596580505,-2.4700751304626465,-0.012830078601837158,36.714646,3.1815563,28.96,-1.07,-0.88,1.47,77,218,2.029475450515747,1.3923958539962769
47,-0.01540040597319603,-2.469898223876953,-0.016706515103578568,36.714629,3.1815391,26.33,-1.06,-0.88,1.47,77,218,2.019078016281128,1.3837146759033203
48,-0.05528227984905243,-2.4700841903686523,0.021417664363980293,36.7146144,3.1815244,24.08,-1.05,-0.88,1.47,77,218,2.014533519744873,1.3760000467300415
49,-0.055313680320978165,-2.4704556465148926,-0.01970648393034935,36.7145975,3.1815073,21.46,-1.07,-0.88,1.47,76,218,2.029081106185913,1.390232801437378
50,-0.1174466535449028,-3.113722085952759,-0.08182831108570099,36.7145788,3.1814962,19.33,-1.87,-0.13,1.1,76,181,2.1833908557891846,1.8836860656738281
51,-0.23914578557014465,2.6691484451293945,-0.047651808708906174,36.7145427,3.18151,18.63,-3.43,1.66,-0.03,75,152,3.8150081634521484,3.814836025238037
52,-0.13395977020263672,2.672879695892334,-0.005137448664754629,36.7144815,3.181548,18.73,-4.01,2.05,0.02,75,153,4.506033420562744,4.505937576293945
53,-0.05280075594782829,2.994826555252075,0.19825579226016998,36.7144292,3.181574,18.68,-3.52,0.49,0.05,75,171,3.5569050312042236,3.5565309524536133
54,-0.398477166891098,-2.1931138038635254,0.0701109990477562,36.7143801,3.1815415,18.66,-3.03,-4.02,0.01,74,234,5.0408549308776855,5.040823459625244
55,-0.5078840851783752,-2.1496593952178955,0.034207720309495926,36.7143317,3.1814488,18.66,-4.25,-6.76,0.01,74,236,7.989567279815674,7.989560127258301
56,-0.4329984784126282,-2.1507017612457275,-0.024788934737443924,36.7142576,3.1813029,18.67,-4.94,-7.71,0.0,73,236,9.165061950683594,9.165060997009277
57,-0.35327836871147156,-2.1532955169677734,0.013901641592383385,36.7141914,3.1811753,18.7,-4.62,-7.12,0.0,73,236,8.495872497558594,8.495872497558594
58,-0.21453526616096497,-2.1451354026794434,0.026570746675133705,36.7141342,3.1810646,18.69,-3.8,-5.97,0.03,73,237,7.083524227142334,7.083454608917236
59,-0.2953144609928131,-2.1191811561584473,0.028063416481018066,36.7140785,3.1809515,18.66,-3.36,-5.66,0.01,72,238,6.589117050170898,6.589104652404785
60,-0.25567349791526794,-2.107520341873169,0.0026334156282246113,36.7140338,3.1808564,18.67,-3.27,-5.63,0.01,72,239,6.51914119720459,6.519131183624268
61,-0.15102550387382507,-2.108746290206909,0.029493780806660652,36.7139828,3.1807477,18.67,-2.97,-5.11,0.0,71,239,5.9125142097473145,5.9125142097473145
62,0.17137379944324493,-2.1095311641693115,-0.02563989721238613,36.7139506,3.1806788,18.64,-1.57,-2.71,0.03,71,239,3.134274959564209,3.134073495864868
63,0.09289846569299698,-2.1093814373016357,0.022134318947792053,36.7139397,3.1806552,18.65,-0.17,-0.33,-0.01,71,239,0.3780026435852051,0.377592533826828
64,-0.02619435451924801,-2.1107985973358154,0.04858977347612381,36.7139407,3.1806564,18.62,0.24,0.02,0.03,70,239,0.2473200261592865,0.24444353580474854
