timestamp,pitch,yaw,roll,lat,lon,alt,velocity_x,velocity_y,velocity_z,battery,heading,airspeed,groundspeed
0,-0.014966334216296673,-0.0498485341668129,0.023526623845100403,36.7156067,3.1846299,20.35,-0.03,0.02,0.03,96,357,0.061228372156620026,0.04846537858247757
1,-0.0595531202852726,-0.03618018701672554,0.08626978099346161,36.7156082,3.1846326,20.31,0.38,0.59,0.0,95,357,0.7146538496017456,0.7146211862564087
2,-0.19902878999710083,1.4205435514450073,-0.07406637072563171,36.715622,3.1846566,20.29,1.74,2.4,-0.02,95,81,2.970736265182495,2.970611333847046
3,-0.17770321667194366,0.8999451994895935,0.02064063586294651,36.7156567,3.1847161,20.33,2.44,3.38,-0.03,95,51,4.178651809692383,4.178525924682617
4,0.07139801234006882,0.9167231917381287,-0.006758206523954868,36.7156893,3.1847712,20.35,2.08,2.8,-0.01,94,52,3.498708724975586,3.498664379119873
5,0.31780970096588135,0.43503478169441223,-0.1428607553243637,36.7157021,3.18479,20.33,-0.91,-1.41,0.0,94,24,1.6846280097961426,1.6846240758895874
6,-0.10053732246160507,-1.1895639896392822,-0.16709789633750916,36.7156787,3.184747,20.38,-2.23,-3.23,-0.01,93,291,3.9318337440490723,3.931783676147461
7,-0.078717902302742,-2.4147236347198486,0.07903594523668289,36.7156483,3.1846917,20.38,-2.18,-3.27,0.01,93,221,3.9410736560821533,3.941046714782715
8,-0.08583487570285797,-1.476788878440857,0.2801940143108368,36.7156299,3.1846295,20.35,0.4,-2.81,0.01,93,275,2.846652030944824,2.846630096435547
9,-0.3888762295246124,-0.6610326766967773,0.05564340949058533,36.7156616,3.1845808,20.35,4.19,-3.18,0.0,92,322,5.271059513092041,5.271057605743408
10,-0.5226190686225891,-0.6266223788261414,0.042504362761974335,36.7157527,3.1845013,20.36,7.09,-4.87,0.0,92,324,8.607282638549805,8.607276916503906
11,-0.45520415902137756,-0.6190296411514282,-0.003274620743468404,36.7158556,3.1844123,20.37,7.89,-5.52,0.0,91,324,9.636065483093262,9.636064529418945
12,-0.3962741792201996,-0.6192720532417297,-0.024230604991316795,36.7159619,3.184319,20.39,7.56,-5.33,-0.02,91,324,9.260207176208496,9.260181427001953
13,-0.009536763653159142,-0.6279314160346985,-0.022017894312739372,36.7160658,3.1842274,20.41,5.12,-3.7,0.04,91,324,6.326048374176025,6.325889587402344
14,-0.018210548907518387,-1.1819103956222534,-0.28105008602142334,36.7161105,3.184174,20.54,1.14,-2.88,-0.25,90,292,3.110978364944458,3.100229501724243
15,-0.3856384754180908,-2.1378073692321777,-0.08371032029390335,36.716091,3.1841044,21.65,-3.25,-4.68,-0.98,90,237,5.79276180267334,5.708256244659424
16,-0.519399881362915,-2.160336971282959,0.003894263878464699,36.7160339,3.1840041,23.58,-4.96,-7.12,-1.46,89,236,8.80433177947998,8.681846618652344
17,-0.4580589830875397,-2.163238286972046,0.03943684324622154,36.7159612,3.1838734,25.98,-5.53,-8.04,-1.6,89,236,9.897708892822266,9.76624870300293
18,-0.46233460307121277,-2.1639528274536133,-0.0322575718164444,36.7158733,3.1837126,28.84,-5.54,-8.2,-1.58,88,236,10.028741836547852,9.903247833251953
19,-0.49423226714134216,-2.1637980937957764,-0.002138240961357951,36.7157981,3.1835732,31.31,-5.53,-8.24,-1.59,88,236,10.060918807983398,9.933987617492676
20,-0.42462220788002014,-2.166229009628296,0.009561536833643913,36.7157107,3.1834108,34.21,-5.53,-8.28,-1.6,87,235,10.089219093322754,9.960848808288574
21,-0.45784854888916016,-2.164579391479492,-0.02459859289228916,36.7156359,3.1832709,36.69,-5.5,-8.29,-1.61,87,235,10.087343215942383,9.957693099975586
22,-0.48726126551628113,-2.163999319076538,0.009701741859316826,36.7155613,3.183131,39.18,-5.5,-8.26,-1.62,87,236,10.058334350585938,9.92666244506836
23,-0.43154528737068176,-2.164353847503662,0.00033798787626437843,36.7154744,3.1829687,42.1,-5.51,-8.27,-1.62,86,236,10.073391914367676,9.94098949432373
24,-0.47077012062072754,-2.166860342025757,-0.025924989953637123,36.7153995,3.182829,44.59,-5.54,-8.31,-1.63,86,235,10.132030487060547,9.999654769897461
25,-0.4520077705383301,-2.1667885780334473,0.04610425978899002,36.7153121,3.1826658,47.52,-5.5,-8.3,-1.63,85,235,10.096573829650879,9.963233947753906
26,-0.4314477741718292,-2.1639657020568848,-0.0010842230403795838,36.7152376,3.1825258,50.03,-5.51,-8.3,-1.63,85,236,10.100852966308594,9.968216896057129
27,-0.4878775477409363,-2.1654253005981445,0.013208615593612194,36.7151503,3.1823625,52.94,-5.51,-8.28,-1.63,84,235,10.090275764465332,9.957043647766113
28,-0.4347164034843445,-2.1631815433502197,0.03414752334356308,36.7150757,3.1822228,55.44,-5.5,-8.25,-1.64,84,236,10.05904483795166,9.923989295959473
29,-0.22885291278362274,-2.169450283050537,-0.009706012904644012,36.7150047,3.1820916,57.83,-4.78,-7.07,-1.41,84,235,8.659762382507324,8.543563842773438
30,-0.07195323705673218,-2.159949779510498,0.04369702562689781,36.7149447,3.1819791,59.72,-2.87,-4.42,-0.64,83,236,5.315968990325928,5.277069091796875
31,-0.12614460289478302,-2.117053747177124,-0.01251876913011074,36.7149119,3.1819131,60.28,-2.19,-3.7,-0.15,83,238,4.304802417755127,4.30208158493042
32,-0.1434839367866516,-2.1015784740448,0.025296060368418694,36.7148788,3.1818416,60.33,-2.09,-3.68,-0.01,82,239,4.238341808319092,4.238318920135498
33,-0.01360994391143322,-2.1038923263549805,-0.030088404193520546,36.7148521,3.1817837,60.31,-1.7,-2.98,0.06,82,239,3.4406609535217285,3.4400153160095215
34,0.018582846969366074,-2.3113131523132324,-0.021951738744974136,36.714833,3.1817474,59.52,-1.2,-1.42,1.11,82,227,2.1745519638061523,1.8671491146087646
35,-0.061177246272563934,-2.471740245819092,-0.008609099313616753,36.7148157,3.1817283,56.94,-1.02,-0.8,1.44,81,218,1.9475010633468628,1.3042805194854736
36,-0.015097600407898426,-2.471228837966919,0.013093727640807629,36.7148017,3.1817151,54.7,-1.04,-0.83,1.43,81,218,1.960092544555664,1.3404275178909302
37,-0.05110466107726097,-2.4704651832580566,0.02561872825026512,36.7147849,3.1816987,52.09,-1.06,-0.87,1.44,81,218,1.9946337938308716,1.3756582736968994
38,-0.015004700981080532,-2.4701344966888428,-0.018617931753396988,36.7147704,3.1816842,49.84,-1.05,-0.88,1.45,80,218,2.003117322921753,1.3815981149673462
39,-0.06085655093193054,-2.47004771232605,0.016718586906790733,36.7147559,3.1816696,47.59,-1.06,-0.88,1.45,80,218,2.010854482650757,1.3894343376159668
40,-0.045169565826654434,-2.469731092453003,-0.02374120242893696,36.7147389,3.1816525,44.99,-1.07,-0.89,1.46,79,218,2.0243494510650635,1.3982079029083252
41,-0.03157211095094681,-2.469958543777466,0.029922232031822205,36.7147242,3.1816378,42.74,-1.06,-0.88,1.47,79,218,2.024724006652832,1.3885401487350464
42,-0.06462188810110092,-2.470433235168457,0.0013574376935139298,36.7147073,3.1816208,40.12,-1.06,-0.88,1.47,79,218,2.0234570503234863,1.388319730758667
43,-0.016310136765241623,-2.469424247741699,0.02121884562075138,36.7146928,3.181606,37.87,-1.07,-0.89,1.47,78,218,2.028730869293213,1.3942151069641113
44,-0.057867467403411865,-2.469860553741455,-0.013633272610604763,36.7146782,3.1815912,35.63,-1.07,-0.89,1.48,78,218,2.036377429962158,1.3963708877563477
45,-0.016857847571372986,-2.4699020385742188,-0.01814895309507847,36.7146611,3.181574,33.0,-1.07,-0.87,1.48,78,218,2.028534173965454,1.3858985900878906
46,-0.059944793581962585,-2.470618486404419,0.01893269456923008,36.7146465,3.1815594,30.75,-1.07,-0.88,1.47,77,218,2.029273748397827,1.3906279802322388
47,-0.04160819575190544,-2.469909906387329,-0.023746561259031296,36.7146295,3.1815422,28.13,-1.06,-0.88,1.48,77,218,2.029677391052246,1.386115550994873
48,-0.034389838576316833,-2.4697988033294678,0.026995273306965828,36.714615,3.1815275,25.88,-1.05,-0.88,1.48,77,218,2.0223917961120605,1.3770326375961304
49,-0.03138717636466026,-2.469810962677002,-0.02137080952525139,36.7146004,3.1815127,23.62,-1.06,-0.88,1.47,76,218,2.027686595916748,1.3898764848709106
50,-0.09609000384807587,-3.0816292762756348,-0.09983771294355392,36.7145796,3.1814989,21.11,-1.84,-0.18,1.14,76,183,2.184513568878174,1.8584353923797607
51,-0.2510426938533783,2.6675662994384766,-0.038034308701753616,36.7145441,3.1815118,20.34,-3.37,1.64,-0.01,75,152,3.753859519958496,3.753817081451416
52,-0.14049798250198364,2.6717000007629395,-0.018524935469031334,36.7144833,3.1815496,20.44,-4.01,2.04,0.02,75,153,4.50762414932251,4.507572650909424
53,-0.05132924020290375,2.9679975509643555,0.1999278962612152,36.7144309,3.1815763,20.39,-3.54,0.61,0.04,75,170,3.600935935974121,3.600597620010376
54,-0.40235936641693115,-2.19606614112854,0.08054138720035553,36.7143815,3.1815465,20.37,-3.01,-3.89,0.01,74,234,4.921431541442871,4.921406269073486
55,-0.5033614635467529,-2.148679256439209,0.0377667136490345,36.7143334,3.1814553,20.37,-4.21,-6.7,0.0,74,236,7.918189525604248,7.918184757232666
56,-0.44006043672561646,-2.1478281021118164,0.006701065693050623,36.7142709,3.1813318,20.38,-4.91,-7.7,0.0,73,236,9.13525676727295,9.135255813598633
57,-0.3542124330997467,-2.1527724266052246,0.00919331144541502,36.7141936,3.1811821,20.4,-4.65,-7.16,0.0,73,236,8.548067092895508,8.548062324523926
58,-0.214556485414505,-2.1459414958953857,0.024647720158100128,36.7141359,3.1810706,20.39,-3.82,-5.99,0.02,73,237,7.109641075134277,7.109581470489502
59,-0.30062592029571533,-2.1196939945220947,0.02212660014629364,36.7140802,3.1809576,20.37,-3.37,-5.68,0.01,72,238,6.605015277862549,6.605004787445068
60,-0.25490251183509827,-2.107856512069702,0.017991334199905396,36.7140353,3.1808622,20.38,-3.28,-5.63,0.0,72,239,6.522970676422119,6.5229644775390625
61,-0.1993318498134613,-2.108865261077881,-0.018679721280932426,36.7139911,3.1807679,20.38,-3.12,-5.34,0.0,71,239,6.194917678833008,6.194918632507324
62,0.17322732508182526,-2.109374761581421,-0.0049294824711978436,36.7139514,3.1806833,20.35,-1.65,-2.8,0.03,71,239,3.259345293045044,3.259150505065918
63,0.0841752365231514,-2.109205484390259,0.0033783158287405968,36.7139399,3.1806583,20.36,-0.21,-0.38,-0.02,71,239,0.44497066736221313,0.444504976272583
64,-0.0011080572148784995,-2.1094765663146973,0.03230606019496918,36.7139405,3.180659,20.34,0.22,0.05,0.04,70,239,0.23770780861377716,0.2343035638332367
