timestamp,pitch,yaw,roll,lat,lon,alt,velocity_x,velocity_y,velocity_z,battery,heading,airspeed,groundspeed
0,0.004011900629848242,-0.04182053357362747,0.0339181013405323,36.7156066,3.1846299,22.75,-0.02,0.02,-0.1,96,357,0.11063120514154434,0.03881898522377014
1,-0.05814247578382492,-0.04142295941710472,0.06400372087955475,36.7156078,3.1846324,22.76,0.3,0.56,-0.04,95,357,0.6444894671440125,0.6428413391113281
2,-0.18677647411823273,1.4963752031326294,-0.08794231712818146,36.7156191,3.1846557,22.79,1.45,2.39,-0.04,95,85,2.8045222759246826,2.8042147159576416
3,-0.1644522100687027,0.8933811783790588,0.044683512300252914,36.7156493,3.1847169,22.8,2.17,3.58,0.0,95,51,4.191056251525879,4.1910505294799805
4,0.008554155007004738,0.9851117730140686,-0.02882879041135311,36.7156789,3.1847765,22.78,1.99,3.21,0.0,94,56,3.7868149280548096,3.7868144512176514
5,0.3658815920352936,1.3343374729156494,0.1379883736371994,36.7156939,3.1848063,22.79,-0.62,-0.87,-0.02,94,76,1.0717151165008545,1.071495532989502
6,-0.09825664013624191,2.93440842628479,0.15891723334789276,36.7156729,3.1847683,22.77,-2.18,-3.1,0.05,93,168,3.7974705696105957,3.797029495239258
7,-0.09402183443307877,-1.933580994606018,0.0012010227655991912,36.7156377,3.1847038,22.81,-2.17,-3.25,-0.01,93,249,3.9159624576568604,3.9159483909606934
8,-0.040654271841049194,-1.5983519554138184,0.24977654218673706,36.7156199,3.1846503,22.77,-0.09,-2.91,0.02,93,268,2.9165070056915283,2.9164247512817383
9,-0.37936556339263916,-0.6543323397636414,0.055970653891563416,36.715644,3.1846022,22.76,3.67,-3.04,0.0,92,322,4.777948379516602,4.777946949005127
10,-0.5000892281532288,-0.6275954842567444,0.045363735407590866,36.715729,3.1845261,22.76,6.82,-4.74,0.0,92,324,8.317615509033203,8.317609786987305
11,-0.4690228998661041,-0.62107253074646,-0.01651330664753914,36.7158299,3.1844385,22.78,7.84,-5.49,0.0,91,324,9.578288078308105,9.578286170959473
12,-0.39862731099128723,-0.6220620274543762,0.01808926649391651,36.7159535,3.1843297,22.8,7.51,-5.33,-0.02,91,324,9.213602066040039,9.21356201171875
13,-0.04604783281683922,-0.6263764500617981,-0.004253044258803129,36.7160439,3.1842493,22.82,5.5,-3.97,0.03,91,324,6.792328357696533,6.792240142822266
14,0.028469981625676155,-1.0330798625946045,-0.24643570184707642,36.7160952,3.1841936,22.9,1.7,-2.89,-0.19,90,300,3.3702926635742188,3.3644216060638428
15,-0.365653395652771,-2.1319425106048584,-0.09583252668380737,36.7160834,3.1841271,23.88,-2.9,-4.39,-0.91,90,237,5.346768856048584,5.268306255340576
16,-0.5144323110580444,-2.16151762008667,0.005788775160908699,36.7160294,3.1840321,25.71,-4.81,-6.89,-1.42,89,236,8.532086372375488,8.411633491516113
17,-0.4205530881881714,-2.164268970489502,-0.0002925358712673187,36.7159452,3.1838814,28.49,-5.55,-8.01,-1.61,89,236,9.885196685791016,9.753150939941406
18,-0.46778401732444763,-2.164989709854126,-0.024940775707364082,36.7158698,3.1837436,30.94,-5.53,-8.2,-1.58,88,235,10.023399353027344,9.89765739440918
19,-0.5004765391349792,-2.1626522541046143,-0.001655603526160121,36.7157948,3.1836041,33.41,-5.54,-8.26,-1.58,88,236,10.082125663757324,9.956302642822266
20,-0.41869452595710754,-2.1644041538238525,0.0037067073862999678,36.7157072,3.1834413,36.3,-5.5,-8.25,-1.6,87,235,10.052623748779297,9.923307418823242
21,-0.4588289260864258,-2.163578987121582,-0.024252617731690407,36.7156326,3.1833018,38.78,-5.48,-8.26,-1.61,87,236,10.049302101135254,9.918594360351562
22,-0.4660705327987671,-2.1632492542266846,0.04094753786921501,36.7155458,3.1831394,41.69,-5.51,-8.25,-1.62,87,236,10.04816722869873,9.916550636291504
23,-0.43091100454330444,-2.163661241531372,-0.0006461393204517663,36.715471,3.1829999,44.19,-5.55,-8.31,-1.63,86,236,10.127859115600586,9.995735168457031
24,-0.4673638343811035,-2.166372299194336,-0.02636726200580597,36.7153958,3.1828597,46.69,-5.52,-8.29,-1.63,86,235,10.09986400604248,9.96643352508545
25,-0.45560866594314575,-2.166368246078491,0.044719476252794266,36.7153087,3.1826968,49.61,-5.5,-8.29,-1.63,85,235,10.093037605285645,9.959063529968262
26,-0.426666259765625,-2.164269208908081,-0.0012802786659449339,36.7152342,3.182557,52.12,-5.53,-8.3,-1.63,85,236,10.112601280212402,9.979182243347168
27,-0.48930272459983826,-2.165618419647217,0.010776612907648087,36.7151468,3.1823935,55.03,-5.5,-8.29,-1.64,84,235,10.088582038879395,9.954307556152344
28,-0.4518675208091736,-2.1625289916992188,0.036946721374988556,36.7150721,3.1822536,57.54,-5.5,-8.27,-1.64,84,236,10.071792602539062,9.936812400817871
29,-0.2627131938934326,-2.1688671112060547,-0.00899889413267374,36.7150003,3.1821204,59.97,-4.93,-7.28,-1.45,83,235,8.92261028289795,8.80254077911377
30,-0.07679498195648193,-2.1620819568634033,0.03373328223824501,36.7149371,3.1820024,62.0,-3.03,-4.64,-0.72,83,236,5.595867156982422,5.5481953620910645
31,-0.11820405721664429,-2.1110615730285645,-0.0011612909147515893,36.7149033,3.1819346,62.66,-2.18,-3.71,-0.19,83,239,4.317506790161133,4.312981605529785
32,-0.14334174990653992,-2.0853445529937744,0.03281300142407417,36.7148709,3.1818629,62.74,-1.98,-3.67,0.0,82,240,4.182191371917725,4.182185173034668
33,-0.016228973865509033,-2.0870583057403564,-0.02946186624467373,36.7148447,3.1818034,62.74,-1.72,-3.16,0.02,82,240,3.598443031311035,3.598365545272827
34,0.04257858917117119,-2.3255441188812256,-0.03675425052642822,36.7148226,3.1817598,61.83,-1.19,-1.37,1.17,82,226,2.170365571975708,1.8254477977752686
35,-0.05603291466832161,-2.4797399044036865,-0.021081024780869484,36.7148077,3.1817434,59.61,-1.03,-0.8,1.45,81,217,1.9611002206802368,1.3106212615966797
36,-0.016976645216345787,-2.4724278450012207,0.0235275961458683,36.7147937,3.1817303,57.36,-1.04,-0.82,1.42,81,218,1.9513537883758545,1.3312060832977295
37,-0.06004442274570465,-2.4705231189727783,0.014345172792673111,36.714777,3.181714,54.76,-1.06,-0.87,1.44,81,218,1.9990475177764893,1.3793469667434692
38,-0.009233296848833561,-2.4701805114746094,-0.008412961848080158,36.7147625,3.1816995,52.51,-1.06,-0.87,1.45,80,218,2.0065135955810547,1.3845298290252686
39,-0.06392643600702286,-2.4698598384857178,0.0021582089830189943,36.7147479,3.1816849,50.27,-1.07,-0.89,1.45,80,218,2.018646717071533,1.3991584777832031
40,-0.030504882335662842,-2.470013380050659,-0.025949038565158844,36.714731,3.1816678,47.65,-1.07,-0.88,1.46,79,218,2.0221023559570312,1.3908421993255615
41,-0.047548189759254456,-2.4702019691467285,0.02557022124528885,36.7147164,3.1816531,45.41,-1.06,-0.88,1.47,79,218,2.0227088928222656,1.3890663385391235
42,-0.05797964707016945,-2.4700140953063965,-0.01409816462546587,36.7146995,3.181636,42.78,-1.07,-0.89,1.46,79,218,2.029369592666626,1.4003105163574219
43,-0.028083520010113716,-2.4694697856903076,0.026316583156585693,36.7146848,3.1816212,40.54,-1.07,-0.88,1.47,78,218,2.0264792442321777,1.3899208307266235
44,-0.059591736644506454,-2.4700803756713867,0.011525314301252365,36.7146677,3.181604,37.92,-1.07,-0.88,1.48,78,218,2.0300498008728027,1.3884379863739014
45,-0.00700357835739851,-2.4702024459838867,-0.008872443810105324,36.7146532,3.1815894,35.66,-1.07,-0.87,1.47,78,218,2.0241992473602295,1.384883999824524
46,-0.0615256130695343,-2.4703919887542725,0.003136902814731002,36.7146386,3.1815747,33.42,-1.06,-0.88,1.47,77,218,2.0264923572540283,1.3865464925765991
47,-0.024269431829452515,-2.469980478286743,-0.025401491671800613,36.7146217,3.1815574,30.8,-1.06,-0.87,1.48,77,218,2.025463819503784,1.377540111541748
48,-0.048429153859615326,-2.4699954986572266,0.02281828224658966,36.7146071,3.1815427,28.54,-1.06,-0.88,1.48,77,218,2.0289182662963867,1.3870429992675781
49,-0.018683260306715965,-2.4700136184692383,-0.019953863695263863,36.7145925,3.181528,26.29,-1.08,-0.87,1.47,76,218,2.0303378105163574,1.3958933353424072
50,-0.08521130681037903,-2.957921266555786,-0.0751853734254837,36.7145726,3.1815131,23.73,-1.69,-0.36,1.26,76,190,2.1415014266967773,1.7305889129638672
51,-0.24818167090415955,2.6776721477508545,-0.06153145805001259,36.7145396,3.1815221,22.76,-3.25,1.47,0.04,75,153,3.569739818572998,3.5694470405578613
52,-0.1462765485048294,2.6801140308380127,0.004323591012507677,36.7144794,3.1815585,22.85,-4.08,2.03,0.0,75,153,4.562789440155029,4.562788486480713
53,-0.06182538717985153,2.8746092319488525,0.13826198875904083,36.7144255,3.181588,22.8,-3.72,0.98,0.05,75,164,3.8500730991363525,3.849675416946411
54,-0.3484554588794708,-2.226194381713867,0.09911826997995377,36.7143746,3.1815687,22.78,-2.95,-3.33,0.01,74,226,3.958364248275757,3.958289384841919
55,-0.5092424154281616,-2.1409683227539062,0.01723620295524597,36.7143287,3.181485,22.78,-4.02,-6.41,0.01,74,237,7.5736470222473145,7.573633670806885
56,-0.45124465227127075,-2.146101236343384,0.01932239718735218,36.7142677,3.1813644,22.79,-4.83,-7.64,0.0,73,237,9.04935073852539,9.049349784851074
57,-0.3759496808052063,-2.151073694229126,-0.012975303456187248,36.7141901,3.1812138,22.81,-4.75,-7.34,-0.01,73,236,8.751941680908203,8.751935958862305
58,-0.23350924253463745,-2.146974563598633,0.04119226709008217,36.714131,3.1810996,22.81,-3.93,-6.17,0.02,73,236,7.320669651031494,7.320620536804199
59,-0.2972417175769806,-2.115902900695801,-0.0007508304552175105,36.7140747,3.1809852,22.78,-3.35,-5.67,0.01,72,238,6.594946384429932,6.59492826461792
60,-0.27601760625839233,-2.1007087230682373,0.03440975397825241,36.7140303,3.1808899,22.78,-3.22,-5.63,0.0,72,239,6.495965003967285,6.495961666107178
61,-0.2045993208885193,-2.1005072593688965,-0.025087594985961914,36.7139868,3.1807949,22.78,-3.13,-5.49,0.0,71,239,6.3290534019470215,6.329052925109863
62,0.03461423143744469,-2.1008307933807373,0.025772541761398315,36.7139497,3.1807143,22.78,-2.15,-3.77,0.03,71,239,4.345827102661133,4.345699310302734
63,0.10737491399049759,-2.100327253341675,-0.02210700511932373,36.7139308,3.1806729,22.76,-0.35,-0.62,-0.02,71,239,0.7226040959358215,0.7222322821617126
64,0.02742023952305317,-2.0998802185058594,0.020483026280999184,36.7139305,3.180672,22.76,0.15,0.12,0.04,70,239,0.20483610033988953,0.20036399364471436
