timestamp,pitch,yaw,roll,lat,lon,alt,velocity_x,velocity_y,velocity_z,battery,heading,airspeed,groundspeed
0,-0.023413071408867836,0.04133307933807373,0.010165870189666748,36.7156066,3.1846299,16.98,-0.02,0.03,-0.03,96,2,0.05573994666337967,0.04020271450281143
1,-0.04332277923822403,0.039827510714530945,0.09638454020023346,36.7156077,3.1846321,17.06,0.29,0.53,-0.02,95,2,0.6114895939826965,0.6110496520996094
2,-0.17094677686691284,1.4784810543060303,-0.07672819495201111,36.7156231,3.1846631,17.01,1.69,2.75,-0.02,95,84,3.233931541442871,3.233860492706299
3,-0.17882296442985535,0.9545140266418457,0.0009315749048255384,36.7156502,3.1847178,17.04,2.18,3.52,-0.02,95,54,4.145464897155762,4.145406723022461
4,0.13621892035007477,1.0058410167694092,-0.018318835645914078,36.7156832,3.1847824,17.05,1.58,2.49,0.0,94,57,2.9557061195373535,2.9557058811187744
5,0.2956278622150421,1.448732852935791,0.18602660298347473,36.7156889,3.1847936,17.03,-1.01,-1.46,0.0,94,83,1.7816559076309204,1.781653881072998
6,-0.07018967717885971,3.1063644886016846,0.11620663851499557,36.7156648,3.1847504,17.07,-2.26,-3.19,-0.01,93,177,3.921571731567383,3.9215359687805176
7,-0.053111717104911804,-1.9946446418762207,0.061367422342300415,36.7156298,3.1846851,17.05,-2.0,-3.24,0.0,93,245,3.8150596618652344,3.8150551319122314
8,-0.13114185631275177,-1.3818695545196533,0.26110273599624634,36.7156171,3.1846326,17.04,0.52,-2.82,0.0,93,280,2.876589298248291,2.8765835762023926
9,-0.4352366328239441,-0.6422582268714905,0.02218559756875038,36.7156605,3.1845743,17.04,4.8,-3.46,0.0,92,323,5.927162170410156,5.927161693572998
10,-0.5427406430244446,-0.6282147169113159,0.026318686082959175,36.7157426,3.1845027,17.04,7.11,-4.94,-0.01,92,324,8.662503242492676,8.662494659423828
11,-0.4621078073978424,-0.6212760210037231,0.02458321489393711,36.7158456,3.184413,17.06,7.87,-5.54,-0.01,91,324,9.633343696594238,9.633334159851074
12,-0.3633965253829956,-0.6236459016799927,-0.012237949296832085,36.7159681,3.1843049,17.09,7.28,-5.21,-0.01,91,324,8.957698822021484,8.957683563232422
13,-0.017425676807761192,-0.6344375014305115,-0.018538804724812508,36.7160535,3.1842288,17.1,4.94,-3.65,0.04,91,323,6.146825313568115,6.146685600280762
14,-0.15712900459766388,-1.509516954421997,-0.26806342601776123,36.7160966,3.1841679,17.34,0.13,-2.99,-0.38,90,273,3.025053024291992,3.0008950233459473
15,-0.3859655559062958,-2.141972541809082,-0.04653562977910042,36.7160728,3.1841046,18.42,-3.37,-4.83,-1.01,90,237,5.985140800476074,5.897883415222168
16,-0.5015352964401245,-2.160202980041504,-0.02693996950984001,36.7160142,3.184002,20.37,-5.03,-7.21,-1.49,89,236,8.920835494995117,8.795016288757324
17,-0.44914376735687256,-2.1649789810180664,0.038750018924474716,36.7159283,3.1838479,23.21,-5.53,-8.03,-1.6,89,235,9.888532638549805,9.75730037689209
18,-0.43394821882247925,-2.1643264293670654,-0.017566408962011337,36.7158531,3.1837096,25.67,-5.53,-8.22,-1.58,88,236,10.042129516601562,9.91650676727295
19,-0.48331740498542786,-2.163029909133911,0.020467549562454224,36.7157657,3.1835466,28.55,-5.52,-8.25,-1.59,88,236,10.063823699951172,9.936812400817871
20,-0.4308397173881531,-2.163999557495117,0.027036508545279503,36.7156909,3.1834073,31.02,-5.51,-8.23,-1.6,88,236,10.041448593139648,9.911588668823242
21,-0.4816780090332031,-2.165705680847168,-0.018320001661777496,36.7156036,3.1832449,33.93,-5.53,-8.26,-1.6,87,235,10.076590538024902,9.947147369384766
22,-0.4849490225315094,-2.16611909866333,0.027336088940501213,36.7155287,3.1831052,36.43,-5.5,-8.28,-1.61,87,235,10.076435089111328,9.945717811584473
23,-0.4318836033344269,-2.163074493408203,0.025307897478342056,36.7154542,3.1829652,38.92,-5.5,-8.29,-1.62,86,236,10.09253215789795,9.96060562133789
24,-0.4884493350982666,-2.163346529006958,-0.015296286903321743,36.7153673,3.1828024,41.83,-5.52,-8.28,-1.62,86,236,10.091384887695312,9.958902359008789
25,-0.4785407781600952,-2.1674036979675293,0.03921050950884819,36.7152924,3.182663,44.33,-5.56,-8.31,-1.64,85,235,10.1409912109375,10.006036758422852
26,-0.43184030055999756,-2.164592742919922,-0.011678694747388363,36.7152048,3.1824992,47.26,-5.51,-8.3,-1.64,85,235,10.107748985290527,9.973657608032227
27,-0.486583948135376,-2.16337513923645,-0.010165642946958542,36.7151303,3.1823591,49.77,-5.49,-8.27,-1.63,84,236,10.072773933410645,9.93936824798584
28,-0.4458651542663574,-2.1656742095947266,0.03534149006009102,36.7150557,3.1822198,52.27,-5.5,-8.23,-1.63,84,235,10.040338516235352,9.906538009643555
29,-0.1797507107257843,-2.1677470207214355,-0.02388458326458931,36.7149749,3.1820701,54.98,-4.42,-6.59,-1.31,83,235,8.051019668579102,7.943126201629639
30,-0.08064141869544983,-2.1562693119049072,0.03085615113377571,36.7149266,3.1819794,56.47,-2.78,-4.3,-0.6,83,236,5.166660785675049,5.130814552307129
31,-0.1545809507369995,-2.0977022647857666,-0.008186436258256435,36.7148902,3.1819042,57.01,-2.07,-3.69,-0.09,83,239,4.235589027404785,4.234621047973633
32,-0.15243101119995117,-2.086338758468628,0.027745096012949944,36.7148631,3.181843,57.02,-2.0,-3.69,-0.01,82,240,4.205804347991943,4.2057785987854
33,0.00726739689707756,-2.0907485485076904,-0.03672385215759277,36.7148376,3.1817854,56.99,-1.61,-2.92,0.1,82,240,3.3413078784942627,3.339668035507202
34,0.043855126947164536,-2.387749671936035,-0.031598351895809174,36.7148165,3.1817468,55.76,-1.16,-1.18,1.34,82,223,2.14182186126709,1.664555311203003
35,-0.057446762919425964,-2.467745065689087,-0.01057497225701809,36.714802,3.181732,53.48,-1.03,-0.79,1.43,81,218,1.9405235052108765,1.302849292755127
36,-0.02150268852710724,-2.4692773818969727,-0.016255730763077736,36.7147856,3.1817166,50.87,-1.06,-0.84,1.43,81,218,1.9744930267333984,1.3614639043807983
37,-0.057208627462387085,-2.470083236694336,0.021414685994386673,36.7147712,3.1817023,48.62,-1.06,-0.88,1.43,81,218,1.9925626516342163,1.3794612884521484
38,-0.015167108736932278,-2.4696526527404785,-0.010403759777545929,36.7147567,3.1816877,46.38,-1.08,-0.88,1.44,80,218,2.0089480876922607,1.3985737562179565
39,-0.03025077097117901,-2.469289779663086,0.027550747618079185,36.7147397,3.1816706,43.77,-1.06,-0.87,1.45,80,218,2.0036768913269043,1.3801608085632324
40,-0.03892763704061508,-2.469264030456543,-0.022828705608844757,36.7147251,3.181656,41.52,-1.07,-0.88,1.46,79,218,2.0155489444732666,1.387832522392273
41,-0.007552305236458778,-2.469179153442383,0.004984752275049686,36.7147082,3.1816389,38.91,-1.06,-0.88,1.46,79,218,2.017430543899536,1.3831647634506226
42,-0.06211642548441887,-2.4697444438934326,-0.0032683375757187605,36.7146936,3.1816242,36.67,-1.07,-0.88,1.47,79,218,2.0330417156219482,1.3946586847305298
43,-0.01714673452079296,-2.468994617462158,0.021242734044790268,36.714679,3.1816095,34.42,-1.06,-0.87,1.47,78,218,2.023442506790161,1.3832166194915771
44,-0.05076512694358826,-2.469726800918579,0.022939935326576233,36.7146619,3.1815922,31.79,-1.05,-0.89,1.47,78,218,2.024670124053955,1.3853933811187744
45,-0.01606336049735546,-2.469393253326416,-0.011942445300519466,36.7146473,3.1815776,29.54,-1.07,-0.88,1.47,78,218,2.025054693222046,1.3868204355239868
46,-0.02251310460269451,-2.4696264266967773,0.024417739361524582,36.7146303,3.1815604,26.91,-1.05,-0.87,1.47,77,218,2.0159876346588135,1.3735177516937256
47,-0.04307779669761658,-2.4693801403045654,-0.023144148290157318,36.7146157,3.1815457,24.66,-1.06,-0.88,1.47,77,218,2.0235016345977783,1.388017177581787
48,-0.005210014060139656,-2.4691059589385986,0.004834846127778292,36.7145987,3.1815285,22.04,-1.05,-0.87,1.47,77,218,2.013094425201416,1.3736488819122314
49,-0.03095419704914093,-2.469381332397461,-0.02563074417412281,36.7145865,3.1815163,20.16,-1.06,-0.88,1.47,76,218,2.01892352104187,1.3809261322021484
50,-0.10967597365379333,-3.1411659717559814,-0.10254994034767151,36.7145652,3.1815032,17.68,-1.92,-0.09,1.06,76,180,2.202803373336792,1.9254788160324097
51,-0.2336040437221527,2.677156925201416,0.02106461301445961,36.7145203,3.1815224,17.05,-3.68,1.78,-0.06,75,153,4.096654415130615,4.096212863922119
52,-0.13974782824516296,2.678959608078003,-0.016820751130580902,36.7144661,3.1815557,17.14,-4.06,2.04,0.04,75,153,4.554080009460449,4.553892135620117
53,-0.046562790870666504,3.000847816467285,0.2068086713552475,36.7144133,3.1815814,17.08,-3.54,0.47,0.05,75,171,3.5752081871032715,3.574819326400757
54,-0.4139522910118103,-2.195399284362793,0.07535885274410248,36.7143642,3.1815487,17.06,-3.05,-4.01,0.01,74,234,5.046288013458252,5.046248912811279
55,-0.49898767471313477,-2.1487419605255127,0.035419635474681854,36.7143154,3.1814556,17.06,-4.23,-6.75,0.01,74,236,7.976993083953857,7.976985454559326
56,-0.44019442796707153,-2.1503171920776367,-0.03407474607229233,36.7142413,3.18131,17.07,-4.92,-7.7,0.0,73,236,9.141103744506836,9.141100883483887
57,-0.3498227000236511,-2.152273416519165,0.013030401431024075,36.7141753,3.1811823,17.09,-4.61,-7.14,0.0,73,236,8.507692337036133,8.507691383361816
58,-0.23755787312984467,-2.139880657196045,-0.012223178520798683,36.7141099,3.181055,17.08,-3.65,-5.83,0.03,73,237,6.888056755065918,6.887979030609131
59,-0.29667389392852783,-2.1129791736602783,0.02887711673974991,36.7140631,3.1809587,17.06,-3.33,-5.67,0.01,72,238,6.578661918640137,6.578652858734131
60,-0.25139668583869934,-2.098961591720581,0.01603453792631626,36.714019,3.1808635,17.06,-3.21,-5.66,0.0,72,239,6.508830547332764,6.508824348449707
61,-0.15312016010284424,-2.1000492572784424,0.016375821083784103,36.7139691,3.1807543,17.07,-2.91,-5.11,0.0,71,239,5.882199287414551,5.882197856903076
62,0.18152286112308502,-2.1010501384735107,-0.016019325703382492,36.7139375,3.1806856,17.04,-1.54,-2.67,0.03,71,239,3.0902299880981445,3.0900540351867676
63,0.09563873708248138,-2.100412130355835,0.025318611413240433,36.7139266,3.1806618,17.05,-0.04,-0.11,-0.01,71,239,0.12082027643918991,0.1197919026017189
64,-0.011814706958830357,-2.10117506980896,0.039521608501672745,36.7139279,3.1806637,17.02,0.24,0.02,0.03,70,239,0.2474437803030014,0.24468334019184113
