timestamp,pitch,yaw,roll,lat,lon,alt,velocity_x,velocity_y,velocity_z,battery,heading,airspeed,groundspeed
0,-0.014364118687808514,0.03987709432840347,-0.017189450562000275,36.7156067,3.1846299,22.21,-0.02,0.02,-0.07,96,2,0.08498736470937729,0.03509494662284851
1,-0.05155257135629654,0.054531317204236984,0.12379937618970871,36.715608,3.1846327,22.19,0.35,0.62,-0.03,95,3,0.724299967288971,0.7232579588890076
2,-0.19107671082019806,1.453150749206543,-0.06760121881961823,36.7156248,3.1846656,22.23,1.79,2.81,-0.03,95,84,3.023345708847046,3.023031711578369
3,-0.17210693657398224,0.9843435883522034,-0.02350371703505516,36.715653,3.1847209,22.23,2.24,3.53,-0.01,95,56,4.19128942489624,4.191267490386963
4,0.07717150449752808,0.9833247065544128,0.023523323237895966,36.7156827,3.1847779,22.22,1.84,2.83,0.0,94,56,3.3816587924957275,3.3816568851470947
5,0.30190879106521606,1.3520427942276,0.15482966601848602,36.7156921,3.1847952,22.24,-1.07,-1.55,-0.01,94,77,1.8904350996017456,1.8903976678848267
6,-0.05499426648020744,3.0592494010925293,0.11517465859651566,36.7156676,3.184751,22.2,-2.25,-3.19,0.03,93,175,3.9116201400756836,3.911486864089966
7,-0.052444178611040115,-1.965699553489685,0.06634566187858582,36.7156326,3.1846857,22.25,-1.97,-3.21,0.0,93,247,3.7716643810272217,3.771653652191162
8,-0.13407504558563232,-1.364400863647461,0.25874045491218567,36.7156204,3.1846336,22.21,0.58,-2.8,0.01,93,281,2.861018657684326,2.8609824180603027
9,-0.39068344235420227,-0.6493210792541504,0.06058147922158241,36.715654,3.1845849,22.21,4.3,-3.25,0.0,92,322,5.395179271697998,5.395176887512207
10,-0.5320318937301636,-0.6275083422660828,-0.00776860723271966,36.7157307,3.1845172,22.21,6.86,-4.77,0.0,92,324,8.365189552307129,8.365187644958496
11,-0.45390719175338745,-0.6216867566108704,0.015480411238968372,36.7158498,3.1844136,22.23,7.87,-5.54,0.0,91,324,9.62899398803711,9.628990173339844
12,-0.3622229993343353,-0.6240715384483337,0.00456207012757659,36.7159722,3.1843055,22.27,7.27,-5.18,-0.01,91,324,8.929814338684082,8.929801940917969
13,0.007751611992716789,-0.636184811592102,-0.034212082624435425,36.7160572,3.18423,22.27,4.92,-3.64,0.04,91,323,6.12160062789917,6.121424674987793
14,-0.05604451522231102,-1.2650831937789917,-0.2918967604637146,36.7160988,3.1841773,22.43,0.85,-2.92,-0.28,90,287,3.0569980144500732,3.0432984828948975
15,-0.4021547734737396,-2.143172025680542,-0.07332900911569595,36.7160755,3.1841055,23.6,-3.4,-4.86,-1.02,90,237,6.026824951171875,5.939052581787109
16,-0.5203391313552856,-2.1606388092041016,0.010247365571558475,36.7160167,3.1840027,25.57,-5.0,-7.21,-1.49,89,236,8.908169746398926,8.782515525817871
17,-0.41238105297088623,-2.16369891166687,0.0008543268195353448,36.7159311,3.1838481,28.4,-5.51,-8.06,-1.6,89,236,9.901721954345703,9.770895004272461
18,-0.47952571511268616,-2.1642630100250244,-0.021607793867588043,36.7158558,3.1837097,30.86,-5.54,-8.2,-1.58,88,236,10.02956485748291,9.904109954833984
19,-0.48291143774986267,-2.163499593734741,0.030539071187376976,36.7157809,3.1835705,33.33,-5.54,-8.25,-1.58,88,236,10.070611953735352,9.944765090942383
20,-0.4349721074104309,-2.1650760173797607,-0.023491578176617622,36.7156934,3.1834077,36.22,-5.53,-8.26,-1.6,87,235,10.078645706176758,9.950825691223145
21,-0.4829244613647461,-2.1631245613098145,-0.02770792879164219,36.7156185,3.1832681,38.7,-5.5,-8.23,-1.61,87,236,10.034101486206055,9.903702735900879
22,-0.43253853917121887,-2.1631064414978027,0.016077639535069466,36.7155316,3.1831057,41.62,-5.49,-8.28,-1.62,87,236,10.073631286621094,9.941975593566895
23,-0.4273310601711273,-2.1625030040740967,-0.0018168926471844316,36.7154696,3.1829893,43.7,-5.53,-8.31,-1.62,86,236,10.11389446258545,9.983195304870605
24,-0.4885052740573883,-2.164862871170044,0.01423531211912632,36.715382,3.1828258,46.61,-5.52,-8.29,-1.62,86,235,10.100154876708984,9.967765808105469
25,-0.42387664318084717,-2.1659536361694336,-0.0015390878543257713,36.7152948,3.1826628,49.53,-5.52,-8.26,-1.63,85,235,10.077695846557617,9.944282531738281
26,-0.48062536120414734,-2.164808511734009,-0.02018999494612217,36.7152202,3.1825233,52.04,-5.51,-8.3,-1.62,85,235,10.100139617919922,9.968284606933594
27,-0.4355728328227997,-2.1627135276794434,0.02465067431330681,36.715133,3.1823598,54.95,-5.52,-8.31,-1.64,84,236,10.11699104309082,9.982536315917969
28,-0.4127686619758606,-2.163299083709717,-0.02921396866440773,36.7150582,3.1822199,57.46,-5.5,-8.23,-1.63,84,236,10.042025566101074,9.90863037109375
29,-0.26083144545555115,-2.167558431625366,0.002129604807123542,36.714988,3.1820899,59.83,-4.65,-6.93,-1.38,83,235,8.470626831054688,8.356395721435547
30,-0.04077349230647087,-2.1553843021392822,-0.0024404784198850393,36.7149296,3.1819804,61.64,-2.79,-4.29,-0.6,83,236,5.160627841949463,5.125092029571533
31,-0.156845822930336,-2.1035029888153076,0.03468708693981171,36.7148979,3.1819155,62.15,-2.1,-3.69,-0.13,83,239,4.253071308135986,4.250904560089111
32,-0.16980445384979248,-2.086458444595337,-0.022858330979943275,36.714866,3.181844,62.19,-2.01,-3.71,-0.01,82,240,4.223320960998535,4.223285675048828
33,0.019273990765213966,-2.091296434402466,0.014162690378725529,36.7148406,3.1817864,62.16,-1.6,-2.89,0.1,82,240,3.3133742809295654,3.311744451522827
34,0.01745625026524067,-2.3313796520233154,-0.07418547570705414,36.7148223,3.1817516,61.25,-1.19,-1.34,1.19,82,226,2.1603293418884277,1.7987722158432007
35,-0.007158939726650715,-2.467507839202881,-0.004843824543058872,36.7148051,3.1817334,58.63,-1.03,-0.79,1.43,81,218,1.9419554471969604,1.3074673414230347
36,-0.0634385347366333,-2.470646381378174,0.003919271752238274,36.7147911,3.1817202,56.39,-1.05,-0.83,1.42,81,218,1.9593276977539062,1.3465230464935303
37,-0.03612855449318886,-2.4699368476867676,-0.02504885010421276,36.7147743,3.1817037,53.78,-1.06,-0.88,1.44,81,218,2.0003738403320312,1.3863861560821533
38,-0.03449971601366997,-2.4697980880737305,0.02769247256219387,36.7147598,3.1816891,51.54,-1.06,-0.87,1.44,80,218,2.000096082687378,1.3806992769241333
39,-0.059422340244054794,-2.4688570499420166,-0.007725026458501816,36.7147429,3.181672,48.92,-1.07,-0.89,1.45,80,218,2.012456178665161,1.3947787284851074
40,-0.006488867104053497,-2.4694554805755615,0.0025599526707082987,36.7147282,3.1816573,46.68,-1.07,-0.88,1.46,79,218,2.0187931060791016,1.391471028327942
41,-0.06079891696572304,-2.4696099758148193,-0.006537280045449734,36.7147136,3.1816426,44.43,-1.06,-0.88,1.46,79,218,2.0184028148651123,1.3870718479156494
42,-0.0299559123814106,-2.469987154006958,-0.022796252742409706,36.7146966,3.1816256,41.81,-1.06,-0.89,1.46,79,218,2.019385814666748,1.390442967414856
43,-0.05232055485248566,-2.469353675842285,0.025022350251674652,36.7146821,3.1816108,39.57,-1.06,-0.89,1.47,78,218,2.0239691734313965,1.3908274173736572
44,-0.025462456047534943,-2.4698538780212402,-0.02336737886071205,36.7146675,3.181596,37.32,-1.06,-0.89,1.47,78,218,2.0298354625701904,1.3908380270004272
45,-0.013697238638997078,-2.469299554824829,0.01993398554623127,36.7146505,3.1815789,34.69,-1.06,-0.88,1.47,78,218,2.0241665840148926,1.3898710012435913
46,-0.054067015647888184,-2.4697272777557373,-0.01536831259727478,36.7146359,3.1815641,32.44,-1.06,-0.88,1.47,77,218,2.0246059894561768,1.3887008428573608
47,-0.019539646804332733,-2.4695444107055664,-0.015632567927241325,36.7146189,3.181547,29.83,-1.06,-0.88,1.47,77,218,2.0264313220977783,1.385270595550537
48,-0.05407894402742386,-2.4696178436279297,0.02248869463801384,36.7146043,3.1815323,27.57,-1.05,-0.87,1.47,77,218,2.0172035694122314,1.3739861249923706
49,-0.016484301537275314,-2.4698307514190674,-0.016362465918064117,36.7145898,3.1815176,25.32,-1.07,-0.88,1.47,76,218,2.0249574184417725,1.3921124935150146
50,-0.11919032037258148,3.1363532543182373,-0.08424673229455948,36.7145682,3.1815045,22.84,-1.93,-0.07,1.06,76,179,2.2103161811828613,1.9371289014816284
51,-0.2456638664007187,2.6760172843933105,-0.03569692000746727,36.7145311,3.1815191,22.2,-3.5,1.68,-0.04,75,153,3.8915905952453613,3.89131498336792
52,-0.13102036714553833,2.679338216781616,-0.006627665366977453,36.714469,3.1815573,22.3,-4.06,2.04,0.03,75,153,4.554355144500732,4.554219722747803
53,-0.051018137484788895,3.0080244541168213,0.2088927924633026,36.7144162,3.1815829,22.25,-3.54,0.44,0.04,75,172,3.5757713317871094,3.5754523277282715
54,-0.40223929286003113,-2.1933248043060303,0.07697781175374985,36.7143669,3.1815494,22.23,-3.05,-4.06,0.01,74,234,5.081884384155273,5.081854820251465
55,-0.5020419359207153,-2.149787187576294,0.03637491911649704,36.7143181,3.1814561,22.23,-4.25,-6.79,0.0,74,236,8.01387882232666,8.013875007629395
56,-0.424609512090683,-2.1494534015655518,-0.004632704425603151,36.7142549,3.1813316,22.24,-4.92,-7.69,0.0,73,236,9.130903244018555,9.130901336669922
57,-0.3426313102245331,-2.152789831161499,0.021571435034275055,36.7141777,3.1811823,22.27,-4.59,-7.11,0.0,73,236,8.466217041015625,8.466216087341309
58,-0.2120303213596344,-2.143404483795166,0.01673593930900097,36.7141209,3.181072,22.26,-3.76,-5.95,0.03,73,237,7.0477399826049805,7.047667980194092
59,-0.28667816519737244,-2.1124041080474854,0.038340166211128235,36.7140658,3.180959,22.23,-3.31,-5.66,0.01,72,238,6.564854145050049,6.5648417472839355
60,-0.2543770968914032,-2.099499225616455,-0.010407916270196438,36.7140218,3.1808638,22.24,-3.21,-5.65,0.01,72,239,6.5037126541137695,6.503702163696289
61,-0.19868263602256775,-2.0998246669769287,0.005628062412142754,36.7139786,3.1807696,22.24,-3.02,-5.31,0.0,71,239,6.118436336517334,6.118435382843018
62,0.15719594061374664,-2.100912094116211,-0.02843044325709343,36.7139405,3.1806866,22.21,-1.52,-2.67,0.03,71,239,3.079133987426758,3.0789544582366943
63,0.10360264778137207,-2.100923776626587,0.027872761711478233,36.7139301,3.1806636,22.22,-0.15,-0.3,-0.01,71,239,0.3407478928565979,0.3402360677719116
64,-0.037064336240291595,-2.1030125617980957,0.06053517013788223,36.7139311,3.1806651,22.19,0.25,0.03,0.03,70,239,0.260647714138031,0.2581369876861572
