timestamp,pitch,yaw,roll,lat,lon,alt,velocity_x,velocity_y,velocity_z,battery,heading,airspeed,groundspeed
0,-0.004828064702451229,-0.007208956405520439,0.02749774418771267,36.7156065,3.18463,21.58,-0.01,0.02,-0.03,96,359,0.045163869857788086,0.03023446351289749
1,-0.08148880302906036,0.006046583876013756,0.07571262866258621,36.715608,3.1846327,21.53,0.4,0.6,-0.03,95,0,0.7302363514900208,0.7296085953712463
2,-0.1772826910018921,1.402245044708252,-0.11666438728570938,36.7156263,3.1846647,21.57,1.93,2.72,-0.03,95,80,3.343395233154297,3.3431637287139893
3,-0.15372036397457123,0.9345155358314514,0.027026178315281868,36.7156567,3.1847179,21.58,2.41,3.39,-0.01,95,53,4.168384552001953,4.1683478355407715
4,0.08017081767320633,0.9300706386566162,-0.026635585352778435,36.7156885,3.1847723,21.57,1.95,2.67,0.0,94,53,3.314415693283081,3.314408540725708
5,0.32483819127082825,0.4242136478424072,-0.1727076917886734,36.7156981,3.1847861,21.6,-1.09,-1.68,0.0,94,24,2.0048327445983887,2.0048179626464844
6,-0.10989169031381607,-1.225369930267334,-0.12291527539491653,36.7156733,3.1847407,21.57,-2.25,-3.25,0.02,93,289,3.9569928646087646,3.956916570663452
7,-0.060070525854825974,-2.4042704105377197,0.0479770265519619,36.715643,3.1846851,21.63,-2.12,-3.27,0.0,93,222,3.9038751125335693,3.903869867324829
8,-0.0872059166431427,-1.3594346046447754,0.2943999767303467,36.7156272,3.1846239,21.57,0.69,-2.77,0.01,93,282,2.857818126678467,2.857761859893799
9,-0.4480205476284027,-0.6603208184242249,0.042820461094379425,36.7156626,3.184575,21.57,4.45,-3.28,0.0,92,322,5.5341010093688965,5.534100532531738
10,-0.47970256209373474,-0.624022901058197,0.01570698246359825,36.715757,3.1844927,21.58,7.18,-4.94,-0.01,92,324,8.726545333862305,8.72653865814209
11,-0.49102503061294556,-0.616735577583313,-0.03538565710186958,36.7158606,3.184403,21.59,7.87,-5.5,0.0,91,324,9.610678672790527,9.610679626464844
12,-0.3210500180721283,-0.6199672222137451,0.02655004896223545,36.7159826,3.1842957,21.63,7.27,-5.15,-0.01,91,324,9.173506736755371,9.17348861694336
13,-0.020131969824433327,-0.6327862739562988,-0.078545942902565,36.7160677,3.1842206,21.64,4.9,-3.59,0.04,91,323,6.086923599243164,6.086738586425781
14,-0.02137729525566101,-1.2978157997131348,-0.2556348741054535,36.7161084,3.1841682,21.8,0.78,-2.89,-0.29,90,285,3.016744375228882,3.0021660327911377
15,-0.45534583926200867,-2.1423161029815674,-0.04831196367740631,36.7160846,3.1840962,23.0,-3.43,-4.87,-1.02,90,237,6.049954891204834,5.963220596313477
16,-0.4632597863674164,-2.1601154804229736,0.03424445167183876,36.7160256,3.1839928,24.96,-5.06,-7.22,-1.49,89,236,8.950480461120605,8.82520866394043
17,-0.46487095952033997,-2.1638600826263428,-0.035376910120248795,36.7159398,3.1838383,27.8,-5.53,-8.05,-1.58,89,236,9.898456573486328,9.770033836364746
18,-0.4824695289134979,-2.1649813652038574,0.035500820726156235,36.7158646,3.1837002,30.25,-5.54,-8.22,-1.57,88,235,10.043278694152832,9.918468475341797
19,-0.425886332988739,-2.162217140197754,0.023383542895317078,36.7157894,3.1835604,32.71,-5.53,-8.25,-1.6,88,236,10.069774627685547,9.9412841796875
20,-0.4886346459388733,-2.167160749435425,-0.008022584952414036,36.7157019,3.183398,35.61,-5.52,-8.24,-1.6,87,235,10.048417091369629,9.919818878173828
21,-0.47203540802001953,-2.1647262573242188,0.045912209898233414,36.7156274,3.1832588,38.09,-5.48,-8.28,-1.61,87,235,10.063553810119629,9.933690071105957
22,-0.42754873633384705,-2.163200616836548,-0.00561625836417079,36.7155529,3.183119,40.58,-5.53,-8.28,-1.62,87,236,10.091282844543457,9.959271430969238
23,-0.4616445004940033,-2.1649210453033447,-0.032526928931474686,36.7154778,3.1829792,43.08,-5.53,-8.28,-1.62,86,235,10.09304428100586,9.960731506347656
24,-0.44474896788597107,-2.16449236869812,0.037874896079301834,36.7153906,3.1828161,46.01,-5.48,-8.27,-1.63,86,235,10.056498527526855,9.92345905303955
25,-0.4747353196144104,-2.1660118103027344,-0.02694578468799591,36.7153038,3.1826535,48.92,-5.53,-8.32,-1.63,85,235,10.130465507507324,9.998330116271973
26,-0.482741117477417,-2.1655070781707764,0.027144379913806915,36.7152289,3.1825133,51.43,-5.53,-8.3,-1.63,85,235,10.110818862915039,9.977095603942871
27,-0.43168094754219055,-2.164608955383301,-0.012791261076927185,36.7151415,3.18235,54.35,-5.51,-8.28,-1.63,84,236,10.086739540100098,9.952812194824219
28,-0.46009138226509094,-2.162654161453247,-0.026332968845963478,36.715067,3.1822103,56.85,-5.48,-8.23,-1.62,84,236,10.026912689208984,9.893752098083496
29,-0.23520664870738983,-2.1689512729644775,0.03512277826666832,36.7149968,3.1820805,59.2,-4.66,-6.92,-1.39,83,235,8.46622085571289,8.350754737854004
30,-0.07796316593885422,-2.157454013824463,-0.01418999582529068,36.7149387,3.1819714,61.01,-2.78,-4.28,-0.6,83,236,5.150581359863281,5.115411281585693
31,-0.12558163702487946,-2.114790439605713,0.039412710815668106,36.7149066,3.1819065,61.52,-2.17,-3.68,-0.12,83,238,4.282140254974365,4.280237197875977
32,-0.16095009446144104,-2.101778745651245,-0.02434096857905388,36.7148783,3.1818453,61.55,-2.07,-3.67,0.0,82,239,4.225302219390869,4.22529411315918
33,0.033863700926303864,-2.1069717407226562,-0.009655259549617767,36.7148472,3.1817779,61.52,-1.64,-2.86,0.1,82,239,3.3069465160369873,3.3051798343658447
34,-0.005437417421489954,-2.3375725746154785,-0.050426091998815536,36.7148287,3.1817436,60.6,-1.2,-1.34,1.2,82,226,2.168687582015991,1.8055123090744019
35,-0.026216033846139908,-2.4675891399383545,-0.023665988817811012,36.7148114,3.1817253,57.99,-1.03,-0.8,1.44,81,218,1.9496721029281616,1.3125345706939697
36,-0.047656815499067307,-2.4705097675323486,0.02993185445666313,36.7147974,3.1817121,55.75,-1.03,-0.83,1.43,81,218,1.9551650285720825,1.3314578533172607
37,-0.024442777037620544,-2.4703240394592285,-0.02025836519896984,36.714783,3.181698,53.5,-1.06,-0.87,1.43,81,218,1.988787293434143,1.3765935897827148
38,-0.014347277581691742,-2.46952223777771,0.013957192189991474,36.7147662,3.181681,50.9,-1.07,-0.87,1.45,80,218,2.0059006214141846,1.3858788013458252
39,-0.05853157863020897,-2.469341516494751,-0.011813465505838394,36.7147516,3.1816664,48.65,-1.06,-0.88,1.45,80,218,2.015205144882202,1.3892110586166382
40,-0.013304060325026512,-2.4695963859558105,0.018037857487797737,36.714737,3.1816517,46.41,-1.07,-0.87,1.46,79,218,2.012324571609497,1.384318232536316
41,-0.05723069980740547,-2.4699862003326416,0.021554842591285706,36.71472,3.1816346,43.79,-1.06,-0.88,1.46,79,218,2.016540288925171,1.3833421468734741
42,-0.05366656929254532,-2.4695658683776855,-0.020106421783566475,36.714703,3.1816174,41.17,-1.06,-0.89,1.47,79,218,2.031790018081665,1.3940001726150513
43,-0.02804444544017315,-2.4690744876861572,0.028827223926782608,36.7146884,3.1816027,38.92,-1.06,-0.88,1.47,78,218,2.0244760513305664,1.3848704099655151
44,-0.05000751465559006,-2.4693281650543213,-0.020222490653395653,36.7146738,3.181588,36.67,-1.06,-0.88,1.47,78,218,2.025444984436035,1.3895343542099
45,-0.012438233010470867,-2.469764471054077,-0.006594432983547449,36.7146568,3.1815709,34.05,-1.07,-0.88,1.48,78,218,2.032503128051758,1.3900099992752075
46,-0.06190342828631401,-2.470310688018799,0.00892838928848505,36.7146422,3.1815561,31.8,-1.05,-0.88,1.48,77,218,2.0254759788513184,1.3815191984176636
47,-0.03707678243517876,-2.469487428665161,-0.02705731987953186,36.7146252,3.1815389,29.18,-1.06,-0.88,1.47,77,218,2.0246338844299316,1.385119915008545
48,-0.03132227435708046,-2.469580888748169,0.029025539755821228,36.7146106,3.1815242,26.93,-1.05,-0.88,1.48,76,218,2.0230162143707275,1.377727746963501
49,-0.030077407136559486,-2.46952486038208,-0.02439432218670845,36.714596,3.1815095,24.67,-1.06,-0.88,1.47,76,218,2.0263051986694336,1.3846359252929688
50,-0.11267200112342834,3.126267433166504,-0.10685131698846817,36.7145745,3.1814966,22.19,-1.92,-0.06,1.05,76,179,2.199026346206665,1.9297391176223755
51,-0.2555621266365051,2.6689329147338867,-0.02238258346915245,36.7145376,3.1815116,21.57,-3.47,1.7,-0.04,75,152,3.8729488849639893,3.872690200805664
52,-0.1397622972726822,2.671868085861206,-0.02295793779194355,36.7144759,3.18155,21.66,-4.0,2.04,0.03,75,153,4.497666835784912,4.497515678405762
53,-0.03928136080503464,3.0319790840148926,0.2294439673423767,36.7144239,3.1815748,21.61,-3.47,0.36,0.04,75,173,3.4963152408599854,3.4959652423858643
54,-0.36151406168937683,-2.212570905685425,0.09118642657995224,36.7143819,3.1815499,21.59,-3.0,-3.53,0.02,74,233,4.638313293457031,4.63826847076416
55,-0.4794405996799469,-2.156005859375,0.04153265431523323,36.7143252,3.1814448,21.59,-4.33,-6.8,0.0,74,236,8.070724487304688,8.070721626281738
56,-0.4351269602775574,-2.153778314590454,-0.020100966095924377,36.7142612,3.1813202,21.6,-4.97,-7.7,0.0,73,236,9.170961380004883,9.170961380004883
57,-0.3337026536464691,-2.157836675643921,0.02960972860455513,36.7141837,3.1811716,21.63,-4.63,-7.07,0.0,73,236,8.459630966186523,8.459630966186523
58,-0.2184685617685318,-2.1473464965820312,0.0013473840663209558,36.7141265,3.1810618,21.61,-3.79,-5.94,0.03,73,236,7.0491461753845215,7.049081802368164
59,-0.27037879824638367,-2.112359046936035,0.04137241095304489,36.7140712,3.1809488,21.59,-3.31,-5.65,0.0,72,238,6.594907760620117,6.5948920249938965
60,-0.26846206188201904,-2.099485397338867,-0.021669307723641396,36.7140273,3.1808538,21.59,-3.22,-5.64,0.0,72,239,6.500100612640381,6.500093936920166
61,-0.18824224174022675,-2.100198268890381,0.020465437322854996,36.7139841,3.1807597,21.59,-3.01,-5.3,0.0,71,239,6.09830379486084,6.098302364349365
62,0.14325228333473206,-2.1009521484375,-0.02582775242626667,36.7139464,3.1806775,21.57,-1.47,-2.58,0.02,71,239,2.9743947982788086,2.974269390106201
63,0.11136337369680405,-2.10074520111084,0.028316397219896317,36.7139364,3.1806556,21.58,-0.13,-0.27,-0.01,71,239,0.30876675248146057,0.3082619309425354
64,-0.0031140288338065147,-2.100296974182129,0.022168751806020737,36.7139371,3.1806567,21.56,0.17,0.1,0.04,70,239,0.20427528023719788,0.200162872672081
