timestamp,pitch,yaw,roll,lat,lon,alt,velocity_x,velocity_y,velocity_z,battery,heading,airspeed,groundspeed
0,-0.023264052346348763,-0.02491697669029236,0.007901246659457684,36.7156066,3.1846299,22.56,-0.02,0.02,-0.1,96,358,0.11102122068405151,0.0372270829975605
1,-0.06444697827100754,-0.01510161068290472,0.07867086678743362,36.7156083,3.1846321,22.56,0.47,0.49,-0.04,95,359,0.6880844235420227,0.6867432594299316
2,-0.22292794287204742,1.0191962718963623,-0.05701746046543121,36.7156308,3.1846595,22.62,2.56,2.43,-0.08,95,58,3.536623001098633,3.535604238510132
3,-0.227979376912117,0.7968630790710449,-0.014222505502402782,36.7156726,3.1847091,22.58,3.46,3.25,0.0,95,45,4.7546186447143555,4.754615783691406
4,-0.05699727684259415,0.7565790414810181,0.01887202076613903,36.7157199,3.184764,22.58,3.27,3.05,-0.01,94,43,4.478750705718994,4.478720188140869
5,0.31629955768585205,0.35751715302467346,-0.14697597920894623,36.7157548,3.1848007,22.59,0.4,-0.09,-0.04,94,20,0.4173775613307953,0.41533946990966797
6,-0.13714927434921265,-1.334721565246582,-0.20345795154571533,36.7157409,3.1847705,22.6,-2.11,-3.03,0.03,93,283,3.6938271522521973,3.6936802864074707
7,-0.0928456261754036,-2.2561872005462646,-0.0017936547519639134,36.7157049,3.1847054,22.61,-2.29,-3.31,-0.04,93,230,4.031720161437988,4.031467437744141
8,-0.033599141985177994,-1.8388659954071045,0.20053492486476898,36.7156817,3.1846507,22.59,-0.69,-3.0,0.03,93,254,3.081082344055176,3.0808322429656982
9,-0.3382085859775543,-0.6789557337760925,0.09293867647647858,36.7156968,3.184603,22.57,3.09,-2.89,0.0,92,321,4.239208221435547,4.239207744598389
10,-0.5286545753479004,-0.6070775985717773,-0.00874257367104292,36.7157605,3.1845444,22.57,6.14,-4.28,0.0,92,325,7.491792678833008,7.491789817810059
11,-0.4716228246688843,-0.6153700351715088,-0.008480902761220932,36.7158731,3.184447,22.59,7.79,-5.42,0.0,91,324,9.499975204467773,9.499974250793457
12,-0.4405931830406189,-0.6201035976409912,0.018169810995459557,36.7159973,3.1843383,22.62,7.72,-5.46,0.0,91,324,9.459352493286133,9.459349632263184
13,-0.1113327220082283,-0.6218814253807068,0.012477058917284012,36.7160929,3.1842538,22.66,6.04,-4.29,0.03,91,324,7.415427207946777,7.415341377258301
14,0.05496038869023323,-0.8582727909088135,-0.19635562598705292,36.7161538,3.1841947,22.67,2.56,-2.95,-0.09,90,310,3.9077229499816895,3.9065284729003906
15,-0.35515108704566956,-2.124096393585205,-0.1265701949596405,36.7161542,3.1841329,23.45,-2.34,-3.99,-0.78,90,238,4.703200340270996,4.637589931488037
16,-0.5048341155052185,-2.174943447113037,0.030127333477139473,36.7161052,3.1840459,25.11,-4.55,-6.52,-1.34,89,235,8.066529273986816,7.953417778015137
17,-0.4267946183681488,-2.1646571159362793,-0.006215567234903574,36.7160231,3.1838989,27.82,-5.52,-7.98,-1.6,89,235,9.843059539794922,9.711044311523438
18,-0.4852868914604187,-2.1649441719055176,-0.022205160930752754,36.7159478,3.1837615,30.29,-5.53,-8.12,-1.56,88,235,9.95863151550293,9.834110260009766
19,-0.4820678234100342,-2.166177988052368,0.026136670261621475,36.7158726,3.183623,32.76,-5.56,-8.23,-1.57,88,235,10.061991691589355,9.937681198120117
20,-0.43668973445892334,-2.163409948348999,-0.028324861079454422,36.715785,3.1834602,35.64,-5.54,-8.29,-1.59,88,236,10.104615211486816,9.978140830993652
21,-0.4888764023780823,-2.1635658740997314,-0.025744277983903885,36.71571,3.1833208,38.12,-5.54,-8.23,-1.59,87,236,10.055086135864258,9.927579879760742
22,-0.4329935610294342,-2.1658079624176025,0.018659019842743874,36.7156225,3.1831584,41.04,-5.51,-8.28,-1.6,87,235,10.083771705627441,9.954866409301758
23,-0.4538864493370056,-2.164982318878174,-0.03164028376340866,36.7155478,3.1830185,43.53,-5.53,-8.31,-1.61,86,235,10.112814903259277,9.983723640441895
24,-0.4921198785305023,-2.1691181659698486,0.00972853135317564,36.7154727,3.182879,46.02,-5.53,-8.28,-1.61,86,235,10.092917442321777,9.962247848510742
25,-0.4269314110279083,-2.164705753326416,0.004361443221569061,36.7153855,3.1827162,48.94,-5.5,-8.31,-1.62,85,235,10.10608959197998,9.974990844726562
26,-0.4624280631542206,-2.164149522781372,-0.02980591356754303,36.7153107,3.1825761,51.45,-5.53,-8.29,-1.61,85,236,10.09955883026123,9.968859672546387
27,-0.44727280735969543,-2.1662886142730713,0.043466050177812576,36.715223,3.1824132,54.35,-5.51,-8.28,-1.63,84,235,10.087566375732422,9.954431533813477
28,-0.428570419549942,-2.163926124572754,-0.013503427617251873,36.7151484,3.1822734,56.86,-5.51,-8.27,-1.63,84,236,10.080442428588867,9.947144508361816
29,-0.31308403611183167,-2.1708152294158936,0.027934318408370018,36.7150634,3.182116,59.7,-4.99,-7.37,-1.46,83,235,9.027582168579102,8.90717601776123
30,-0.042425114661455154,-2.166238784790039,0.018294192850589752,36.7150063,3.1820101,61.56,-3.33,-5.01,-0.86,83,235,6.08282470703125,6.020625591278076
31,-0.15520431101322174,-2.1247777938842773,0.011959106661379337,36.71497,3.1819389,62.4,-2.22,-3.71,-0.27,83,238,4.336606502532959,4.327761650085449
32,-0.13789363205432892,-2.0870862007141113,-0.018709320574998856,36.7149374,3.1818674,62.55,-2.01,-3.69,-0.01,82,240,4.208922863006592,4.208906650543213
33,-0.07473238557577133,-2.0878984928131104,0.018069805577397346,36.7149106,3.1818065,62.55,-1.85,-3.43,-0.03,82,240,3.9004926681518555,3.9003591537475586
34,0.015790650621056557,-2.246461868286133,-0.06659699976444244,36.7148867,3.1817565,61.97,-1.21,-1.61,0.91,82,231,2.221782922744751,2.0236904621124268
35,-0.0075606987811625,-2.486503839492798,0.021540073677897453,36.7148713,3.1817378,59.87,-1.03,-0.8,1.47,81,217,1.9754869937896729,1.3105928897857666
36,-0.04879074916243553,-2.4714224338531494,-0.0233329888433218,36.7148573,3.1817248,57.61,-1.05,-0.82,1.41,81,218,1.9428520202636719,1.3348305225372314
37,-0.008805853314697742,-2.4701640605926514,-4.6417386329267174e-05,36.7148407,3.1817086,55.0,-1.05,-0.86,1.43,80,218,1.979477047920227,1.3646544218063354
38,-0.05938231199979782,-2.4695727825164795,-0.00012868708290625364,36.7148263,3.181694,52.76,-1.05,-0.87,1.43,80,218,1.9874197244644165,1.3750125169754028
39,-0.02607315219938755,-2.4693868160247803,-0.02181127853691578,36.7148093,3.181677,50.14,-1.08,-0.88,1.44,80,218,2.005594491958618,1.394754409790039
40,-0.0355709083378315,-2.469708204269409,0.029163993895053864,36.7147946,3.1816623,47.9,-1.06,-0.88,1.45,79,218,2.0084333419799805,1.3851474523544312
41,-0.02462860941886902,-2.4696996212005615,-0.02304566465318203,36.7147801,3.1816477,45.66,-1.06,-0.88,1.46,79,218,2.014678955078125,1.3862138986587524
42,-0.009349612519145012,-2.469689130783081,0.016447054222226143,36.7147631,3.1816307,43.03,-1.07,-0.88,1.46,79,218,2.018134593963623,1.3917452096939087
43,-0.051755644381046295,-2.469179630279541,-0.016336752101778984,36.7147485,3.1816159,40.79,-1.06,-0.89,1.46,78,218,2.0257370471954346,1.3952348232269287
44,-0.01863543875515461,-2.469743251800537,-0.020015303045511246,36.7147315,3.1815987,38.17,-1.06,-0.88,1.47,78,218,2.0210304260253906,1.384986162185669
45,-0.055348169058561325,-2.4696907997131348,0.02127193845808506,36.7147169,3.1815839,35.92,-1.06,-0.88,1.47,78,218,2.021209955215454,1.3870198726654053
46,-0.01136957760900259,-2.470045566558838,-0.015258681029081345,36.7147023,3.1815693,33.67,-1.07,-0.88,1.47,77,218,2.027341365814209,1.3934162855148315
47,-0.022961586713790894,-2.4690840244293213,0.03192546218633652,36.7146853,3.1815521,31.05,-1.05,-0.88,1.47,77,218,2.018535614013672,1.3802536725997925
48,-0.04813039302825928,-2.46944260597229,-0.02188836969435215,36.7146707,3.1815374,28.79,-1.06,-0.88,1.47,76,218,2.021927833557129,1.3882688283920288
49,-0.01106127817183733,-2.4696543216705322,-0.006444745697081089,36.7146537,3.1815202,26.17,-1.07,-0.88,1.46,76,218,2.021751642227173,1.388031005859375
50,-0.1088813841342926,-2.7527999877929688,-0.07813510298728943,36.7146378,3.1815063,23.94,-1.46,-0.62,1.39,76,202,2.1191749572753906,1.5938913822174072
51,-0.21257033944129944,2.7071151733398438,-0.059146322309970856,36.714609,3.181509,22.59,-2.94,1.19,0.2,75,155,3.1848978996276855,3.1782114505767822
52,-0.18305280804634094,2.680004119873047,0.024662742391228676,36.7145511,3.1815434,22.65,-4.05,2.02,-0.04,75,153,4.538421630859375,4.53823184967041
53,-0.051549214869737625,2.7782504558563232,0.08418957144021988,36.7144963,3.1815758,22.63,-3.81,1.41,0.06,75,159,4.074439525604248,4.073904991149902
54,-0.2936830520629883,-2.3527958393096924,0.20076511800289154,36.7144433,3.1815704,22.59,-2.9,-2.56,0.02,74,225,3.877286911010742,3.8771960735321045
55,-0.49929970502853394,-2.1466610431671143,-0.013349312357604504,36.7144001,3.1814974,22.59,-3.75,-6.02,0.02,74,237,7.100034236907959,7.100002288818359
56,-0.4880971312522888,-2.1494245529174805,0.022926216945052147,36.7143414,3.1813809,22.6,-4.77,-7.52,0.0,73,236,8.90595531463623,8.90595531463623
57,-0.38826802372932434,-2.1508238315582275,-0.027303054928779602,36.7142636,3.18123,22.62,-4.86,-7.52,0.0,73,236,8.961923599243164,8.961922645568848
58,-0.28014275431632996,-2.150475263595581,0.03480517864227295,36.7142024,3.1811119,22.63,-4.1,-6.39,0.03,73,236,7.604902744293213,7.60482120513916
59,-0.2817617654800415,-2.122659206390381,-0.009844998829066753,36.7141443,3.1809958,22.6,-3.42,-5.7,0.03,72,238,6.654358863830566,6.654285430908203
60,-0.2930073142051697,-2.1025123596191406,0.034143127501010895,36.7140996,3.1809005,22.6,-3.23,-5.64,0.01,72,239,6.507809638977051,6.507791042327881
61,-0.22836852073669434,-2.1002440452575684,-0.01699022948741913,36.714056,3.1808051,22.6,-3.21,-5.64,0.01,71,239,6.492784023284912,6.492774963378906
62,0.06861229240894318,-2.1003787517547607,0.027035990729928017,36.7140111,3.1807074,22.59,-2.19,-3.84,0.04,71,239,4.431110858917236,4.430914402008057
63,0.13781079649925232,-2.100412607192993,-0.02630440518260002,36.7139927,3.1806672,22.57,-0.56,-0.98,-0.01,71,239,1.1336816549301147,1.1335816383361816
64,0.02927514538168907,-2.100339889526367,0.0012227811384946108,36.7139912,3.1806636,22.58,0.1,0.15,0.01,70,239,0.1923677921295166,0.19166164100170135
