timestamp,pitch,yaw,roll,lat,lon,alt,velocity_x,velocity_y,velocity_z,battery,heading,airspeed,groundspeed
0,-0.023361237719655037,0.02558961510658264,0.009416528977453709,36.7156066,3.1846299,18.99,-0.02,0.02,0.04,96,1,0.059761349111795425,0.035561252385377884
1,-0.08062167465686798,0.02654295600950718,0.04292530193924904,36.7156085,3.1846315,18.97,0.52,0.33,0.0,95,1,0.6273013949394226,0.6273011565208435
2,-0.2591002583503723,0.6202512383460999,0.003401044989004731,36.7156277,3.1846459,18.93,2.46,1.48,-0.02,95,35,2.8796088695526123,2.8795325756073
3,-0.20812152326107025,0.5242436528205872,-0.01449032872915268,36.71568,3.1846843,18.98,3.83,2.19,-0.04,95,30,4.423020839691162,4.422807693481445
4,-0.022403273731470108,0.5215543508529663,0.011404532007873058,36.7157318,3.1847212,19.02,3.57,2.04,-0.02,94,29,4.113402366638184,4.1133222579956055
5,0.14194178581237793,-0.3694804012775421,-0.30171993374824524,36.7157664,3.1847378,19.02,0.12,-0.93,0.01,94,338,0.9409875273704529,0.9408996105194092
6,-0.19716209173202515,-1.9537163972854614,-0.0860767662525177,36.715749,3.1846989,19.06,-2.3,-3.18,-0.03,93,248,3.9331724643707275,3.9330272674560547
7,-0.1103288009762764,-2.106476068496704,0.02943938784301281,36.7157168,3.1846417,19.05,-2.35,-3.37,0.0,93,239,4.115429878234863,4.115418910980225
8,-0.0776841938495636,-1.558955430984497,0.24755775928497314,36.7156935,3.1845779,19.03,0.04,-2.94,0.01,93,270,2.9482028484344482,2.948183059692383
9,-0.37092146277427673,-0.654525101184845,0.07549633830785751,36.7157204,3.1845291,19.03,3.96,-3.14,0.0,92,322,5.062190055847168,5.062189102172852
10,-0.5423322319984436,-0.6234377026557922,-0.006981409154832363,36.7157935,3.1844642,19.04,6.66,-4.61,0.0,92,324,8.107370376586914,8.107369422912598
11,-0.46112215518951416,-0.6189431548118591,0.002569147851318121,36.715911,3.1843622,19.06,7.87,-5.5,0.0,91,324,9.605765342712402,9.605765342712402
12,-0.38744640350341797,-0.6227772831916809,0.003210568567737937,36.7160345,3.1842532,19.09,7.43,-5.29,-0.01,91,324,9.12765884399414,9.127638816833496
13,-0.020593447610735893,-0.6282221674919128,-0.008207355625927448,36.7161228,3.1841747,19.1,5.3,-3.83,0.05,91,324,6.543551921844482,6.543350696563721
14,0.0022499901242554188,-1.1168848276138306,-0.2705410420894623,36.7161704,3.1841204,19.2,1.37,-2.89,-0.22,90,296,3.2149012088775635,3.206702709197998
15,-0.3836778700351715,-2.134657621383667,-0.09200847893953323,36.7161542,3.184052,20.26,-3.1,-4.55,-0.95,90,237,5.590471267700195,5.509030818939209
16,-0.5121421217918396,-2.1584136486053467,0.0017083152197301388,36.7160982,3.1839536,22.13,-4.91,-7.01,-1.45,89,236,8.683897018432617,8.561532020568848
17,-0.4088120758533478,-2.1631648540496826,0.014189898036420345,36.7160132,3.1838014,24.93,-5.55,-8.05,-1.61,89,236,9.916302680969238,9.784626007080078
18,-0.4762837886810303,-2.164288282394409,-0.0298604778945446,36.7159381,3.1836637,27.4,-5.54,-8.2,-1.57,88,236,10.032617568969727,9.907868385314941
19,-0.49327126145362854,-2.1657369136810303,0.021346524357795715,36.7158628,3.1835245,29.86,-5.52,-8.24,-1.58,88,235,10.053292274475098,9.927183151245117
20,-0.428468257188797,-2.1626274585723877,-0.01998801901936531,36.7157756,3.1833613,32.76,-5.5,-8.25,-1.6,88,236,10.044174194335938,9.915888786315918
21,-0.4794885218143463,-2.1634082794189453,-0.026933899149298668,36.7157008,3.1832217,35.24,-5.56,-8.27,-1.6,87,236,10.099095344543457,9.970972061157227
22,-0.4275457262992859,-2.1637654304504395,0.02949482947587967,36.7156135,3.183059,38.15,-5.51,-8.28,-1.62,87,236,10.083290100097656,9.951886177062988
23,-0.428682416677475,-2.164212942123413,0.020525077357888222,36.7155514,3.182943,40.23,-5.48,-8.27,-1.62,86,236,10.056941032409668,9.92525863647461
24,-0.4867139458656311,-2.1633143424987793,-0.0016471893759444356,36.7154641,3.1827794,43.15,-5.5,-8.28,-1.62,86,236,10.073339462280273,9.941444396972656
25,-0.4240970015525818,-2.1656577587127686,0.015729209408164024,36.7153771,3.1826168,46.06,-5.55,-8.29,-1.64,85,235,10.120797157287598,9.986461639404297
26,-0.45898449420928955,-2.1636228561401367,-0.027418602257966995,36.7153022,3.1824767,48.56,-5.52,-8.32,-1.63,85,236,10.125812530517578,9.992136001586914
27,-0.4507406949996948,-2.1646347045898438,0.03478723019361496,36.7152151,3.1823135,51.49,-5.52,-8.28,-1.64,84,235,10.095708847045898,9.961560249328613
28,-0.4186331033706665,-2.1644680500030518,-0.006706517189741135,36.7151402,3.1821738,54.0,-5.49,-8.26,-1.63,84,235,10.062874794006348,9.929391860961914
29,-0.2836141288280487,-2.1681344509124756,-0.015727883204817772,36.7150689,3.1820411,56.4,-4.83,-7.15,-1.43,84,235,8.754305839538574,8.635577201843262
30,-0.033877093344926834,-2.158855676651001,0.019268525764346123,36.7150077,3.1819266,58.35,-2.94,-4.5,-0.67,83,236,5.423679828643799,5.3815202713012695
31,-0.16794779896736145,-2.108485698699951,0.015612205490469933,36.7149748,3.1818603,58.95,-2.15,-3.71,-0.16,83,239,4.296221733093262,4.2930521965026855
32,-0.14759309589862823,-2.0863168239593506,-0.021881110966205597,36.7149426,3.1817887,59.01,-1.99,-3.68,0.0,82,240,4.189690589904785,4.1896820068359375
33,-0.02251875400543213,-2.088257312774658,0.01729097031056881,36.7149167,3.1817299,59.0,-1.66,-3.05,0.05,82,240,3.4843921661376953,3.483989953994751
34,0.037535153329372406,-2.2933108806610107,-0.06661837548017502,36.7148977,3.1816922,58.26,-1.22,-1.48,1.06,82,228,2.2007052898406982,1.9273847341537476
35,-0.014644366689026356,-2.48040771484375,0.01897134818136692,36.71488,3.1816726,55.71,-1.04,-0.79,1.45,81,217,1.9583982229232788,1.315147876739502
36,-0.056184932589530945,-2.477811574935913,-0.015494815073907375,36.7148658,3.1816595,53.47,-1.05,-0.83,1.42,81,218,1.9594085216522217,1.3418028354644775
37,-0.014466527849435806,-2.476116418838501,-0.011916936375200748,36.7148489,3.1816431,50.85,-1.07,-0.87,1.43,81,218,2.0001518726348877,1.3902039527893066
38,-0.05613317713141441,-2.4757535457611084,0.012669658288359642,36.7148342,3.1816285,48.6,-1.08,-0.87,1.44,80,218,2.004471778869629,1.3929234743118286
39,-0.009859033860266209,-2.4756898880004883,-0.009658029302954674,36.7148194,3.1816139,46.36,-1.09,-0.89,1.44,80,218,2.022054433822632,1.4095330238342285
40,-0.06522231549024582,-2.4752235412597656,0.010356772691011429,36.7148047,3.1815993,44.12,-1.07,-0.88,1.45,79,218,2.0209221839904785,1.3990752696990967
41,-0.040201641619205475,-2.4756014347076416,-0.024358071386814117,36.7147874,3.1815821,41.51,-1.07,-0.88,1.46,79,218,2.0249884128570557,1.3971103429794312
42,-0.008842778392136097,-2.475935697555542,0.0032197856344282627,36.7147703,3.181565,38.89,-1.09,-0.88,1.47,79,218,2.038480043411255,1.402321696281433
43,-0.05933532491326332,-2.4750943183898926,-0.006493357941508293,36.7147555,3.1815502,36.64,-1.07,-0.89,1.47,78,218,2.036789655685425,1.4011263847351074
44,-0.009900215081870556,-2.4757328033447266,0.0037411951925605536,36.7147408,3.1815356,34.39,-1.08,-0.88,1.47,78,218,2.0364646911621094,1.4012809991836548
45,-0.03961582109332085,-2.475402593612671,0.02440587803721428,36.7147236,3.1815183,31.77,-1.07,-0.88,1.47,78,218,2.0290870666503906,1.3908323049545288
46,-0.02898431196808815,-2.475996732711792,-0.023463193327188492,36.7147087,3.1815036,29.52,-1.08,-0.88,1.47,77,218,2.0341076850891113,1.3982549905776978
47,-0.006272746715694666,-2.47525954246521,0.012424547225236893,36.7146915,3.1814864,26.89,-1.07,-0.87,1.47,77,218,2.0249292850494385,1.3908977508544922
48,-0.05839068815112114,-2.4752936363220215,-0.007912359200417995,36.7146767,3.1814717,24.64,-1.08,-0.89,1.47,77,218,2.038604259490967,1.4073234796524048
49,-0.01753060333430767,-2.4751811027526855,0.018543818965554237,36.7146621,3.181457,22.39,-1.07,-0.88,1.47,76,218,2.0254368782043457,1.389760971069336
50,-0.13433818519115448,-3.034843921661377,-0.08051846921443939,36.7146414,3.1814427,19.85,-1.78,-0.26,1.18,76,186,2.1615958213806152,1.806061029434204
51,-0.20812532305717468,2.6672041416168213,-0.047601066529750824,36.714607,3.1814543,19.03,-3.34,1.58,0.0,75,152,3.6980836391448975,3.6980817317962646
52,-0.14865149557590485,2.6723880767822266,0.021824244409799576,36.7145464,3.1814917,19.13,-4.01,2.04,0.01,75,153,4.5025553703308105,4.502529144287109
53,-0.04437800869345665,2.936833620071411,0.14626619219779968,36.7144938,3.1815195,19.07,-3.59,0.73,0.05,75,168,3.6657755374908447,3.665367364883423
54,-0.34307360649108887,-2.2522921562194824,0.1690562218427658,36.7144509,3.1815023,19.05,-2.91,-3.06,0.02,74,230,4.230310440063477,4.2302565574646
55,-0.5111526846885681,-2.1436283588409424,-0.0034259629901498556,36.7143966,3.1814035,19.05,-4.15,-6.6,0.01,74,237,7.802061557769775,7.802053451538086
56,-0.45920446515083313,-2.1477229595184326,0.024730470031499863,36.7143345,3.1812812,19.06,-4.9,-7.68,0.0,73,236,9.118398666381836,9.11839771270752
57,-0.3551937937736511,-2.1518771648406982,-0.020420191809535027,36.7142574,3.1811316,19.08,-4.69,-7.25,0.0,73,236,8.642278671264648,8.642278671264648
58,-0.2403251826763153,-2.1466574668884277,0.03825101628899574,36.7141992,3.1810191,19.08,-3.85,-6.04,0.02,73,237,7.174502372741699,7.174446105957031
59,-0.2957194447517395,-2.120527505874634,-0.00020100121037103236,36.7141428,3.1809053,19.05,-3.38,-5.66,0.01,72,238,6.601787567138672,6.601778507232666
60,-0.2628784477710724,-2.1079459190368652,0.030713792890310287,36.714098,3.1808101,19.05,-3.27,-5.64,0.0,72,239,6.5293660163879395,6.529363632202148
61,-0.19454705715179443,-2.1090164184570312,-0.02329889126121998,36.7140538,3.1807157,19.05,-3.15,-5.41,0.0,71,239,6.268261909484863,6.268261432647705
62,0.168729767203331,-2.1094586849212646,0.005776979960501194,36.7140131,3.1806289,19.03,-1.71,-2.94,0.03,71,239,3.4115591049194336,3.4113526344299316
63,0.09035345166921616,-2.1087660789489746,-0.005220630671828985,36.7140007,3.1806022,19.04,-0.25,-0.45,-0.02,71,239,0.5231444239616394,0.5226854085922241
64,0.003960777539759874,-2.1087586879730225,0.029315780848264694,36.7140013,3.1806026,19.02,0.18,0.08,0.04,70,239,0.21027866005897522,0.2062862366437912
