timestamp,pitch,yaw,roll,lat,lon,alt,velocity_x,velocity_y,velocity_z,battery,heading,airspeed,groundspeed
0,-0.025439903140068054,0.03475877270102501,-0.0010572014143690467,36.7156067,3.1846299,14.07,-0.02,0.02,-0.04,96,1,0.05333308130502701,0.034284356981515884
1,-0.050517305731773376,0.03924121707677841,0.09179194271564484,36.715608,3.1846323,14.09,0.36,0.54,-0.02,95,2,0.6542865037918091,0.653915286064148
2,-0.18886561691761017,1.3454303741455078,-0.0412076935172081,36.7156211,3.1846542,14.09,1.58,2.15,-0.02,95,77,2.6688344478607178,2.668738603591919
3,-0.12952935695648193,0.9365057349205017,-0.00045441757538355887,36.7156507,3.1847042,14.1,1.97,2.68,-0.01,95,53,3.3358452320098877,3.3358256816864014
4,0.2922136187553406,0.8821688890457153,-0.01336000207811594,36.7156725,3.1847398,14.1,0.76,0.91,0.0,94,50,1.191488265991211,1.19145929813385
5,-0.0009156173327937722,-0.662522554397583,-0.21044893562793732,36.7156609,3.1847155,14.13,-1.98,-2.9,0.03,94,322,3.52054762840271,3.5203757286071777
6,-0.1504945158958435,-2.1980488300323486,-0.015063684433698654,36.7156309,3.1846607,14.12,-2.31,-3.3,-0.07,93,234,4.038722991943359,4.038035869598389
7,-0.00666189705953002,-1.792052984237671,0.15494565665721893,36.7156022,3.1845959,14.11,-0.83,-3.05,0.04,93,257,3.1649444103240967,3.164641857147217
8,-0.37779900431632996,-0.683740496635437,0.1443289816379547,36.7156154,3.1845473,14.08,2.95,-2.87,0.0,93,320,4.120975494384766,4.120975017547607
9,-0.4687919318675995,-0.6070474982261658,-0.021423833444714546,36.7156778,3.1844892,14.09,6.04,-4.24,0.0,92,325,7.386478424072266,7.386478424072266
10,-0.5366578102111816,-0.6154972314834595,-0.010781609453260899,36.7157722,3.1844073,14.1,7.63,-5.33,0.0,92,324,9.312603950500488,9.312602043151855
11,-0.41387128829956055,-0.6220906376838684,0.004167183768004179,36.715896,3.1842983,14.13,7.8,-5.56,0.0,91,324,9.581315040588379,9.581315040588379
12,-0.15964433550834656,-0.6258282661437988,0.02471458539366722,36.7160091,3.1841979,14.18,6.04,-4.32,0.03,91,324,7.429807662963867,7.429721832275391
13,0.10596884787082672,-0.863403856754303,-0.2040419727563858,36.7160702,3.1841384,14.19,2.59,-2.97,-0.09,91,310,3.9480514526367188,3.946939706802368
14,-0.3563995957374573,-2.067406415939331,-0.10437425971031189,36.716076,3.1840873,14.77,-1.71,-3.65,-0.65,90,241,4.094587802886963,4.041410446166992
15,-0.47620558738708496,-2.172797918319702,-0.02197674661874771,36.7160228,3.1839897,16.61,-4.55,-6.49,-1.34,90,235,8.046839714050293,7.934054374694824
16,-0.49955081939697266,-2.1674082279205322,0.01992006041109562,36.7159533,3.1838656,18.91,-5.44,-7.91,-1.59,89,235,9.73881721496582,9.607067108154297
17,-0.4288850724697113,-2.1644229888916016,-0.0032789630349725485,36.7158657,3.1837058,21.79,-5.55,-8.13,-1.57,89,235,9.97821044921875,9.85265827178955
18,-0.4797104597091675,-2.163825273513794,-0.02296203188598156,36.7157905,3.1835665,24.26,-5.54,-8.24,-1.57,88,236,10.05931568145752,9.934491157531738
19,-0.4726029336452484,-2.1652939319610596,0.03385984152555466,36.7157156,3.1834272,26.74,-5.53,-8.25,-1.59,88,235,10.064189910888672,9.937366485595703
20,-0.4407489001750946,-2.1623573303222656,-0.027368782088160515,36.7156284,3.1832644,29.64,-5.51,-8.28,-1.59,88,236,10.080465316772461,9.952743530273438
21,-0.4950101971626282,-2.1644411087036133,-0.00981011800467968,36.7155535,3.1831248,32.13,-5.54,-8.28,-1.6,87,235,10.098215103149414,9.970222473144531
22,-0.42642974853515625,-2.1634979248046875,0.01298273354768753,36.7154664,3.1829622,35.05,-5.5,-8.29,-1.61,87,236,10.087630271911621,9.958090782165527
23,-0.4271325469017029,-2.1646440029144287,-0.004490372259169817,36.7154041,3.1828457,37.13,-5.52,-8.31,-1.61,86,235,10.11280632019043,9.982645988464355
24,-0.48621612787246704,-2.1638004779815674,0.01619841903448105,36.7153169,3.1826821,40.04,-5.5,-8.3,-1.62,86,236,10.096359252929688,9.965107917785645
25,-0.4250108599662781,-2.165984630584717,-0.007998693734407425,36.7152296,3.182519,42.96,-5.52,-8.29,-1.62,85,235,10.099754333496094,9.967637062072754
26,-0.4764421880245209,-2.165273427963257,-0.01694277673959732,36.7151548,3.1823792,45.46,-5.5,-8.28,-1.63,85,235,10.079488754272461,9.94660758972168
27,-0.4293149411678314,-2.1637368202209473,0.0309076439589262,36.7150676,3.1822162,48.38,-5.5,-8.3,-1.63,84,236,10.092525482177734,9.958511352539062
28,-0.3116811215877533,-2.1672370433807373,-0.026554256677627563,36.7149944,3.1820795,50.84,-5.15,-7.63,-1.52,84,235,9.334784507751465,9.210147857666016
29,-0.05562760680913925,-2.1659278869628906,0.033043961971998215,36.7149261,3.1819528,53.1,-3.31,-5.0,-0.86,84,235,6.561415672302246,6.486602783203125
30,-0.1262488067150116,-2.1233370304107666,-0.00877880398184061,36.7148899,3.1818818,53.93,-2.22,-3.72,-0.26,83,238,4.347188472747803,4.338845729827881
31,-0.1480230689048767,-2.088611602783203,0.03863498941063881,36.7148618,3.1818204,54.08,-2.01,-3.69,-0.01,83,240,4.204959392547607,4.204927444458008
32,-0.07934877276420593,-2.087613344192505,-0.004249014891684055,36.7148305,3.1817492,54.07,-1.87,-3.43,-0.02,82,240,3.9089484214782715,3.9088382720947266
33,0.06994286179542542,-2.1915125846862793,-0.03947266563773155,36.7148094,3.1817041,53.69,-1.25,-1.83,0.68,82,234,2.326101779937744,2.2229673862457275
34,-0.03629772365093231,-2.4867916107177734,0.022491762414574623,36.7147913,3.1816808,51.38,-1.02,-0.78,1.47,82,217,1.9644845724105835,1.2968782186508179
35,-0.02919824793934822,-2.4715614318847656,-0.01902627758681774,36.7147773,3.1816679,49.13,-1.03,-0.82,1.41,81,218,1.9375054836273193,1.325318455696106
36,-0.04798691347241402,-2.4696216583251953,0.02835174649953842,36.7147631,3.181654,46.89,-1.05,-0.87,1.42,81,218,1.9825156927108765,1.373725175857544
37,-0.05677483230829239,-2.469663381576538,-0.013450232334434986,36.7147462,3.181637,44.27,-1.07,-0.88,1.43,81,218,1.9983255863189697,1.389460802078247
38,-0.013849187642335892,-2.4695441722869873,0.01678168959915638,36.7147316,3.1816224,42.03,-1.07,-0.87,1.44,80,218,1.9978941679000854,1.382668375968933
39,-0.05357276275753975,-2.4695916175842285,0.01974882371723652,36.7147146,3.1816053,39.41,-1.05,-0.88,1.45,80,218,2.0018670558929443,1.379459261894226
40,-0.02177649363875389,-2.4698855876922607,-0.020788202062249184,36.7147001,3.1815907,37.16,-1.06,-0.88,1.45,80,218,2.0111942291259766,1.3885118961334229
41,-0.05614914745092392,-2.469980001449585,0.021924789994955063,36.7146855,3.181576,34.92,-1.07,-0.89,1.45,79,218,2.0180201530456543,1.3942073583602905
42,-0.053125012665987015,-2.4696598052978516,-0.019614556804299355,36.7146684,3.1815588,32.3,-1.06,-0.89,1.46,79,218,2.0205821990966797,1.3907370567321777
43,-0.020464863628149033,-2.4688572883605957,0.029520632699131966,36.7146538,3.1815441,30.06,-1.06,-0.88,1.47,78,218,2.0222268104553223,1.3824400901794434
44,-0.05510571599006653,-2.4695889949798584,0.020474253222346306,36.7146368,3.1815269,27.44,-1.05,-0.88,1.47,78,218,2.022304058074951,1.3818986415863037
45,-0.007380363065749407,-2.4698216915130615,-0.009251526556909084,36.7146223,3.1815122,25.19,-1.06,-0.88,1.47,78,218,2.0203914642333984,1.3812556266784668
46,-0.05931438133120537,-2.470052719116211,0.012651422061026096,36.7146077,3.1814975,22.94,-1.06,-0.88,1.47,77,218,2.021475315093994,1.3837882280349731
47,-0.04274911805987358,-2.4694201946258545,-0.020099740475416183,36.7145907,3.1814803,20.31,-1.06,-0.88,1.47,77,218,2.0242397785186768,1.3896445035934448
48,-0.02137681283056736,-2.469510555267334,0.028360042721033096,36.7145761,3.1814656,18.06,-1.06,-0.88,1.46,77,218,2.0157344341278076,1.3812813758850098
49,-0.10425148904323578,-2.7556228637695312,-0.0692611038684845,36.7145578,3.1814493,15.45,-1.46,-0.61,1.38,76,202,2.110912799835205,1.591591715812683
50,-0.21595343947410583,2.7048518657684326,-0.06687397509813309,36.714529,3.181452,14.11,-2.95,1.18,0.2,76,154,3.189176082611084,3.1826658248901367
51,-0.218613401055336,2.6796202659606934,0.0018186644883826375,36.7144802,3.1814807,14.15,-4.02,1.99,-0.06,75,153,4.493459224700928,4.492946147918701
52,-0.055088456720113754,2.7786521911621094,0.07738397270441055,36.7144162,3.1815188,14.15,-3.82,1.42,0.06,75,159,4.078023910522461,4.077460289001465
53,-0.24399684369564056,-2.5492782592773438,0.27509966492652893,36.7143698,3.1815194,14.11,-2.93,-1.86,0.03,75,213,3.4754135608673096,3.4752657413482666
54,-0.4981979429721832,-2.144198179244995,-0.00854185875505209,36.7143199,3.1814399,14.11,-3.74,-6.0,0.02,74,237,7.080138206481934,7.080097198486328
55,-0.47217321395874023,-2.150928258895874,0.03326673433184624,36.7142615,3.1813241,14.12,-4.78,-7.52,0.0,74,236,8.921052932739258,8.921051979064941
56,-0.3884168863296509,-2.151021957397461,-0.017346862703561783,36.7141948,3.1811942,14.13,-4.94,-7.63,0.0,73,236,9.096270561218262,9.096270561218262
57,-0.2543153464794159,-2.150475263595581,0.0397166907787323,36.7141224,3.181055,14.15,-4.12,-6.4,0.03,73,236,7.622148513793945,7.622077465057373
58,-0.256926953792572,-2.12738037109375,-0.003781301202252507,36.7140719,3.1809546,14.13,-3.46,-5.71,0.03,73,238,6.687295913696289,6.6872053146362305
59,-0.26236480474472046,-2.10241961479187,0.0333670973777771,36.7140196,3.1808432,14.12,-3.23,-5.65,0.01,72,239,6.514571189880371,6.514552593231201
60,-0.24988125264644623,-2.100302219390869,-0.02164204977452755,36.7139759,3.180748,14.12,-3.22,-5.63,0.01,72,239,6.494551658630371,6.494542121887207
61,0.08027763664722443,-2.1004605293273926,0.009650863707065582,36.7139311,3.1806503,14.11,-2.19,-3.82,0.03,71,239,4.409526824951172,4.409348487854004
62,0.11526988446712494,-2.100510597229004,-0.006010533310472965,36.7139127,3.1806102,14.09,-0.55,-0.98,-0.01,71,239,1.1296364068984985,1.1295186281204224
63,0.03749680891633034,-2.100437641143799,0.012121723033487797,36.713911,3.1806061,14.1,0.1,0.16,0.0,71,239,0.19326704740524292,0.19302453100681305
