timestamp,pitch,yaw,roll,lat,lon,alt,velocity_x,velocity_y,velocity_z,battery,heading,airspeed,groundspeed
0,-0.02424170821905136,-0.025592202320694923,0.008951026946306229,36.7156065,3.1846303,10.44,0.0,0.0,-0.29,98,358,0.29847976565361023,0.0016236713854596019
1,-0.05555998906493187,-0.021443549543619156,0.0810970664024353,36.7156081,3.1846322,10.56,0.45,0.44,-0.07,97,358,0.6419318318367004,0.6376314163208008
2,-0.1879991888999939,1.0964345932006836,-0.06264019012451172,36.7156285,3.1846579,10.62,2.28,2.27,0.0,97,66,2.8657665252685547,2.865718364715576
3,-0.1956915408372879,0.8171171545982361,-0.0044912598095834255,36.7156654,3.1847039,10.56,2.99,3.01,0.03,97,46,4.25003719329834,4.249902725219727
4,0.021816004067659378,0.7775891423225403,-0.003753713797777891,36.7157058,3.1847536,10.48,2.72,2.68,0.02,96,44,3.823174476623535,3.823061466217041
5,0.23011109232902527,-0.04860975965857506,-0.2675827443599701,36.715729,3.1847766,10.46,-0.42,-1.04,-0.02,96,357,1.124802827835083,1.1246020793914795
6,-0.16394062340259552,-1.6454354524612427,-0.11452170461416245,36.7157084,3.1847363,10.43,-2.27,-3.22,0.04,95,265,3.9447665214538574,3.944477081298828
7,-0.09206978976726532,-2.227466106414795,0.029823172837495804,36.7156773,3.18468,10.47,-2.27,-3.28,-0.04,95,232,3.9935693740844727,3.993345260620117
8,-0.050024256110191345,-1.5651133060455322,0.2739979922771454,36.7156551,3.1846173,10.43,0.05,-2.87,0.02,95,270,2.8708431720733643,2.8707268238067627
9,-0.3745986819267273,-0.6577097773551941,0.055649787187576294,36.7156821,3.1845692,10.42,3.9,-3.1,-0.01,94,322,4.989487171173096,4.989476203918457
10,-0.5018549561500549,-0.6274606585502625,0.04159094765782356,36.71577,3.1844914,10.43,6.91,-4.81,-0.01,94,324,8.427435874938965,8.427427291870117
11,-0.4774106740951538,-0.6206372380256653,-0.01793515495955944,36.7158714,3.184403,10.45,7.87,-5.53,0.0,93,324,9.623682022094727,9.623682022094727
12,-0.42630794644355774,-0.6228011250495911,-0.007294401992112398,36.7159777,3.1843093,10.48,7.65,-5.43,-0.01,93,324,9.391621589660645,9.39161205291748
13,-0.013549760915338993,-0.6284139752388,-0.03633992373943329,36.7160838,3.1842152,10.51,5.31,-3.84,0.05,93,324,6.554535865783691,6.55428409576416
14,0.019002435728907585,-1.103065013885498,-0.24409902095794678,36.716132,3.1841608,10.6,1.41,-2.88,-0.21,92,296,3.2203080654144287,3.2129578590393066
15,-0.42326605319976807,-2.1311755180358887,-0.08579576760530472,36.7161162,3.1840933,11.64,-3.09,-4.55,-0.94,92,237,5.5917510986328125,5.511750221252441
16,-0.4957937002182007,-2.1605405807495117,0.035823553800582886,36.7160602,3.1839952,13.5,-4.86,-7.01,-1.45,91,236,8.657774925231934,8.535043716430664
17,-0.4446665942668915,-2.164245843887329,-0.02974189817905426,36.7159758,3.1838429,16.32,-5.51,-8.02,-1.6,91,236,9.868629455566406,9.738033294677734
18,-0.49525195360183716,-2.1627986431121826,-0.002129960572347045,36.7159006,3.1837048,18.78,-5.55,-8.2,-1.56,90,236,10.028097152709961,9.904747009277344
19,-0.43849146366119385,-2.164102792739868,0.03567434847354889,36.7158254,3.1835653,21.24,-5.54,-8.22,-1.58,90,236,10.050400733947754,9.924585342407227
20,-0.47229084372520447,-2.163975715637207,-0.0297271516174078,36.7157381,3.1834031,24.14,-5.52,-8.25,-1.58,89,236,10.062334060668945,9.936392784118652
21,-0.4923504590988159,-2.166290044784546,0.03027230314910412,36.7156636,3.1832641,26.62,-5.53,-8.28,-1.59,89,235,10.088377952575684,9.961100578308105
22,-0.42063525319099426,-2.163053274154663,-0.009365109726786613,36.7155763,3.1831008,29.53,-5.5,-8.31,-1.6,89,236,10.100004196166992,9.970860481262207
23,-0.4902589023113251,-2.163907527923584,-0.01130908727645874,36.7155015,3.1829608,32.03,-5.52,-8.28,-1.61,88,236,10.089221954345703,9.959596633911133
24,-0.468633234500885,-2.1644351482391357,0.035035692155361176,36.7154265,3.182821,34.52,-5.51,-8.28,-1.62,88,235,10.080877304077148,9.948853492736816
25,-0.44908520579338074,-2.1673026084899902,-0.027059121057391167,36.7153394,3.1826582,37.44,-5.51,-8.29,-1.63,87,235,10.091700553894043,9.958579063415527
26,-0.48972952365875244,-2.1638262271881104,-0.00405446020886302,36.7152648,3.1825184,39.94,-5.48,-8.3,-1.62,87,236,10.08545207977295,9.952978134155273
27,-0.4267151355743408,-2.1628577709198,-0.00119282235391438,36.7151776,3.182355,42.87,-5.52,-8.29,-1.63,86,236,10.10180950164795,9.968616485595703
28,-0.43016690015792847,-2.162990093231201,-0.01504480466246605,36.7151153,3.1822384,44.96,-5.52,-8.29,-1.63,86,236,10.10072135925293,9.968023300170898
29,-0.28249794244766235,-2.1694750785827637,0.03283456340432167,36.7150311,3.1820825,47.77,-4.83,-7.19,-1.44,85,235,8.787761688232422,8.66878604888916
30,-0.06515038013458252,-2.1604936122894287,-0.013400045223534107,36.7149697,3.1819675,49.75,-2.94,-4.52,-0.67,85,236,5.441306114196777,5.399281978607178
31,-0.14135894179344177,-2.1085257530212402,0.04572221264243126,36.7149367,3.181901,50.35,-2.15,-3.71,-0.17,85,239,4.295581340789795,4.292137622833252
32,-0.18170073628425598,-2.0862433910369873,-0.0015140449395403266,36.7149047,3.1818293,50.41,-2.0,-3.7,-0.01,84,240,4.210665225982666,4.210643291473389
33,0.016820423305034637,-2.08772349357605,0.009134937077760696,36.7148786,3.1817703,50.4,-1.69,-3.08,0.03,84,240,3.5191807746887207,3.5189712047576904
34,-0.0009865364991128445,-2.282254219055176,-0.06190591678023338,36.7148596,3.1817323,49.68,-1.2,-1.5,1.04,84,229,2.1946516036987305,1.9303545951843262
35,-0.0128985196352005,-2.4751687049865723,-0.015694566071033478,36.7148421,3.1817126,47.13,-1.04,-0.79,1.44,83,218,1.9492474794387817,1.3102062940597534
36,-0.052295420318841934,-2.47198486328125,0.028471002355217934,36.7148281,3.1816995,44.89,-1.04,-0.82,1.41,83,218,1.9456207752227783,1.3330141305923462
37,-0.05888229236006737,-2.4699673652648926,-0.014525189995765686,36.7148113,3.1816831,42.27,-1.07,-0.88,1.42,82,218,1.9928754568099976,1.389237880706787
38,-0.013349050655961037,-2.4699714183807373,0.023572133854031563,36.7147968,3.1816685,40.03,-1.07,-0.87,1.43,82,218,1.9944941997528076,1.3867110013961792
39,-0.045565567910671234,-2.4690706729888916,-0.025489412248134613,36.7147823,3.1816538,37.79,-1.06,-0.88,1.44,82,218,1.9998738765716553,1.3837332725524902
40,-0.014950338751077652,-2.469583511352539,-0.014927453361451626,36.7147653,3.1816367,35.17,-1.07,-0.88,1.45,81,218,2.0116469860076904,1.390912652015686
41,-0.05617108941078186,-2.469712018966675,0.018272802233695984,36.7147507,3.181622,32.93,-1.07,-0.88,1.46,81,218,2.0165796279907227,1.389134407043457
42,-0.047187644988298416,-2.4695796966552734,-0.02067549340426922,36.7147336,3.1816049,30.32,-1.07,-0.89,1.47,81,218,2.027341604232788,1.393470287322998
43,-0.024172307923436165,-2.4695990085601807,0.026359230279922485,36.7147191,3.1815903,28.07,-1.07,-0.88,1.47,80,218,2.022761821746826,1.387676477432251
44,-0.04760747402906418,-2.4693543910980225,-0.022577863186597824,36.7147045,3.1815755,25.82,-1.06,-0.89,1.47,80,218,2.024871587753296,1.3901591300964355
45,-0.009189742617309093,-2.469771385192871,-0.010327725671231747,36.7146875,3.1815583,23.19,-1.06,-0.89,1.47,80,218,2.0246214866638184,1.3911099433898926
46,-0.0613645501434803,-2.4700114727020264,0.009159675799310207,36.7146729,3.1815435,20.94,-1.06,-0.88,1.47,79,218,2.022895336151123,1.3878816366195679
47,-0.04090707749128342,-2.469663619995117,-0.023966241627931595,36.7146559,3.1815265,18.32,-1.06,-0.89,1.46,79,218,2.023308038711548,1.3909952640533447
48,-0.03673972934484482,-2.469202756881714,0.033080440014600754,36.7146412,3.1815117,16.07,-1.05,-0.88,1.47,78,218,2.015700578689575,1.379014253616333
49,-0.038201626390218735,-2.4695310592651367,-0.022930243983864784,36.7146267,3.181497,13.82,-1.05,-0.89,1.47,78,218,2.02042555809021,1.3829399347305298
50,-0.08655843138694763,-3.022732973098755,-0.10391515493392944,36.7146066,3.1814824,11.28,-1.77,-0.28,1.19,78,186,2.1559221744537354,1.792814016342163
51,-0.25952956080436707,2.675126075744629,-0.024512657895684242,36.7145722,3.1814932,10.42,-3.35,1.56,0.0,77,153,3.705674171447754,3.7056710720062256
52,-0.16387410461902618,2.6793899536132812,-0.027870628982782364,36.7145109,3.1815306,10.53,-4.06,2.04,0.01,77,153,4.549230098724365,4.549205780029297
53,-0.031027749180793762,2.9188623428344727,0.1979171186685562,36.7144573,3.1815591,10.47,-3.63,0.81,0.05,77,167,3.7217512130737305,3.7213008403778076
54,-0.33587130904197693,-2.278078556060791,0.12808845937252045,36.7144138,3.1815441,10.45,-2.92,-2.96,0.02,76,229,4.166919231414795,4.16685676574707
55,-0.4690208435058594,-2.1406235694885254,0.026974044740200043,36.7143605,3.1814475,10.45,-4.11,-6.55,0.01,76,237,7.739504337310791,7.739494800567627
56,-0.4620201587677002,-2.1482155323028564,-0.02341155894100666,36.7142987,3.1813258,10.46,-4.92,-7.71,0.0,75,236,9.152420997619629,9.15241813659668
57,-0.3322828412055969,-2.1520776748657227,0.02899646945297718,36.7142209,3.1811751,10.49,-4.7,-7.25,0.0,75,236,8.64843463897705,8.648431777954102
58,-0.22361983358860016,-2.147735595703125,-0.011927380226552486,36.7141623,3.181062,10.48,-3.87,-6.08,0.03,75,236,7.212584495544434,7.212494850158691
59,-0.2616988718509674,-2.1207001209259033,0.03865097090601921,36.7141061,3.1809484,10.46,-3.39,-5.66,0.01,74,238,6.600008964538574,6.599979400634766
60,-0.2868107855319977,-2.1091973781585693,-0.020907564088702202,36.7140613,3.1808537,10.46,-3.29,-5.65,0.01,74,239,6.547797203063965,6.547780513763428
61,-0.21574489772319794,-2.108736038208008,0.030083103105425835,36.714017,3.1807588,10.46,-3.16,-5.46,0.0,73,239,6.313114643096924,6.313113212585449
62,0.10966037213802338,-2.109180450439453,-0.013812429271638393,36.7139755,3.1806703,10.44,-1.78,-3.06,0.04,73,239,3.5498909950256348,3.5496163368225098
63,0.1411525160074234,-2.108421802520752,0.024415692314505577,36.7139624,3.1806421,10.44,-0.28,-0.48,-0.01,73,239,0.5630125999450684,0.5627022981643677
64,-0.024339117109775543,-2.110464334487915,0.07037810236215591,36.7139628,3.1806424,10.42,0.18,0.09,0.04,72,239,0.20991693437099457,0.20560090243816376
