timestamp,pitch,yaw,roll,lat,lon,alt,velocity_x,velocity_y,velocity_z,battery,heading,airspeed,groundspeed
0,0.030026977881789207,0.04258183762431145,0.00837826356291771,36.7156066,3.18463,20.38,-0.02,0.02,0.03,96,2,0.05248834565281868,0.037519294768571854
1,-0.0782473236322403,0.035837460309267044,0.09587740153074265,36.7156075,3.1846323,20.34,0.24,0.54,0.0,95,2,0.6026835441589355,0.6026684641838074
2,-0.23003268241882324,1.5980799198150635,-0.1319730281829834,36.7156201,3.1846617,20.31,1.44,2.71,-0.02,95,91,3.073482036590576,3.0733578205108643
3,-0.15935596823692322,0.951002299785614,0.013072485104203224,36.7156444,3.1847182,20.35,2.03,3.82,-0.03,95,54,4.327328681945801,4.32717227935791
4,-0.09898743778467178,1.0423380136489868,-0.005954802501946688,36.7156727,3.1847826,20.37,1.99,3.65,-0.02,94,59,4.16801643371582,4.167959690093994
5,0.336245059967041,1.3276677131652832,0.07859843224287033,36.7156917,3.184827,20.37,-0.15,0.04,0.01,94,76,0.16530974209308624,0.1648130714893341
6,-0.08256155252456665,2.8980250358581543,0.23891234397888184,36.7156749,3.1847982,20.4,-2.05,-2.92,-0.03,93,166,3.572059392929077,3.5718815326690674
7,-0.16000764071941376,-1.9215617179870605,-0.013526161201298237,36.7156402,3.1847348,20.4,-2.26,-3.29,0.01,93,249,3.995600938796997,3.995577335357666
8,0.012546074576675892,-1.7890428304672241,0.16719000041484833,36.7156176,3.1846801,20.39,-0.68,-3.05,0.01,93,257,3.126753807067871,3.1267316341400146
9,-0.37823614478111267,-0.6891961693763733,0.12914349138736725,36.7156323,3.1846316,20.38,3.0,-2.88,0.0,92,320,4.165676593780518,4.165676116943359
10,-0.4639260172843933,-0.6096266508102417,0.014034559950232506,36.7156946,3.1845733,20.38,6.06,-4.23,0.0,92,325,7.396161079406738,7.396157264709473
11,-0.539521336555481,-0.61822909116745,0.005872744135558605,36.7158061,3.1844766,20.39,7.76,-5.4,0.0,91,324,9.466228485107422,9.466226577758789
12,-0.4278770089149475,-0.6201927661895752,0.026031048968434334,36.7159126,3.1843832,20.41,7.8,-5.53,-0.01,91,324,9.569241523742676,9.569223403930664
13,-0.16540516912937164,-0.6243651509284973,-0.007651231251657009,36.7160254,3.1842831,20.44,6.03,-4.31,0.01,91,324,7.42401647567749,7.423997402191162
14,0.10902149230241776,-0.866912305355072,-0.18347877264022827,36.7160862,3.1842236,20.47,2.58,-2.98,-0.11,90,310,3.94697642326355,3.9453272819519043
15,-0.37507379055023193,-2.11893892288208,-0.06432178616523743,36.7160872,3.1841613,21.24,-2.29,-3.97,-0.78,90,238,4.657447814941406,4.591250419616699
16,-0.44549882411956787,-2.173161029815674,-0.0068930210545659065,36.7160387,3.1840746,22.9,-4.56,-6.46,-1.35,89,235,8.027915000915527,7.912219047546387
17,-0.5030781626701355,-2.163766860961914,0.012128475122153759,36.7159568,3.1839284,25.62,-5.52,-7.99,-1.61,89,236,9.848505020141602,9.715115547180176
18,-0.43076762557029724,-2.1648378372192383,0.03133378177881241,36.7158814,3.183791,28.09,-5.52,-8.17,-1.58,88,235,9.989693641662598,9.863248825073242
19,-0.4363952875137329,-2.1624457836151123,-0.02697017602622509,36.7158064,3.1836514,30.54,-5.53,-8.24,-1.58,88,236,10.051342010498047,9.925110816955566
20,-0.47258710861206055,-2.16740083694458,0.039321236312389374,36.7157189,3.1834892,33.42,-5.55,-8.26,-1.61,88,235,10.092788696289062,9.962578773498535
21,-0.41644930839538574,-2.16333270072937,0.015341606922447681,36.715644,3.1833495,35.91,-5.49,-8.25,-1.62,87,236,10.04202651977539,9.910200119018555
22,-0.4954417943954468,-2.16347074508667,-0.005742551758885384,36.7155571,3.1831867,38.83,-5.51,-8.26,-1.61,87,236,10.06798267364502,9.937630653381348
23,-0.4986404478549957,-2.163088321685791,0.009509515017271042,36.7154949,3.1830703,40.9,-5.51,-8.27,-1.62,86,236,10.080864906311035,9.94941520690918
24,-0.4273400902748108,-2.166837692260742,-0.006013734731823206,36.7154075,3.1829074,43.81,-5.53,-8.29,-1.64,86,235,10.1044282913208,9.96993350982666
25,-0.4925134479999542,-2.163889169692993,0.01735195890069008,36.7153203,3.1827442,46.74,-5.49,-8.28,-1.63,85,236,10.076666831970215,9.942803382873535
26,-0.44189417362213135,-2.1635854244232178,0.02832263708114624,36.7152457,3.1826046,49.24,-5.51,-8.28,-1.63,85,236,10.086881637573242,9.952667236328125
27,-0.4792554974555969,-2.1640191078186035,-0.019078511744737625,36.7151585,3.1824413,52.16,-5.52,-8.3,-1.63,84,236,10.11325454711914,9.97950553894043
28,-0.4821954071521759,-2.166170597076416,0.03500878065824509,36.7150837,3.1823015,54.67,-5.52,-8.28,-1.64,84,235,10.090598106384277,9.956424713134766
29,-0.29992586374282837,-2.1669750213623047,0.015897588804364204,36.7150103,3.182165,57.12,-5.14,-7.64,-1.53,84,235,9.343179702758789,9.216900825500488
30,-0.09832403063774109,-2.1656858921051025,0.013927549123764038,36.7149423,3.1820383,59.37,-3.33,-5.02,-0.87,83,235,6.0906662940979,6.027870178222656
31,-0.10749277472496033,-2.1232566833496094,0.01568254828453064,36.7149059,3.1819671,60.22,-2.24,-3.72,-0.27,83,238,4.359854698181152,4.35118293762207
32,-0.1554078608751297,-2.086071491241455,0.03110313229262829,36.7148731,3.1818949,60.37,-1.98,-3.66,0.0,82,240,4.167191982269287,4.167189121246338
33,-0.03974885120987892,-2.087282419204712,-0.020787721499800682,36.7148464,3.1818344,60.36,-1.86,-3.41,-0.02,82,240,3.888523578643799,3.888451337814331
34,0.024128584191203117,-2.1890223026275635,-0.03145761415362358,36.7148256,3.1817895,59.98,-1.25,-1.85,0.69,82,234,2.3431479930877686,2.238506317138672
35,-0.042877502739429474,-2.4869472980499268,-0.02256297878921032,36.7148073,3.1817659,57.68,-1.03,-0.81,1.48,81,217,1.9817408323287964,1.3165282011032104
36,-0.017043808475136757,-2.471883773803711,0.024300159886479378,36.7147933,3.1817529,55.43,-1.03,-0.8,1.42,81,218,1.9381963014602661,1.3104791641235352
37,-0.060310717672109604,-2.4708518981933594,0.017774956300854683,36.7147767,3.1817368,52.82,-1.06,-0.86,1.44,81,218,1.9945708513259888,1.3728312253952026
38,-0.016395265236496925,-2.470062494277954,-0.009682995267212391,36.7147622,3.1817223,50.57,-1.08,-0.88,1.44,80,218,2.016991138458252,1.4030207395553589
39,-0.061249617487192154,-2.4699881076812744,0.01416605431586504,36.7147476,3.1817077,48.33,-1.06,-0.87,1.45,80,218,2.008159875869751,1.3823496103286743
40,-0.045192088931798935,-2.4695541858673096,-0.02312643453478813,36.7147306,3.1816906,45.72,-1.07,-0.88,1.46,79,218,2.022243022918701,1.391676664352417
41,-0.03128300979733467,-2.4699978828430176,0.028461668640375137,36.7147161,3.1816759,43.47,-1.06,-0.88,1.47,79,218,2.0182135105133057,1.3825502395629883
42,-0.0627465695142746,-2.4703054428100586,0.0007497423212043941,36.7146991,3.1816588,40.85,-1.05,-0.89,1.47,79,218,2.0248334407806396,1.3862773180007935
43,-0.011175564490258694,-2.4693260192871094,0.010229953564703465,36.7146844,3.1816441,38.6,-1.07,-0.87,1.47,78,218,2.0289595127105713,1.3887783288955688
44,-0.062167152762413025,-2.469801425933838,-0.0002772970183286816,36.7146698,3.1816293,36.35,-1.06,-0.88,1.47,78,218,2.02587890625,1.3849629163742065
45,-0.030264265835285187,-2.4699411392211914,-0.021071020513772964,36.7146528,3.1816122,33.73,-1.06,-0.88,1.47,78,218,2.0225648880004883,1.3850642442703247
46,-0.041623555123806,-2.4703474044799805,0.026882125064730644,36.7146383,3.1815975,31.48,-1.06,-0.88,1.48,77,218,2.0260536670684814,1.3816105127334595
47,-0.06255003064870834,-2.469797134399414,-0.009136322885751724,36.7146213,3.1815803,28.85,-1.06,-0.88,1.47,77,218,2.027224540710449,1.3872344493865967
48,-0.011236068792641163,-2.469653367996216,0.013373601250350475,36.7146067,3.1815656,26.6,-1.06,-0.86,1.47,77,218,2.013763666152954,1.371513843536377
49,-0.05475889891386032,-2.4696640968322754,-0.015437319874763489,36.714592,3.1815509,24.35,-1.06,-0.88,1.47,76,218,2.0226829051971436,1.381857991218567
50,-0.06509391963481903,-2.760662317276001,-0.1058427020907402,36.7145737,3.1815347,21.75,-1.47,-0.6,1.39,76,201,2.121669054031372,1.597673773765564
51,-0.25545069575309753,2.708359479904175,-0.036435507237911224,36.7145447,3.1815377,20.41,-2.93,1.17,0.21,75,155,3.167646884918213,3.1606171131134033
52,-0.19619007408618927,2.6800522804260254,-0.02978702448308468,36.714487,3.1815718,20.46,-4.06,2.02,-0.04,75,153,4.547062873840332,4.5468573570251465
53,-0.048387784510850906,2.7798752784729004,0.13213546574115753,36.7144325,3.181604,20.44,-3.84,1.41,0.06,75,159,4.095685005187988,4.095213413238525
54,-0.3530787527561188,-2.3638405799865723,0.19559171795845032,36.7143793,3.1815984,20.4,-2.92,-2.56,0.02,74,224,3.893317461013794,3.8932440280914307
55,-0.44606149196624756,-2.1463987827301025,0.01331600733101368,36.7143359,3.1815254,20.4,-3.75,-5.98,0.01,74,237,7.06661319732666,7.066585540771484
56,-0.4890854060649872,-2.149688959121704,-0.03221563249826431,36.7142771,3.1814095,20.4,-4.75,-7.54,0.0,73,236,8.924152374267578,8.924152374267578
57,-0.35774683952331543,-2.1499288082122803,0.015538875944912434,36.7141996,3.1812582,20.42,-4.84,-7.54,-0.01,73,236,8.966045379638672,8.96604061126709
58,-0.2592442035675049,-2.1505861282348633,-0.015718882903456688,36.7141383,3.1811401,20.43,-4.11,-6.39,0.02,73,236,7.603156566619873,7.60311222076416
59,-0.25260165333747864,-2.1215016841888428,0.03013208881020546,36.7140804,3.1810241,20.4,-3.41,-5.69,0.02,72,238,6.644646167755127,6.6446146965026855
60,-0.2939700484275818,-2.102560520172119,-0.01512545719742775,36.7140356,3.1809285,20.41,-3.24,-5.64,0.0,72,239,6.51500940322876,6.515002727508545
61,-0.24115443229675293,-2.1003122329711914,0.03032064437866211,36.7139919,3.180833,20.4,-3.2,-5.6,0.0,71,239,6.4577789306640625,6.457777500152588
62,0.01776593178510666,-2.1010172367095947,-0.005590364336967468,36.7139472,3.180736,20.4,-2.19,-3.82,0.03,71,239,4.411496162414551,4.411365509033203
63,0.17009730637073517,-2.101072072982788,0.011139425449073315,36.7139289,3.1806959,20.38,-0.58,-1.01,-0.02,71,239,1.1673823595046997,1.1672043800354004
64,-0.010159451514482498,-2.101081371307373,0.02912314049899578,36.713927,3.1806918,20.39,0.11,0.15,0.02,70,239,0.19175870716571808,0.18992620706558228
