timestamp,pitch,yaw,roll,lat,lon,alt,velocity_x,velocity_y,velocity_z,battery,heading,airspeed,groundspeed
0,-0.009354306384921074,0.008957991376519203,0.028431439772248268,36.7156065,3.1846299,27.84,-0.01,0.03,0.11,96,0,0.12169591337442398,0.03626282140612602
1,-0.06506074965000153,0.005826903507113457,0.05946813151240349,36.7156079,3.1846323,27.71,0.36,0.51,0.0,95,0,0.6309416890144348,0.6309016942977905
2,-0.1870601326227188,1.3196969032287598,-0.10680797696113586,36.7156252,3.1846604,27.69,1.96,2.53,-0.06,95,75,3.2076315879821777,3.2070696353912354
3,-0.18893121182918549,0.9036996364593506,0.01803707703948021,36.7156577,3.1847123,27.75,2.67,3.43,-0.07,95,51,4.3543853759765625,4.35378885269165
4,-0.014196041040122509,0.8917892575263977,-0.019539741799235344,36.7156942,3.1847696,27.8,2.49,3.14,-0.05,94,51,4.014418125152588,4.014097213745117
5,0.37267830967903137,0.537360668182373,-0.1218322366476059,36.7157166,3.1848021,27.82,-0.26,-0.56,0.0,94,30,0.6246362924575806,0.6246362328529358
6,-0.0970296636223793,-1.0219216346740723,-0.20507720112800598,36.7156977,3.1847669,27.86,-2.15,-3.09,-0.03,93,301,3.7706899642944336,3.770477771759033
7,-0.09403147548437119,-2.4084348678588867,0.017900589853525162,36.7156623,3.1847022,27.86,-2.17,-3.28,0.01,93,222,3.944289207458496,3.9442708492279053
8,-0.017739323899149895,-1.722212314605713,0.24264779686927795,36.7156428,3.1846485,27.85,-0.34,-2.94,0.01,93,261,2.9601492881774902,2.960099220275879
9,-0.3834923207759857,-0.6609097719192505,0.06353248655796051,36.7156635,3.1846007,27.84,3.47,-2.98,0.0,92,322,4.580548286437988,4.580548286437988
10,-0.5231466889381409,-0.6134423613548279,0.03215373307466507,36.7157316,3.1845394,27.84,6.35,-4.43,0.0,92,324,7.748244762420654,7.748244762420654
11,-0.48893454670906067,-0.6167724132537842,-0.03157979995012283,36.7158461,3.1844403,27.86,7.81,-5.44,0.0,91,324,9.529214859008789,9.529214859008789
12,-0.3949704170227051,-0.6193040013313293,0.029473770409822464,36.7159699,3.1843319,27.89,7.63,-5.39,-0.01,91,324,9.352250099182129,9.352234840393066
13,-0.07269476354122162,-0.6224948167800903,-0.017803912982344627,36.7160631,3.1842495,27.92,5.75,-4.09,0.04,91,324,7.066418170928955,7.066272735595703
14,0.05872764810919762,-0.9462412595748901,-0.19735659658908844,36.7161187,3.1841928,27.96,2.07,-2.88,-0.14,90,305,3.558563232421875,3.555593967437744
15,-0.4002615511417389,-2.1255784034729004,-0.1128220185637474,36.7161125,3.184129,28.85,-2.65,-4.21,-0.84,90,238,5.056817054748535,4.98513650894165
16,-0.4741292893886566,-2.16499400138855,0.038179945200681686,36.7160605,3.1840374,30.59,-4.7,-6.7,-1.39,89,235,8.309273719787598,8.191393852233887
17,-0.44744250178337097,-2.1642911434173584,-0.03126657009124756,36.7159771,3.1838886,33.35,-5.52,-8.01,-1.6,89,236,9.866397857666016,9.735611915588379
18,-0.49418529868125916,-2.165602445602417,0.01561125461012125,36.7159018,3.1837511,35.81,-5.55,-8.18,-1.57,88,235,10.015199661254883,9.89059829711914
19,-0.4434746503829956,-2.1645607948303223,0.03222620487213135,36.7158263,3.1836117,38.27,-5.55,-8.23,-1.58,88,235,10.06345272064209,9.937211036682129
20,-0.47268590331077576,-2.165647506713867,-0.02526305988430977,36.7157388,3.1834493,41.16,-5.5,-8.22,-1.58,87,235,10.022846221923828,9.897248268127441
21,-0.4993324875831604,-2.1658408641815186,0.024408863857388496,36.7156644,3.1833106,43.63,-5.55,-8.29,-1.6,87,235,10.109905242919922,9.981698036193848
22,-0.4299338757991791,-2.16621732711792,-0.012393088079988956,36.7155766,3.1831473,46.55,-5.53,-8.27,-1.61,87,235,10.08606243133545,9.95579719543457
23,-0.43509989976882935,-2.1657893657684326,-0.023230327293276787,36.7155142,3.1830309,48.63,-5.5,-8.26,-1.61,86,235,10.064617156982422,9.934736251831055
24,-0.4701721668243408,-2.1669435501098633,0.03943435847759247,36.7154269,3.1828682,51.54,-5.52,-8.29,-1.62,86,235,10.093640327453613,9.962503433227539
25,-0.4471491277217865,-2.165407419204712,-0.02434840053319931,36.7153399,3.1827056,54.45,-5.52,-8.29,-1.63,85,235,10.097613334655762,9.96486759185791
26,-0.4917515814304352,-2.1651246547698975,-0.006076119374483824,36.7152648,3.1825655,56.96,-5.53,-8.28,-1.62,85,235,10.100927352905273,9.969306945800781
27,-0.4229951500892639,-2.166038990020752,0.015172061510384083,36.7151773,3.1824025,59.87,-5.51,-8.27,-1.63,84,235,10.078892707824707,9.945722579956055
28,-0.4589879512786865,-2.1665735244750977,-0.024269098415970802,36.7151026,3.1822631,62.37,-5.53,-8.3,-1.63,84,235,10.11683177947998,9.983695030212402
29,-0.3324275016784668,-2.169316530227661,0.01702876202762127,36.7150295,3.1821274,64.81,-5.04,-7.48,-1.49,83,235,9.146977424621582,9.023999214172363
30,-0.04627712815999985,-2.1649179458618164,-0.00987494271248579,36.7149636,3.1820051,66.96,-3.18,-4.8,-0.79,83,235,5.820599555969238,5.766138553619385
31,-0.15871022641658783,-2.1190271377563477,0.041697677224874496,36.7149287,3.1819361,67.71,-2.2,-3.71,-0.23,83,238,4.330560207366943,4.324289798736572
32,-0.16665717959403992,-2.0859673023223877,-0.023065589368343353,36.7148962,3.1818642,67.82,-2.0,-3.69,0.0,82,240,4.200729846954346,4.200721740722656
33,-0.01987023465335369,-2.0874109268188477,0.02865152433514595,36.7148696,3.181804,67.82,-1.79,-3.29,-0.01,82,240,3.750575542449951,3.7505545616149902
34,0.031146084889769554,-2.221809148788452,-0.07386435568332672,36.7148495,3.1817618,67.33,-1.23,-1.71,0.82,82,232,2.265514612197876,2.1104869842529297
35,-0.006304675247520208,-2.4856162071228027,-0.005211743991822004,36.7148316,3.1817398,64.92,-1.03,-0.8,1.46,81,217,1.9688055515289307,1.3101078271865845
36,-0.06124643236398697,-2.472899913787842,0.004403349477797747,36.7148175,3.1817266,62.66,-1.03,-0.82,1.41,81,218,1.9355682134628296,1.3201682567596436
37,-0.03131958842277527,-2.470613956451416,-0.023791523650288582,36.7148008,3.1817104,60.05,-1.06,-0.87,1.43,80,218,1.9859017133712769,1.375793695449829
38,-0.044570960104465485,-2.470036268234253,0.03076944872736931,36.7147864,3.181696,57.82,-1.06,-0.88,1.44,80,218,2.00146222114563,1.3838611841201782
39,-0.057273704558610916,-2.4694442749023438,-0.015373441390693188,36.7147694,3.1816789,55.19,-1.06,-0.88,1.44,80,218,2.0049524307250977,1.3875614404678345
40,-0.012638991698622704,-2.469806432723999,0.014608039520680904,36.7147549,3.1816642,52.95,-1.07,-0.88,1.45,79,218,2.011692523956299,1.389447569847107
41,-0.05713021010160446,-2.469818592071533,-0.014068401418626308,36.7147403,3.1816496,50.71,-1.07,-0.89,1.46,79,218,2.0249664783477783,1.3956247568130493
42,-0.018499743193387985,-2.4704673290252686,-0.0176938995718956,36.7147232,3.1816324,48.09,-1.06,-0.88,1.46,79,218,2.020029067993164,1.3865525722503662
43,-0.060922641307115555,-2.469865083694458,0.016257742419838905,36.7147086,3.1816177,45.84,-1.06,-0.88,1.46,78,218,2.019252061843872,1.3861969709396362
44,-0.05145420506596565,-2.46979022026062,-0.02002492919564247,36.7146917,3.1816006,43.22,-1.06,-0.89,1.47,78,218,2.03145432472229,1.3962420225143433
45,-0.026291294023394585,-2.4697747230529785,0.03214879706501961,36.7146771,3.1815858,40.97,-1.06,-0.88,1.47,78,218,2.023677349090576,1.3853172063827515
46,-0.0424981527030468,-2.4700889587402344,-0.020073523744940758,36.7146624,3.1815711,38.72,-1.07,-0.88,1.47,77,218,2.0212795734405518,1.3869653940200806
47,-0.01115595642477274,-2.4698822498321533,-0.003995401319116354,36.7146455,3.181554,36.1,-1.07,-0.87,1.47,77,218,2.027841567993164,1.3872593641281128
48,-0.060769032686948776,-2.4702248573303223,0.006827684119343758,36.7146309,3.1815393,33.85,-1.06,-0.88,1.47,76,218,2.023078441619873,1.3819459676742554
49,-0.003959122579544783,-2.4696879386901855,0.006988764740526676,36.7146163,3.1815245,31.59,-1.05,-0.87,1.46,76,218,2.0127148628234863,1.3756717443466187
50,-0.09458176791667938,-2.8519277572631836,-0.066362164914608,36.7145975,3.1815088,29.0,-1.57,-0.5,1.33,76,196,2.122649669647217,1.6515661478042603
51,-0.23866529762744904,2.6873581409454346,-0.07608673721551895,36.7145665,3.1815146,27.85,-3.12,1.34,0.11,75,153,3.405261754989624,3.40315318107605
52,-0.14247483015060425,2.679926633834839,0.00820195209234953,36.7145071,3.1815502,27.93,-4.05,2.03,-0.02,75,153,4.536705017089844,4.536651611328125
53,-0.07173401117324829,2.8203234672546387,0.11510996520519257,36.7144528,3.1815813,27.89,-3.76,1.21,0.06,75,161,3.9591422080993652,3.9586398601531982
54,-0.2732468545436859,-2.421394109725952,0.22718575596809387,36.7144077,3.1815762,27.86,-2.93,-2.28,0.02,74,221,3.7214303016662598,3.7213218212127686
55,-0.5092716813087463,-2.141430139541626,0.017528073862195015,36.7143564,3.1814901,27.86,-3.91,-6.21,0.02,74,237,7.342811107635498,7.342782974243164
56,-0.46126222610473633,-2.1463260650634766,0.020095650106668472,36.7142964,3.1813715,27.87,-4.82,-7.6,0.0,73,237,9.005110740661621,9.005109786987305
57,-0.39527252316474915,-2.1519784927368164,-0.005033235065639019,36.7142187,3.1812207,27.89,-4.83,-7.45,0.0,73,236,8.886846542358398,8.88684368133545
58,-0.22992944717407227,-2.1482479572296143,0.03751017898321152,36.7141583,3.1811042,27.9,-4.02,-6.28,0.03,73,236,7.4575324058532715,7.457466125488281
59,-0.2990795373916626,-2.119913101196289,0.017044635489583015,36.7141011,3.180989,27.87,-3.37,-5.66,0.02,72,238,6.595144271850586,6.595097064971924
60,-0.2573995292186737,-2.1007378101348877,0.030280446633696556,36.7140569,3.1808943,27.87,-3.22,-5.66,0.01,72,239,6.516528129577637,6.516519069671631
61,-0.24324871599674225,-2.0997889041900635,-0.024574335664510727,36.7140133,3.1807988,27.87,-3.18,-5.59,0.0,71,239,6.440150260925293,6.440147399902344
62,0.1137385442852974,-2.1009469032287598,-0.004605463240295649,36.7139698,3.1807042,27.86,-2.03,-3.54,0.04,71,239,4.092013835906982,4.0917863845825195
63,0.107358418405056,-2.1007206439971924,0.001654032152146101,36.7139537,3.180669,27.84,-0.44,-0.78,-0.01,71,239,0.9039966464042664,0.9037836790084839
64,0.004216099623590708,-2.1005702018737793,-0.008978337049484253,36.7139529,3.1806671,27.84,0.11,0.15,0.03,70,239,0.19559252262115479,0.19238442182540894
