timestamp,pitch,yaw,roll,lat,lon,alt,velocity_x,velocity_y,velocity_z,battery,heading,airspeed,groundspeed
0,0.008449428714811802,-0.01860806532204151,-0.02556220069527626,36.7156067,3.1846299,17.01,-0.03,0.02,-0.04,96,358,0.05804675444960594,0.04173855111002922
1,-0.07173705101013184,-0.014330699108541012,0.13661107420921326,36.715608,3.1846322,17.07,0.38,0.55,-0.01,95,359,0.6748238801956177,0.6746161580085754
2,-0.23399953544139862,1.3516135215759277,-0.08087655156850815,36.7156264,3.1846629,17.03,2.06,2.67,-0.02,95,77,3.3806557655334473,3.380582332611084
3,-0.15699703991413116,0.899541437625885,-0.030638711526989937,36.7156597,3.1847161,17.06,2.69,3.42,-0.02,95,51,4.357452392578125,4.357388019561768
4,0.11106926947832108,0.9025957584381104,0.02467351406812668,36.7157007,3.1847803,17.07,2.07,2.61,0.0,94,51,3.334411144256592,3.334409713745117
5,0.27355751395225525,0.3768588602542877,-0.19671794772148132,36.7157125,3.1847959,17.05,-0.69,-1.14,0.0,94,21,1.3431541919708252,1.3431392908096313
6,-0.07023255527019501,-1.2292026281356812,-0.12269996106624603,36.7156904,3.1847551,17.09,-2.22,-3.2,-0.02,93,289,3.9017553329467773,3.901693105697632
7,-0.08569882065057755,-2.3123598098754883,0.08245331794023514,36.7156551,3.1846904,17.09,-2.09,-3.28,0.01,93,227,3.8966400623321533,3.8965935707092285
8,-0.03246651217341423,-1.5557564496994019,0.2164837121963501,36.7156393,3.1846371,17.06,0.16,-2.88,0.01,93,270,2.8893883228302,2.8893580436706543
9,-0.40211063623428345,-0.6577895283699036,0.08093811571598053,36.715677,3.1845795,17.06,4.52,-3.31,0.0,92,322,5.608452796936035,5.608452796936035
10,-0.5190893411636353,-0.6289853453636169,-0.017443489283323288,36.7157562,3.1845103,17.07,6.95,-4.82,0.0,92,323,8.463708877563477,8.463706970214844
11,-0.5150564312934875,-0.6193687319755554,0.011246779933571815,36.7158581,3.1844218,17.08,7.85,-5.51,0.0,91,324,9.599238395690918,9.599238395690918
12,-0.34048107266426086,-0.6229413747787476,-0.021455422043800354,36.7159811,3.184313,17.11,7.41,-5.26,-0.02,91,324,9.096453666687012,9.096428871154785
13,-0.07264044135808945,-0.6274773478507996,-0.023380547761917114,36.7160693,3.1842347,17.13,5.25,-3.79,0.04,91,324,6.481461048126221,6.481287479400635
14,-0.06902395933866501,-1.3675603866577148,-0.31582143902778625,36.7161183,3.1841725,17.31,0.56,-2.92,-0.32,90,281,2.9973366260528564,2.979930877685547
15,-0.4059765040874481,-2.1325032711029053,-0.03176384046673775,36.7160993,3.1841121,18.31,-3.11,-4.59,-0.95,90,237,5.635948657989502,5.554349422454834
16,-0.4499792754650116,-2.1585452556610107,-0.014053300954401493,36.7160432,3.1840136,20.19,-4.92,-7.03,-1.45,89,236,8.707526206970215,8.584763526916504
17,-0.4915711581707001,-2.165336847305298,0.012674257159233093,36.7159581,3.183861,22.99,-5.54,-8.06,-1.59,89,235,9.915572166442871,9.78569221496582
18,-0.4398026466369629,-2.164684295654297,0.03657468035817146,36.7158828,3.1837228,25.45,-5.53,-8.2,-1.58,88,235,10.022163391113281,9.89615535736084
19,-0.46958622336387634,-2.163567543029785,-0.031038492918014526,36.7157954,3.1835601,28.33,-5.53,-8.23,-1.59,88,236,10.050777435302734,9.923913955688477
20,-0.4862743318080902,-2.168440818786621,0.026048028841614723,36.7157202,3.183421,30.81,-5.53,-8.26,-1.6,88,235,10.07269287109375,9.9444580078125
21,-0.4444216191768646,-2.164364814758301,0.04330587387084961,36.7156455,3.1832815,33.3,-5.5,-8.28,-1.6,87,236,10.078653335571289,9.9496488571167
22,-0.4760923385620117,-2.162646532058716,-0.026821063831448555,36.7155586,3.1831183,36.21,-5.51,-8.28,-1.61,87,236,10.0795259475708,9.949925422668457
23,-0.4826546013355255,-2.1644577980041504,0.02724439464509487,36.7154839,3.1829787,38.7,-5.51,-8.26,-1.62,86,235,10.06991195678711,9.937746047973633
24,-0.4324238896369934,-2.1662378311157227,-0.009366866201162338,36.7153965,3.1828161,41.62,-5.52,-8.3,-1.63,86,235,10.107992172241211,9.975229263305664
25,-0.4849819242954254,-2.1655948162078857,-0.018913252279162407,36.7153219,3.1826764,44.11,-5.53,-8.34,-1.63,85,235,10.142657279968262,10.009279251098633
26,-0.480998158454895,-2.164513349533081,0.02733576111495495,36.715247,3.1825359,46.62,-5.51,-8.29,-1.63,85,235,10.097763061523438,9.963872909545898
27,-0.4314328730106354,-2.164634943008423,-0.02055438421666622,36.7151598,3.1823726,49.55,-5.51,-8.27,-1.63,84,235,10.07381534576416,9.939717292785645
28,-0.4769398868083954,-2.165818214416504,-0.011201638728380203,36.7150851,3.1822333,52.05,-5.51,-8.26,-1.63,84,235,10.070884704589844,9.937973976135254
29,-0.18385876715183258,-2.167900562286377,0.014746380969882011,36.7150031,3.1820811,54.81,-4.57,-6.82,-1.36,83,235,8.327356338500977,8.215028762817383
30,-0.06617733091115952,-2.159306526184082,-0.01144283078610897,36.7149528,3.1819865,56.39,-2.91,-4.47,-0.66,83,236,5.385416030883789,5.343888282775879
31,-0.1118372455239296,-2.100381851196289,0.011532880365848541,36.7149154,3.1819102,57.02,-2.1,-3.68,-0.11,83,239,4.249018669128418,4.247453212738037
32,-0.1784561723470688,-2.0863969326019287,0.0008490434265695512,36.714888,3.1818488,57.04,-1.99,-3.69,-0.01,82,240,4.19982385635376,4.199805736541748
33,0.016398364678025246,-2.088593006134033,0.00771309994161129,36.7148621,3.1817902,57.03,-1.68,-3.05,0.05,82,240,3.4835402965545654,3.4831764698028564
34,0.0015365941217169166,-2.354135036468506,-0.022297067567706108,36.7148404,3.1817488,55.98,-1.17,-1.28,1.26,82,225,2.15116548538208,1.7423158884048462
35,-0.01234959252178669,-2.4741406440734863,-0.014534279704093933,36.7148257,3.1817333,53.72,-1.03,-0.79,1.44,81,218,1.9467053413391113,1.302789330482483
36,-0.025191914290189743,-2.46945858001709,0.028369523584842682,36.7148093,3.1817179,51.1,-1.04,-0.83,1.42,81,218,1.956796407699585,1.3375102281570435
37,-0.04389091953635216,-2.469801902770996,-0.024189874529838562,36.714795,3.1817037,48.86,-1.06,-0.88,1.43,81,218,1.9948924779891968,1.382938027381897
38,-0.037011198699474335,-2.469604015350342,0.0262854415923357,36.7147805,3.1816892,46.62,-1.07,-0.87,1.44,80,218,1.9976826906204224,1.3831042051315308
39,-0.0605410672724247,-2.4692578315734863,-0.006064055021852255,36.7147635,3.1816721,44.0,-1.07,-0.89,1.45,80,218,2.013187885284424,1.3947819471359253
40,-0.010754184797406197,-2.4691593647003174,0.00800397526472807,36.714749,3.1816574,41.76,-1.06,-0.88,1.46,79,218,2.0115151405334473,1.383649468421936
41,-0.05364500731229782,-2.469743013381958,0.027888717129826546,36.7147319,3.1816403,39.14,-1.06,-0.89,1.46,79,218,2.0217702388763428,1.3904609680175781
42,-0.01907382346689701,-2.4701125621795654,-0.018166478723287582,36.7147173,3.1816256,36.9,-1.07,-0.88,1.47,79,218,2.0310072898864746,1.3930866718292236
43,-0.06017078086733818,-2.469259738922119,0.00939591322094202,36.7147027,3.1816109,34.65,-1.06,-0.88,1.47,78,218,2.0232908725738525,1.3835033178329468
44,-0.04534926638007164,-2.469505548477173,-0.02248213067650795,36.7146857,3.1815937,32.03,-1.07,-0.89,1.47,78,218,2.029834270477295,1.3924529552459717
45,-0.030898915603756905,-2.4695076942443848,0.025508778169751167,36.7146712,3.181579,29.78,-1.06,-0.88,1.47,78,218,2.023409843444824,1.3824588060379028
46,-0.06061992421746254,-2.469548463821411,0.0016006105579435825,36.7146541,3.1815618,27.15,-1.06,-0.89,1.47,77,218,2.0276362895965576,1.3892462253570557
47,-0.012184533290565014,-2.469386100769043,0.005301186349242926,36.7146396,3.1815471,24.9,-1.06,-0.87,1.47,77,218,2.0205202102661133,1.3827648162841797
48,-0.06007424369454384,-2.4695420265197754,-0.00714496336877346,36.714625,3.1815324,22.65,-1.06,-0.88,1.47,77,218,2.0223841667175293,1.3862382173538208
49,-0.01825888641178608,-2.469316244125366,-0.021447425708174706,36.714608,3.1815152,20.03,-1.05,-0.88,1.47,76,218,2.0196797847747803,1.380541443824768
50,-0.1416333019733429,-3.03888201713562,-0.08466735482215881,36.7145901,3.1815033,17.87,-1.79,-0.26,1.17,76,185,2.1658549308776855,1.8166879415512085
51,-0.25063905119895935,2.676229953765869,-0.03340091183781624,36.7145475,3.1815195,17.06,-3.59,1.75,-0.05,75,153,4.002254962921143,4.001884937286377
52,-0.1637394279241562,2.67960786819458,0.021317889913916588,36.7144937,3.1815524,17.16,-4.06,2.03,0.02,75,153,4.542513847351074,4.542452335357666
53,-0.05679835006594658,3.059981346130371,0.21832798421382904,36.7144323,3.1815819,17.1,-3.46,0.26,0.04,75,168,3.6993517875671387,3.6989223957061768
54,-0.3558250665664673,-2.199758529663086,0.1205553337931633,36.7143904,3.1815547,17.08,-2.98,-3.67,0.01,74,233,4.733590602874756,4.733555316925049
55,-0.5047089457511902,-2.1441333293914795,-0.01800909824669361,36.7143431,3.1814661,17.08,-4.14,-6.6,0.01,74,237,7.797067165374756,7.797055721282959
56,-0.42521101236343384,-2.1490638256073,0.01692485250532627,36.71427,3.1813221,17.09,-4.91,-7.7,0.0,73,236,9.135171890258789,9.135171890258789
57,-0.33334970474243164,-2.152439594268799,-0.02759718894958496,36.7142036,3.1811936,17.11,-4.7,-7.25,0.0,73,236,8.646259307861328,8.646255493164062
58,-0.22430050373077393,-2.141934871673584,0.03787929564714432,36.7141369,3.1810642,17.1,-3.71,-5.9,0.03,73,237,6.979445934295654,6.979374408721924
59,-0.2745688259601593,-2.114755868911743,-0.012290429323911667,36.7140897,3.1809677,17.08,-3.35,-5.67,0.01,72,238,6.594293117523193,6.594274520874023
60,-0.30317333340644836,-2.100604772567749,0.03217945620417595,36.7140455,3.1808725,17.09,-3.21,-5.66,0.01,72,239,6.51823091506958,6.518222332000732
61,-0.15876877307891846,-2.0998358726501465,-0.025044366717338562,36.7139953,3.1807624,17.09,-2.99,-5.23,0.0,71,239,6.033094882965088,6.03309440612793
62,0.1417376697063446,-2.100508213043213,0.030993549153208733,36.7139619,3.1806901,17.06,-1.7,-2.96,0.03,71,239,3.426312208175659,3.4260995388031006
63,0.07157392799854279,-2.100193500518799,-0.0033945846371352673,36.7139492,3.1806621,17.07,-0.11,-0.22,-0.01,71,239,0.2499486654996872,0.24924299120903015
64,0.021506106480956078,-2.0993921756744385,0.0629337877035141,36.7139501,3.1806635,17.05,0.19,0.08,0.03,70,239,0.21434521675109863,0.21063338220119476
