timestamp,pitch,yaw,roll,lat,lon,alt,velocity_x,velocity_y,velocity_z,battery,heading,airspeed,groundspeed
0,0.026965543627738953,0.04250350594520569,-0.001712454599328339,36.7156066,3.1846299,21.92,-0.02,0.02,-0.05,96,2,0.06220902130007744,0.036495596170425415
1,-0.059326332062482834,0.03624358028173447,0.11325948685407639,36.7156073,3.1846325,21.88,0.17,0.59,-0.03,95,2,0.622804582118988,0.6218569278717041
2,-0.17896632850170135,1.8055282831192017,-0.09122499078512192,36.7156159,3.1846631,21.92,0.86,2.58,-0.03,95,103,2.7229559421539307,2.7227087020874023
3,-0.08439105749130249,1.0456390380859375,0.005060066469013691,36.7156295,3.1847124,21.92,1.03,3.09,-0.01,95,59,3.2605886459350586,3.260556221008301
4,0.20031578838825226,1.348650574684143,0.07844807207584381,36.7156405,3.1847556,21.91,0.26,1.41,0.0,94,77,1.442050576210022,1.4420312643051147
5,-0.1745699942111969,-3.0555999279022217,0.189548522233963,36.7156261,3.1847377,21.94,-1.98,-2.84,0.0,94,184,3.467186212539673,3.467177391052246
6,-0.1077716052532196,-1.9124481678009033,-0.02425764687359333,36.7155961,3.1846827,21.92,-2.33,-3.36,-0.07,93,250,4.09272575378418,4.091989040374756
7,-0.015369591303169727,-1.8164838552474976,0.20256873965263367,36.7155668,3.1846172,21.93,-0.83,-3.12,0.03,93,255,3.233992099761963,3.233792543411255
8,-0.36090728640556335,-0.6870050430297852,0.08845759183168411,36.7155797,3.184568,21.9,2.92,-2.89,0.0,93,320,4.116270065307617,4.116268634796143
9,-0.4971674978733063,-0.6062881350517273,0.03478201851248741,36.7156417,3.1845098,21.91,6.05,-4.19,0.0,92,325,7.367163181304932,7.367162227630615
10,-0.4798329770565033,-0.612461507320404,-0.008491875603795052,36.7157363,3.1844285,21.92,7.67,-5.29,-0.01,92,324,9.329048156738281,9.329042434692383
11,-0.4773528575897217,-0.6176223754882812,0.017937462776899338,36.7158605,3.1843204,21.94,7.86,-5.54,0.0,91,324,9.624039649963379,9.62403678894043
12,-0.15070590376853943,-0.6222648024559021,-0.025361433625221252,36.7159744,3.18422,21.97,6.17,-4.39,0.01,91,324,7.577153205871582,7.577141761779785
13,0.07044141739606857,-0.8335766792297363,-0.15517212450504303,36.7160373,3.1841595,21.99,2.72,-2.99,-0.1,91,312,4.044830322265625,4.04358434677124
14,-0.3297853469848633,-2.053964853286743,-0.17944462597370148,36.7160446,3.1841083,22.55,-1.65,-3.57,-0.65,90,242,3.9913992881774902,3.937917947769165
15,-0.45665243268013,-2.1737430095672607,0.04173698276281357,36.7159924,3.1840123,24.36,-4.49,-6.38,-1.35,90,235,7.925540924072266,7.809563636779785
16,-0.4557687044143677,-2.167681932449341,-0.0194082148373127,36.7159234,3.1838896,26.66,-5.43,-7.86,-1.6,89,235,9.697120666503906,9.56296157836914
17,-0.4860207736492157,-2.1655397415161133,0.034917060285806656,36.7158359,3.1837302,29.54,-5.5,-8.18,-1.57,89,235,9.99157428741455,9.8663969039917
18,-0.42857739329338074,-2.1626200675964355,0.009811057709157467,36.7157609,3.1835907,32.0,-5.54,-8.24,-1.58,88,236,10.064517974853516,9.93860912322998
19,-0.4479348361492157,-2.163907289505005,-0.034052226692438126,36.7156858,3.1834511,34.47,-5.54,-8.24,-1.59,88,236,10.06955337524414,9.941765785217285
20,-0.4606388211250305,-2.1668906211853027,0.03945919871330261,36.7155984,3.1832886,37.36,-5.5,-8.24,-1.61,87,235,10.049272537231445,9.918166160583496
21,-0.42391538619995117,-2.163079023361206,0.012347360141575336,36.715524,3.1831494,39.85,-5.51,-8.31,-1.63,87,236,10.109267234802246,9.976632118225098
22,-0.48881763219833374,-2.1641671657562256,0.006833180785179138,36.7154367,3.1829861,42.77,-5.52,-8.27,-1.62,87,236,10.079973220825195,9.94749927520752
23,-0.4417210817337036,-2.1643729209899902,0.03958628326654434,36.7153618,3.1828464,45.27,-5.51,-8.28,-1.63,86,236,10.081910133361816,9.947986602783203
24,-0.4291846454143524,-2.162353515625,-0.020053207874298096,36.7152873,3.1827065,47.77,-5.49,-8.29,-1.63,86,236,10.081372261047363,9.947286605834961
25,-0.48605242371559143,-2.1671087741851807,0.02958044968545437,36.7151999,3.1825435,50.69,-5.54,-8.28,-1.64,85,235,10.1073637008667,9.973383903503418
26,-0.43086808919906616,-2.1637496948242188,0.031248684972524643,36.7151251,3.1824037,53.21,-5.49,-8.28,-1.63,85,236,10.079608917236328,9.946581840515137
27,-0.49168655276298523,-2.1631009578704834,-0.016193559393286705,36.7150382,3.1822406,56.13,-5.52,-8.29,-1.62,84,236,10.098189353942871,9.966103553771973
28,-0.34161868691444397,-2.1658079624176025,0.030412351712584496,36.7149647,3.1821035,58.59,-5.18,-7.67,-1.53,84,235,9.3890962600708,9.262890815734863
29,-0.08834320306777954,-2.16682767868042,-0.015190293081104755,36.7148957,3.1819757,60.86,-3.39,-5.09,-0.89,83,235,6.181421756744385,6.116404056549072
30,-0.13954970240592957,-2.1335718631744385,0.044849395751953125,36.7148586,3.1819038,61.73,-2.29,-3.74,-0.29,83,237,4.4028425216674805,4.392847537994385
31,-0.14623285830020905,-2.1042959690093994,-0.0221562422811985,36.7148293,3.1818418,61.9,-2.07,-3.66,-0.02,83,239,4.210580348968506,4.210526466369629
32,-0.031785689294338226,-2.102997064590454,0.013439743779599667,36.7147968,3.1817708,61.89,-1.93,-3.42,-0.02,82,239,3.932793378829956,3.9326868057250977
33,0.02184544876217842,-2.189232349395752,-0.055094096809625626,36.7147751,3.1817255,61.56,-1.29,-1.89,0.63,82,234,2.3773791790008545,2.2913060188293457
34,0.01738756150007248,-2.4735403060913086,0.0019114621682092547,36.7147591,3.1817038,59.7,-1.07,-0.88,1.5,82,218,2.0490267276763916,1.3941317796707153
35,-0.05423923209309578,-2.47110915184021,0.024833185598254204,36.7147427,3.1816883,57.05,-1.03,-0.81,1.42,81,218,1.9405988454818726,1.318565845489502
36,-0.016559047624468803,-2.4694595336914062,-0.01596587337553501,36.7147285,3.1816746,54.81,-1.06,-0.86,1.43,81,218,1.9868502616882324,1.3707796335220337
37,-0.019919808954000473,-2.469548463821411,0.023234093561768532,36.7147117,3.1816577,52.2,-1.07,-0.88,1.44,81,218,2.0064961910247803,1.390532374382019
38,-0.050300028175115585,-2.4697353839874268,-0.01750173419713974,36.7146971,3.1816431,49.96,-1.07,-0.89,1.46,80,218,2.027153491973877,1.4031952619552612
39,-0.009571745991706848,-2.4691953659057617,-0.0035007093101739883,36.71468,3.1816259,47.34,-1.08,-0.88,1.46,80,218,2.0249226093292236,1.3959190845489502
40,-0.056923456490039825,-2.47005033493042,0.01560627855360508,36.7146654,3.1816112,45.09,-1.06,-0.89,1.46,79,218,2.0212080478668213,1.3878421783447266
41,-0.008490052074193954,-2.4697425365448,-0.005932958796620369,36.7146509,3.1815966,42.85,-1.07,-0.87,1.47,79,218,2.0235583782196045,1.3881864547729492
42,-0.02869192324578762,-2.469586133956909,0.02850923500955105,36.7146339,3.1815794,40.23,-1.06,-0.87,1.47,79,218,2.0221915245056152,1.3834255933761597
43,-0.03058757446706295,-2.469224691390991,-0.026607388630509377,36.7146193,3.1815647,37.97,-1.07,-0.88,1.47,78,218,2.0252490043640137,1.3914684057235718
44,-0.007936368696391582,-2.4692916870117188,-0.000844417663756758,36.7146023,3.1815475,35.35,-1.07,-0.87,1.47,78,218,2.024157762527466,1.3855572938919067
45,-0.06139909476041794,-2.469571352005005,-0.0023716480936855078,36.7145877,3.1815328,33.1,-1.06,-0.88,1.47,78,218,2.024834632873535,1.383972406387329
46,-0.010429640300571918,-2.4697377681732178,0.00800903607159853,36.7145731,3.1815181,30.86,-1.06,-0.87,1.47,77,218,2.023967981338501,1.382226824760437
47,-0.03824586793780327,-2.4695377349853516,0.024283768609166145,36.7145561,3.1815009,28.24,-1.06,-0.87,1.48,77,218,2.0282294750213623,1.380911946296692
48,-0.025515640154480934,-2.4697372913360596,-0.023020893335342407,36.7145415,3.1814862,25.98,-1.07,-0.88,1.48,77,218,2.0340583324432373,1.3934797048568726
49,-0.050676677376031876,-2.7252416610717773,-0.07408296316862106,36.7145234,3.1814697,23.36,-1.43,-0.63,1.41,76,203,2.1101205348968506,1.5663498640060425
50,-0.26665961742401123,2.714186906814575,-0.07189279794692993,36.7144952,3.1814718,21.96,-2.87,1.11,0.25,76,155,3.093783378601074,3.0829317569732666
51,-0.17163175344467163,2.672220230102539,0.01570815034210682,36.7144476,3.1815,21.97,-3.95,1.99,-0.07,75,153,4.429679870605469,4.429059028625488
52,-0.0848897323012352,2.766418218612671,0.1235722079873085,36.7143846,3.1815381,21.97,-3.81,1.44,0.06,75,158,4.08038854598999,4.0798821449279785
53,-0.2264379858970642,-2.5590012073516846,0.22500285506248474,36.7143383,3.1815392,21.93,-2.97,-1.8,0.02,75,213,3.482416868209839,3.482304334640503
54,-0.47119882702827454,-2.1509346961975098,0.03954838961362839,36.7142877,3.1814607,21.93,-3.78,-5.93,0.02,74,236,7.040352821350098,7.040319442749023
55,-0.4636296331882477,-2.154836893081665,-0.02591116726398468,36.7142287,3.1813455,21.94,-4.79,-7.52,0.0,74,236,8.923433303833008,8.923433303833008
56,-0.4114748239517212,-2.155203104019165,0.020986834540963173,36.7141507,3.1811951,21.95,-4.94,-7.55,0.0,73,236,9.028903007507324,9.028898239135742
57,-0.23507992923259735,-2.15458607673645,-0.006486235652118921,36.7140884,3.1810764,21.96,-4.16,-6.41,0.02,73,236,7.6547980308532715,7.654768466949463
58,-0.3011084794998169,-2.1304872035980225,0.0176406167447567,36.7140374,3.1809759,21.94,-3.46,-5.68,0.02,73,237,6.662875652313232,6.662824630737305
59,-0.25875961780548096,-2.102924108505249,-0.01478854101151228,36.713985,3.1808648,21.93,-3.22,-5.62,0.0,72,239,6.484083652496338,6.484079837799072
60,-0.2826623022556305,-2.099848747253418,0.013579895719885826,36.7139415,3.1807697,21.93,-3.2,-5.63,0.0,72,239,6.483802795410156,6.483800888061523
61,0.016576416790485382,-2.100429058074951,-0.007091130129992962,36.7139019,3.1806833,21.93,-2.46,-4.29,0.02,71,239,4.9499616622924805,4.9499125480651855
62,0.14395242929458618,-2.1009535789489746,0.03008887730538845,36.7138778,3.1806309,21.91,-0.58,-1.05,-0.01,71,239,1.2057397365570068,1.205575942993164
63,0.02029421366751194,-2.100821018218994,-0.025294382125139236,36.7138757,3.1806259,21.92,0.09,0.15,0.0,71,239,0.17880788445472717,0.17857186496257782
64,-0.03830559924244881,-1.8893110752105713,0.16685137152671814,36.7138813,3.1806251,21.88,0.99,-0.58,-0.02,70,251,1.1512824296951294,1.1509416103363037
