timestamp,pitch,yaw,roll,lat,lon,alt,velocity_x,velocity_y,velocity_z,battery,heading,airspeed,groundspeed
0,-0.02359028533101082,-0.0009460928849875927,-0.012505418621003628,36.7156066,3.18463,26.1,-0.01,0.02,0.04,96,359,0.04932677745819092,0.027381181716918945
1,-0.05330944061279297,-0.0007009831024333835,0.08765729516744614,36.7156082,3.1846318,26.08,0.43,0.44,-0.01,95,359,0.625219464302063,0.6249787211418152
2,-0.25761908292770386,1.0697956085205078,-0.061422623693943024,36.7156241,3.1846504,26.04,2.09,1.93,-0.04,95,61,2.85382342338562,2.8535215854644775
3,-0.20019593834877014,0.7755242586135864,-0.026316307485103607,36.7156677,3.1847005,26.11,3.21,2.9,-0.06,95,44,4.330167293548584,4.3296427726745605
4,-0.011831890791654587,0.7384236454963684,0.020294172689318657,36.7157113,3.1847494,26.16,2.94,2.66,-0.04,94,42,3.969719886779785,3.9694552421569824
5,0.23330648243427277,0.0006162347854115069,-0.25501108169555664,36.7157386,3.1847744,26.17,-0.16,-0.81,0.0,94,0,0.8304524421691895,0.8304504156112671
6,-0.1516200453042984,-1.6288514137268066,-0.13453884422779083,36.7157196,3.1847364,26.21,-2.28,-3.2,-0.03,93,266,3.9337756633758545,3.9336001873016357
7,-0.11164341866970062,-2.245370626449585,0.0419488362967968,36.7156881,3.1846798,26.21,-2.29,-3.34,0.0,93,231,4.054039001464844,4.05402946472168
8,-0.06637122482061386,-1.611244559288025,0.23621203005313873,36.7156647,3.1846163,26.19,-0.05,-2.91,0.01,93,267,2.918278455734253,2.918253183364868
9,-0.3692367374897003,-0.6539393067359924,0.07721312344074249,36.71569,3.1845683,26.19,3.81,-3.07,0.0,92,322,4.900710105895996,4.900710582733154
10,-0.5410200357437134,-0.6185487508773804,-0.006520245224237442,36.7157618,3.1845048,26.19,6.6,-4.57,0.0,92,324,8.03203296661377,8.03203296661377
11,-0.4605323374271393,-0.6157881617546082,0.000910051167011261,36.7158787,3.1844037,26.22,7.86,-5.49,0.0,91,324,9.594661712646484,9.594661712646484
12,-0.4063204824924469,-0.620280385017395,0.009233660064637661,36.7160023,3.1842951,26.25,7.52,-5.32,0.0,91,324,9.215459823608398,9.215457916259766
13,-0.03321283310651779,-0.6233422756195068,-0.001432842924259603,36.716093,3.1842151,26.27,5.48,-3.9,0.05,91,324,6.737154483795166,6.736904144287109
14,0.028622424229979515,-1.04551100730896,-0.26134899258613586,36.7161438,3.1841602,26.35,1.62,-2.88,-0.18,90,300,3.3189616203308105,3.313655138015747
15,-0.37740379571914673,-2.1315109729766846,-0.0978739857673645,36.716131,3.184094,27.34,-2.94,-4.44,-0.91,90,237,5.413825988769531,5.336458206176758
16,-0.515169084072113,-2.1633877754211426,0.020187949761748314,36.7160764,3.1839983,29.16,-4.83,-6.92,-1.42,89,236,8.565415382385254,8.44597339630127
17,-0.41320571303367615,-2.163501262664795,-0.008040377870202065,36.7159921,3.1838464,31.95,-5.52,-8.01,-1.6,89,236,9.863329887390137,9.73139762878418
18,-0.47884035110473633,-2.1648874282836914,-0.0183558352291584,36.7159168,3.1837085,34.42,-5.53,-8.17,-1.57,88,235,9.993950843811035,9.86956787109375
19,-0.48605382442474365,-2.163989782333374,0.03334556519985199,36.7158421,3.1835696,36.89,-5.53,-8.24,-1.57,88,236,10.061570167541504,9.936830520629883
20,-0.435405969619751,-2.1645777225494385,-0.024352964013814926,36.7157546,3.1834068,39.77,-5.55,-8.27,-1.59,87,235,10.09888744354248,9.97179126739502
21,-0.48719164729118347,-2.1634228229522705,-0.02410692349076271,36.7156796,3.1832674,42.26,-5.51,-8.24,-1.59,87,236,10.051526069641113,9.923470497131348
22,-0.43147408962249756,-2.163795232772827,0.017153922468423843,36.7155925,3.1831047,45.18,-5.5,-8.29,-1.6,87,236,10.0804443359375,9.951241493225098
23,-0.4221266806125641,-2.161957025527954,-0.00010412184929009527,36.7155304,3.1829881,47.26,-5.52,-8.3,-1.61,86,236,10.103921890258789,9.974536895751953
24,-0.48952487111091614,-2.1669440269470215,0.01622396893799305,36.7154429,3.1828249,50.17,-5.53,-8.29,-1.62,86,235,10.100915908813477,9.969674110412598
25,-0.428745836019516,-2.1641526222229004,0.0026674300897866488,36.7153559,3.1826622,53.09,-5.5,-8.27,-1.62,85,236,10.073738098144531,9.942525863647461
26,-0.47777193784713745,-2.163498878479004,-0.026984727010130882,36.7152812,3.1825222,55.59,-5.52,-8.31,-1.61,85,236,10.111699104309082,9.981230735778809
27,-0.4331507980823517,-2.1644463539123535,0.02811007760465145,36.7151938,3.1823586,58.51,-5.52,-8.28,-1.63,84,235,10.094240188598633,9.960647583007812
28,-0.42871567606925964,-2.1644368171691895,-0.020008713006973267,36.715119,3.182219,61.01,-5.5,-8.28,-1.63,84,235,10.079070091247559,9.945616722106934
29,-0.3077818751335144,-2.168462038040161,-2.4354372726520523e-05,36.7150472,3.1820856,63.43,-4.91,-7.29,-1.45,83,235,8.912637710571289,8.793719291687012
30,-0.03366470709443092,-2.1617307662963867,0.0030984655022621155,36.7149842,3.1819679,65.45,-3.01,-4.6,-0.71,83,236,5.547865867614746,5.501475811004639
31,-0.16910746693611145,-2.1226415634155273,0.02970699779689312,36.7149503,3.1819009,66.09,-2.21,-3.7,-0.19,83,238,4.318769931793213,4.31455135345459
32,-0.15894265472888947,-2.1018784046173096,-0.021766096353530884,36.7149173,3.1818295,66.17,-2.07,-3.69,-0.01,82,239,4.23487663269043,4.234855651855469
33,-0.01627465710043907,-2.103144645690918,0.026347238570451736,36.7148901,3.1817702,66.16,-1.79,-3.15,0.02,82,239,3.630491256713867,3.630434989929199
34,0.03158674016594887,-2.2707362174987793,-0.07093765586614609,36.71487,3.1817307,65.53,-1.23,-1.55,0.96,82,229,2.208000659942627,1.9847413301467896
35,-0.005686813499778509,-2.4788057804107666,0.007396867964416742,36.7148524,3.1817105,63.01,-1.03,-0.78,1.44,81,217,1.9485580921173096,1.3036811351776123
36,-0.06032117083668709,-2.472038745880127,-0.00350963301025331,36.7148384,3.1816975,60.77,-1.04,-0.82,1.41,81,218,1.9403588771820068,1.3293730020523071
37,-0.024941835552453995,-2.4703445434570312,-0.022378316149115562,36.7148218,3.1816811,58.16,-1.06,-0.87,1.43,80,218,1.992942214012146,1.383536458015442
38,-0.049691103398799896,-2.469555139541626,0.024001074954867363,36.7148073,3.1816664,55.92,-1.07,-0.87,1.43,80,218,1.994784951210022,1.3850313425064087
39,-0.022531362250447273,-2.4694881439208984,-0.023320766165852547,36.7147927,3.1816518,53.67,-1.07,-0.88,1.44,80,218,2.000450372695923,1.387940764427185
40,-0.01018480584025383,-2.469473123550415,0.016102682799100876,36.7147757,3.1816348,51.06,-1.06,-0.87,1.45,79,218,2.006971836090088,1.3815677165985107
41,-0.05563252046704292,-2.4696147441864014,-0.01625659316778183,36.7147611,3.1816201,48.82,-1.06,-0.89,1.46,79,218,2.018247365951538,1.388765573501587
42,-0.019269190728664398,-2.4701573848724365,-0.017167026177048683,36.7147441,3.1816031,46.2,-1.07,-0.88,1.46,79,218,2.0215821266174316,1.3942807912826538
43,-0.05874883010983467,-2.4693996906280518,0.017217017710208893,36.7147295,3.1815882,43.96,-1.06,-0.89,1.47,78,218,2.0259034633636475,1.3925375938415527
44,-0.012509743683040142,-2.4695088863372803,-0.014686144888401031,36.7147149,3.1815735,41.71,-1.07,-0.89,1.47,78,218,2.0305378437042236,1.395119309425354
45,-0.019102444872260094,-2.469257354736328,0.027066079899668694,36.7146979,3.1815564,39.08,-1.06,-0.87,1.47,78,218,2.0174665451049805,1.3779499530792236
46,-0.044692810624837875,-2.4695849418640137,-0.02181793563067913,36.7146834,3.1815416,36.83,-1.07,-0.89,1.47,77,218,2.033128023147583,1.3984302282333374
47,-0.012219350785017014,-2.4696173667907715,-0.0050910525023937225,36.7146663,3.1815245,34.21,-1.07,-0.88,1.47,77,218,2.027374267578125,1.3904638290405273
48,-0.059872083365917206,-2.4695215225219727,0.013803860172629356,36.7146517,3.1815097,31.95,-1.05,-0.88,1.47,76,218,2.017535924911499,1.3800692558288574
49,-0.014253986068069935,-2.4694371223449707,-0.005137977190315723,36.7146372,3.181495,29.71,-1.07,-0.88,1.47,76,218,2.024052143096924,1.3909274339675903
50,-0.09704776853322983,-2.9659337997436523,-0.0739973708987236,36.7146174,3.18148,27.14,-1.69,-0.35,1.25,76,190,2.1365857124328613,1.7285575866699219
51,-0.24359284341335297,2.671037197113037,-0.06184225156903267,36.7145845,3.1814892,26.18,-3.25,1.51,0.03,75,153,3.5886483192443848,3.588505744934082
52,-0.13743124902248383,2.6722195148468018,-0.0009432626538909972,36.7145245,3.1815264,26.28,-4.0,2.05,0.0,75,153,4.501193046569824,4.501193046569824
53,-0.05789994075894356,2.890164375305176,0.16234531998634338,36.7144712,3.1815558,26.24,-3.63,0.88,0.05,75,165,3.741424560546875,3.740947723388672
54,-0.31186020374298096,-2.2989089488983154,0.1657762974500656,36.7144276,3.1815428,26.21,-2.91,-2.82,0.02,74,228,4.056440353393555,4.056364059448242
55,-0.5075449347496033,-2.146186113357544,0.02685653045773506,36.7143746,3.1814486,26.21,-4.11,-6.48,0.01,74,237,7.684316635131836,7.684303283691406
56,-0.44140031933784485,-2.151808977127075,0.008148778229951859,36.7143122,3.1813269,26.22,-4.94,-7.63,0.0,73,236,9.097552299499512,9.097552299499512
57,-0.36810266971588135,-2.15732479095459,0.012025040574371815,36.7142338,3.1811768,26.24,-4.77,-7.27,0.0,73,236,8.705759048461914,8.705759048461914
58,-0.2111831158399582,-2.1506831645965576,0.02595638856291771,36.7141745,3.1810635,26.25,-3.93,-6.1,0.03,73,236,7.266907215118408,7.266819477081299
59,-0.29342976212501526,-2.1225168704986572,-0.002515447326004505,36.7141258,3.1809658,26.22,-3.41,-5.7,0.02,72,238,6.648500919342041,6.648446559906006
60,-0.25402456521987915,-2.099987745285034,0.00644303672015667,36.7140739,3.1808546,26.22,-3.23,-5.65,0.01,72,239,6.511778831481934,6.511763095855713
61,-0.2320052832365036,-2.0999810695648193,-0.003968473058193922,36.7140304,3.1807596,26.22,-3.12,-5.5,0.0,71,239,6.329756736755371,6.3297553062438965
62,0.14148080348968506,-2.101320743560791,-0.024634668603539467,36.713989,3.1806695,26.2,-1.82,-3.18,0.04,71,239,3.6731903553009033,3.672910451889038
63,0.11119292676448822,-2.100996971130371,0.023586124181747437,36.7139754,3.1806395,26.2,-0.3,-0.55,-0.01,71,239,0.6337204575538635,0.633427619934082
64,0.024870797991752625,-2.100029468536377,-0.004606747068464756,36.7139753,3.1806392,26.19,0.1,0.16,0.02,70,239,0.19588376581668854,0.19357551634311676
