timestamp,pitch,yaw,roll,lat,lon,alt,velocity_x,velocity_y,velocity_z,battery,heading,airspeed,groundspeed
0,-0.013907584361732006,-0.00381328072398901,-0.01834535412490368,36.7156066,3.18463,29.07,-0.01,0.02,-0.01,96,359,0.02987375110387802,0.027896879240870476
1,-0.040324922651052475,0.01036911178380251,0.134572833776474,36.7156078,3.1846329,28.95,0.33,0.63,-0.05,95,0,0.722285270690918,0.7204997539520264
2,-0.1581685096025467,1.583411455154419,-0.06757964938879013,36.7156228,3.1846652,29.0,1.52,2.64,-0.05,95,90,3.0590693950653076,3.0585596561431885
3,-0.1380661278963089,0.9416631460189819,-0.01411735825240612,36.7156461,3.1847151,29.02,1.77,3.07,-0.03,95,53,3.5529959201812744,3.5528316497802734
4,0.23848547041416168,1.0414361953735352,0.04284955933690071,36.7156665,3.1847583,29.02,0.79,1.46,-0.02,94,59,1.6637115478515625,1.6635273694992065
5,-0.012884329073131084,2.4941587448120117,0.269735187292099,36.7156568,3.1847422,29.06,-1.86,-2.69,-0.01,94,142,3.27648663520813,3.2764387130737305
6,-0.10018151998519897,-2.23978328704834,-0.0026014200411736965,36.7156275,3.1846889,29.03,-2.25,-3.31,-0.09,93,231,4.010897159576416,4.009859085083008
7,0.01716148667037487,-1.9906830787658691,0.162544846534729,36.715597,3.184624,29.05,-1.07,-3.14,0.03,93,238,3.52850079536438,3.5283560752868652
8,-0.3576286733150482,-0.7779102325439453,0.13539184629917145,36.7156048,3.184575,29.02,2.52,-2.82,0.0,93,315,3.789027452468872,3.789026975631714
9,-0.473116934299469,-0.6131593585014343,0.029830794781446457,36.715662,3.1845191,29.03,5.76,-4.03,0.0,92,324,7.036295413970947,7.036292552947998
10,-0.49507632851600647,-0.6187984943389893,-0.02218615636229515,36.7157535,3.1844396,29.04,7.53,-5.24,-0.01,92,324,9.177964210510254,9.177958488464355
11,-0.4782414138317108,-0.6211696267127991,0.02821841463446617,36.7158767,3.1843317,29.06,7.88,-5.58,0.0,91,324,9.660172462463379,9.660172462463379
12,-0.18982896208763123,-0.6249430179595947,-0.025836238637566566,36.7159776,3.1842422,29.1,6.7,-4.8,0.0,91,324,8.254782676696777,8.254781723022461
13,0.06850382685661316,-0.7796875238418579,-0.1258361041545868,36.7160592,3.1841663,29.1,3.08,-3.05,-0.05,91,315,4.340577602386475,4.340166091918945
14,-0.3089253604412079,-1.9787626266479492,-0.20740528404712677,36.7160719,3.1841159,29.58,-1.29,-3.41,-0.58,90,246,3.7012388706207275,3.6546711921691895
15,-0.4460912346839905,-2.1782238483428955,0.042884938418865204,36.7160238,3.1840244,31.3,-4.35,-6.18,-1.29,90,235,7.678304195404053,7.567470073699951
16,-0.46038010716438293,-2.1681599617004395,-0.02334018424153328,36.7159559,3.1839038,33.54,-5.4,-7.82,-1.59,89,235,9.644376754760742,9.511040687561035
17,-0.48216336965560913,-2.1650495529174805,0.02449311688542366,36.7158684,3.1837449,36.43,-5.51,-8.12,-1.58,89,235,9.943408966064453,9.816609382629395
18,-0.43307557702064514,-2.1636528968811035,0.01232769712805748,36.7157935,3.1836061,38.9,-5.54,-8.26,-1.58,88,236,10.081374168395996,9.956330299377441
19,-0.4506329298019409,-2.162656307220459,-0.03078582137823105,36.7157183,3.1834659,41.36,-5.54,-8.27,-1.6,88,236,10.09371566772461,9.965929985046387
20,-0.45995426177978516,-2.1656041145324707,0.037521589547395706,36.7156308,3.1833032,44.26,-5.5,-8.23,-1.61,87,235,10.037853240966797,9.907143592834473
21,-0.43176764249801636,-2.163689374923706,0.013170251622796059,36.7155563,3.1831641,46.76,-5.53,-8.28,-1.61,87,236,10.093284606933594,9.963212013244629
22,-0.491808146238327,-2.1646974086761475,-0.00010218397801509127,36.715469,3.1830008,49.67,-5.51,-8.29,-1.61,86,235,10.093982696533203,9.963526725769043
23,-0.4523956775665283,-2.1639859676361084,0.039219457656145096,36.7153943,3.1828608,52.16,-5.49,-8.28,-1.63,86,236,10.073471069335938,9.939407348632812
24,-0.4297322630882263,-2.1668145656585693,-0.0060528782196342945,36.7153196,3.1827215,54.67,-5.53,-8.28,-1.63,86,235,10.100823402404785,9.967791557312012
25,-0.4898267686367035,-2.164611577987671,0.015019289217889309,36.7152323,3.1825583,57.59,-5.49,-8.31,-1.63,85,235,10.100440979003906,9.967521667480469
26,-0.4387437403202057,-2.161937713623047,0.032805636525154114,36.7151576,3.182418,60.09,-5.5,-8.28,-1.64,85,236,10.083593368530273,9.948893547058105
27,-0.4766676127910614,-2.1649765968322754,-0.02539617009460926,36.7150704,3.1822552,63.01,-5.52,-8.27,-1.63,84,235,10.084293365478516,9.950669288635254
28,-0.3796980679035187,-2.165661334991455,0.016895044595003128,36.7149966,3.1821176,65.49,-5.26,-7.83,-1.55,84,235,9.563907623291016,9.43630599975586
29,-0.0671524927020073,-2.1671037673950195,-0.02037467248737812,36.7149254,3.1819853,67.85,-3.52,-5.28,-0.96,83,235,6.951117992401123,6.864780426025391
30,-0.1362612098455429,-2.131621837615967,0.03923051059246063,36.7148872,3.1819115,68.81,-2.28,-3.75,-0.33,83,237,4.407197952270508,4.394506454467773
31,-0.1233549639582634,-2.090268611907959,-0.005513371899724007,36.7148586,3.1818496,69.02,-2.01,-3.68,-0.02,83,240,4.202078819274902,4.201984882354736
32,-0.07246936112642288,-2.087149143218994,0.030105119571089745,36.7148271,3.181778,69.01,-1.91,-3.52,-0.02,82,240,4.015058517456055,4.014954090118408
33,0.05172698572278023,-2.1579010486602783,-0.06279440224170685,36.7148052,3.18173,68.75,-1.3,-2.04,0.53,82,236,2.482245445251465,2.42457914352417
34,0.02321619912981987,-2.488542318344116,-0.004794485401362181,36.7147865,3.1817043,66.61,-1.07,-0.83,1.49,82,217,2.0230772495269775,1.3624449968338013
35,-0.060920119285583496,-2.47536563873291,-0.005639227572828531,36.7147723,3.1816912,64.35,-1.05,-0.81,1.42,81,218,1.9503490924835205,1.3349924087524414
36,-0.01624598540365696,-2.475106716156006,0.022966839373111725,36.7147578,3.1816775,62.11,-1.07,-0.86,1.44,81,218,1.9939581155776978,1.376144528388977
37,-0.05333302542567253,-2.4761908054351807,0.02348478138446808,36.7147408,3.1816607,59.49,-1.08,-0.87,1.44,80,218,2.006000518798828,1.3935151100158691
38,-0.012563766911625862,-2.4757931232452393,-0.014222786761820316,36.714726,3.1816461,57.25,-1.08,-0.88,1.45,80,218,2.0174877643585205,1.402444839477539
39,-0.0554547980427742,-2.4759175777435303,0.018298523500561714,36.7147112,3.1816314,55.01,-1.08,-0.88,1.46,80,218,2.0222296714782715,1.3961067199707031
40,-0.04712235555052757,-2.4758501052856445,-0.02410128526389599,36.7146941,3.1816143,52.39,-1.07,-0.89,1.46,79,218,2.026355028152466,1.396517276763916
41,-0.03084561415016651,-2.475867748260498,0.027785591781139374,36.7146794,3.1815997,50.14,-1.08,-0.88,1.46,79,218,2.0259766578674316,1.3962064981460571
42,-0.06110379472374916,-2.4761621952056885,0.0006705081323161721,36.7146621,3.1815824,47.53,-1.07,-0.88,1.47,79,218,2.0297510623931885,1.3904993534088135
43,-0.011300161480903625,-2.4753947257995605,0.01017687562853098,36.7146473,3.1815678,45.28,-1.07,-0.87,1.47,78,218,2.0263783931732178,1.3846012353897095
44,-0.04418960586190224,-2.4760327339172363,0.027283141389489174,36.7146301,3.1815507,42.65,-1.07,-0.87,1.47,78,218,2.0250139236450195,1.3875445127487183
45,-0.02147573046386242,-2.4759225845336914,-0.02315911278128624,36.7146154,3.1815359,40.41,-1.08,-0.88,1.47,78,218,2.0360782146453857,1.3986234664916992
46,-0.05133922025561333,-2.476398468017578,0.021503468975424767,36.7146006,3.1815212,38.15,-1.06,-0.88,1.47,77,218,2.0266036987304688,1.3852051496505737
47,-0.05539502948522568,-2.4756388664245605,-0.018188603222370148,36.7145834,3.1815041,35.52,-1.07,-0.88,1.47,77,218,2.028262138366699,1.395302414894104
48,-0.018551819026470184,-2.4757072925567627,0.025403615087270737,36.7145686,3.1814894,33.28,-1.07,-0.86,1.47,76,218,2.0197739601135254,1.3832366466522217
49,-0.07215259224176407,-2.547708511352539,-0.07549400627613068,36.7145536,3.1814748,31.03,-1.21,-0.81,1.47,76,214,2.0804805755615234,1.4653140306472778
50,-0.20832529664039612,2.7440450191497803,-0.0851363092660904,36.714524,3.1814723,29.11,-2.73,0.96,0.35,76,157,2.9206321239471436,2.89927339553833
51,-0.22763358056545258,2.6715810298919678,0.006618444807827473,36.7144776,3.1814993,29.08,-3.92,1.96,-0.07,75,153,4.388747215270996,4.388147354125977
52,-0.06611408293247223,2.738553047180176,0.06626085937023163,36.7144144,3.1815382,29.1,-3.85,1.59,0.06,75,156,4.1692986488342285,4.168747901916504
53,-0.2033030092716217,-2.6720542907714844,0.29442310333251953,36.7143673,3.1815436,29.05,-2.98,-1.47,0.03,75,206,3.3286375999450684,3.328467845916748
54,-0.4956413507461548,-2.1554954051971436,-0.0012615323066711426,36.714318,3.181471,29.05,-3.63,-5.76,0.02,74,236,6.816714763641357,6.8166728019714355
55,-0.4851771891117096,-2.1539323329925537,0.037169065326452255,36.7142605,3.1813574,29.05,-4.69,-7.46,0.0,74,236,8.817654609680176,8.817655563354492
56,-0.4009084105491638,-2.1509811878204346,-0.005716076120734215,36.7141944,3.1812281,29.07,-4.94,-7.68,0.0,73,236,9.132343292236328,9.132342338562012
57,-0.29191726446151733,-2.1520791053771973,0.030516596511006355,36.7141213,3.1810869,29.09,-4.21,-6.52,0.02,73,236,7.768072128295898,7.768030643463135
58,-0.24611078202724457,-2.133173704147339,0.013563706539571285,36.7140696,3.1809851,29.06,-3.53,-5.71,0.02,73,237,6.719958305358887,6.71989107131958
59,-0.2877204418182373,-2.111794948577881,0.033311862498521805,36.7140161,3.1808735,29.05,-3.28,-5.62,0.0,72,239,6.520350933074951,6.520345687866211
60,-0.24285919964313507,-2.1084487438201904,-0.015302492305636406,36.7139718,3.1807787,29.05,-3.28,-5.63,0.0,72,239,6.525662422180176,6.525658130645752
61,-0.060804858803749084,-2.1090216636657715,0.006306410301476717,36.7139305,3.1806908,29.06,-2.59,-4.45,0.01,71,239,5.160151958465576,5.1601243019104
62,0.14772441983222961,-2.1091339588165283,-0.029822764918208122,36.713904,3.1806342,29.02,-0.7,-1.21,-0.01,71,239,1.4096308946609497,1.409534215927124
63,0.025039484724402428,-2.1095128059387207,0.030089056119322777,36.7139012,3.1806278,29.04,0.11,0.14,0.0,71,239,0.1786065697669983,0.17855951189994812
64,-0.06937698274850845,-2.0066909790039062,0.14674049615859985,36.7139058,3.1806282,29.0,0.84,-0.49,-0.02,70,245,0.9771735668182373,0.9768102765083313
