timestamp,pitch,yaw,roll,lat,lon,alt,velocity_x,velocity_y,velocity_z,battery,heading,airspeed,groundspeed
0,-0.015238323248922825,0.03377982974052429,-0.01762218214571476,36.7156067,3.18463,19.91,-0.02,0.01,0.05,96,1,0.06064089015126228,0.03210208937525749
1,-0.035890985280275345,0.031366441398859024,0.11131719499826431,36.7156077,3.1846322,19.86,0.29,0.51,0.0,95,1,0.5972137451171875,0.5972129106521606
2,-0.2478543072938919,1.4147065877914429,-0.09598396718502045,36.7156191,3.184654,19.83,1.5,2.28,-0.01,95,81,2.7358415126800537,2.7357709407806396
3,-0.20385923981666565,0.928264856338501,-0.01665102317929268,36.7156512,3.1847141,19.88,2.37,3.54,-0.04,95,53,4.270955562591553,4.270758152008057
4,-0.03438099846243858,0.9580931663513184,0.030027011409401894,36.7156837,3.1847738,19.91,2.25,3.35,-0.02,94,54,4.040106773376465,4.040032863616943
5,0.3394305109977722,0.9884145259857178,0.029406089335680008,36.715704,3.1848103,19.91,-0.26,-0.37,0.0,94,56,0.462760865688324,0.46266794204711914
6,0.004307756200432777,2.5796382427215576,0.17822907865047455,36.7156856,3.1847771,19.94,-2.09,-3.01,-0.03,93,147,3.670142412185669,3.669957160949707
7,-0.08463549613952637,-1.9982000589370728,0.012951205484569073,36.7156506,3.184713,19.94,-2.19,-3.27,0.0,93,233,3.983060121536255,3.983041286468506
8,-0.03877391293644905,-1.809704065322876,0.19038070738315582,36.7156301,3.184659,19.92,-0.45,-2.98,0.0,93,256,3.019801378250122,3.0197877883911133
9,-0.3373129963874817,-0.6734235286712646,0.09368480741977692,36.7156487,3.1846112,19.91,3.29,-2.93,0.0,92,321,4.416096210479736,4.416094779968262
10,-0.5237330794334412,-0.612898051738739,-0.013555909506976604,36.7157146,3.1845509,19.92,6.25,-4.35,0.0,92,324,7.624419689178467,7.62441873550415
11,-0.47087135910987854,-0.6154348254203796,0.005335409194231033,36.7158281,3.1844529,19.94,7.84,-5.41,0.0,91,324,9.530274391174316,9.53027057647705
12,-0.43785372376441956,-0.6184455156326294,0.0009894742397591472,36.7159521,3.1843447,19.96,7.7,-5.43,-0.02,91,324,9.42829418182373,9.42827320098877
13,-0.09953077137470245,-0.6218752861022949,0.01953195035457611,36.7160465,3.1842614,19.99,5.88,-4.2,0.02,91,324,7.2347941398620605,7.234747886657715
14,0.06000472977757454,-0.9047250747680664,-0.222085103392601,36.7161046,3.1842034,20.02,2.29,-2.93,-0.13,90,308,3.7278785705566406,3.7253475189208984
15,-0.3453531265258789,-2.1266591548919678,-0.12229081243276596,36.7161014,3.18414,20.86,-2.52,-4.1,-0.82,90,238,4.886122703552246,4.815488338470459
16,-0.5086272358894348,-2.1678261756896973,0.00880485214293003,36.7160506,3.1840506,22.57,-4.63,-6.6,-1.38,89,235,8.189085960388184,8.071104049682617
17,-0.4198925793170929,-2.162738800048828,0.012352315708994865,36.7159679,3.1839028,25.31,-5.51,-8.02,-1.62,89,236,9.871237754821777,9.737356185913086
18,-0.47969475388526917,-2.163996696472168,-0.027686843648552895,36.7158927,3.1837655,27.78,-5.53,-8.18,-1.57,88,236,10.011180877685547,9.885784149169922
19,-0.4908568859100342,-2.1653993129730225,0.023144489154219627,36.7158174,3.1836262,30.24,-5.54,-8.26,-1.58,88,235,10.072504043579102,9.946314811706543
20,-0.43078184127807617,-2.1641061305999756,-0.021482016891241074,36.7157302,3.1834633,33.13,-5.51,-8.26,-1.6,88,236,10.060518264770508,9.93213176727295
21,-0.4883069396018982,-2.1634597778320312,-0.022896988317370415,36.7156557,3.1833242,35.62,-5.55,-8.29,-1.6,87,236,10.113836288452148,9.985673904418945
22,-0.4659673869609833,-2.164865016937256,0.03404845669865608,36.7155805,3.1831841,38.11,-5.51,-8.26,-1.62,87,235,10.069611549377441,9.938019752502441
23,-0.4470749497413635,-2.164924383163452,-0.025006715208292007,36.7154933,3.1830214,41.02,-5.49,-8.27,-1.62,86,235,10.063328742980957,9.931057929992676
24,-0.49156221747398376,-2.1626877784729004,-0.0015926719643175602,36.7154189,3.1828817,43.52,-5.5,-8.3,-1.62,86,236,10.091365814208984,9.95935344696045
25,-0.424622118473053,-2.165623664855957,0.013174942694604397,36.7153316,3.1827185,46.43,-5.55,-8.29,-1.64,85,235,10.112994194030762,9.97815990447998
26,-0.461288720369339,-2.164797306060791,-0.024853337556123734,36.7152567,3.1825786,48.94,-5.51,-8.28,-1.64,85,235,10.081311225891113,9.946836471557617
27,-0.4516165852546692,-2.164417028427124,0.036223459988832474,36.7151696,3.1824156,51.86,-5.51,-8.28,-1.64,84,235,10.085450172424316,9.950628280639648
28,-0.42688068747520447,-2.163705587387085,-0.009880153462290764,36.7150949,3.1822758,54.37,-5.52,-8.29,-1.63,84,236,10.10184097290039,9.968042373657227
29,-0.33613523840904236,-2.1675703525543213,-0.017183242365717888,36.715022,3.1821401,56.82,-5.09,-7.52,-1.5,84,235,9.205598831176758,9.082048416137695
30,-0.05135733634233475,-2.1645212173461914,0.015382390469312668,36.7149556,3.1820164,59.0,-3.25,-4.9,-0.81,83,235,5.945049285888672,5.888293743133545
31,-0.16522358357906342,-2.1288833618164062,0.007173224817961454,36.7149196,3.1819461,59.78,-2.26,-3.72,-0.24,83,238,4.366243362426758,4.359374523162842
32,-0.1352570354938507,-2.1021928787231445,-0.01928926818072796,36.7148859,3.1818742,59.91,-2.06,-3.66,0.0,82,239,4.20417594909668,4.204170227050781
33,-0.060213491320610046,-2.1032657623291016,0.022045640274882317,36.7148584,3.1818141,59.9,-1.86,-3.31,-0.01,82,239,3.8010268211364746,3.800990581512451
34,0.059941913932561874,-2.2199087142944336,-0.05817728862166405,36.7148374,3.1817712,59.46,-1.26,-1.75,0.76,82,232,2.293403387069702,2.1615664958953857
35,-0.013823465444147587,-2.485715627670288,0.021163389086723328,36.7148193,3.1817488,57.1,-1.03,-0.8,1.47,81,217,1.9770981073379517,1.3132957220077515
36,-0.04975621774792671,-2.4722273349761963,-0.02062169834971428,36.7148052,3.1817356,54.84,-1.03,-0.83,1.42,81,218,1.950731873512268,1.3285081386566162
37,-0.011516229249536991,-2.4702396392822266,-0.0055341157130897045,36.7147887,3.1817195,52.23,-1.06,-0.86,1.44,81,218,1.9921950101852417,1.3751808404922485
38,-0.0661700963973999,-2.469761610031128,0.0045766644179821014,36.7147743,3.1817049,49.99,-1.07,-0.89,1.44,80,218,2.0091164112091064,1.3964149951934814
39,-0.030162880197167397,-2.4692118167877197,-0.026693422347307205,36.7147572,3.1816878,47.37,-1.07,-0.88,1.45,80,218,2.0151803493499756,1.3948798179626465
40,-0.033882156014442444,-2.469308853149414,0.026437653228640556,36.7147427,3.1816731,45.13,-1.06,-0.87,1.46,79,218,2.0093562602996826,1.3775599002838135
41,-0.0323418565094471,-2.469731569290161,-0.024777231737971306,36.714728,3.1816585,42.89,-1.07,-0.89,1.47,79,218,2.0305869579315186,1.4005382061004639
42,-0.008006864227354527,-2.469738245010376,0.006141750607639551,36.714711,3.1816413,40.27,-1.07,-0.88,1.48,79,218,2.0315678119659424,1.3899990320205688
43,-0.06043824926018715,-2.4691319465637207,-0.01055951602756977,36.7146964,3.1816266,38.02,-1.07,-0.88,1.47,78,218,2.0325698852539062,1.3932569026947021
44,-0.00983621459454298,-2.4694271087646484,0.011328388936817646,36.7146819,3.1816119,35.77,-1.07,-0.88,1.47,78,218,2.0305538177490234,1.3909224271774292
45,-0.04938019812107086,-2.4696807861328125,0.025706639513373375,36.7146648,3.1815947,33.14,-1.06,-0.88,1.47,78,218,2.0255024433135986,1.3856889009475708
46,-0.02004084922373295,-2.469864845275879,-0.018425995483994484,36.7146503,3.18158,30.89,-1.07,-0.88,1.47,77,218,2.0303680896759033,1.3932336568832397
47,-0.018739676102995872,-2.469149351119995,0.016303157433867455,36.7146333,3.1815628,28.27,-1.06,-0.87,1.47,77,218,2.0196170806884766,1.383952260017395
48,-0.05396386235952377,-2.469197988510132,-0.018439583480358124,36.7146187,3.1815481,26.02,-1.06,-0.89,1.47,77,218,2.024122953414917,1.388606071472168
49,-0.01460464671254158,-2.4696168899536133,-0.015400206670165062,36.7146017,3.1815309,23.39,-1.06,-0.87,1.47,76,218,2.0181384086608887,1.3787510395050049
50,-0.11189868301153183,-2.812734603881836,-0.07383719086647034,36.7145855,3.1815174,21.17,-1.53,-0.55,1.36,76,198,2.1237263679504395,1.6294201612472534
51,-0.21030309796333313,2.6854605674743652,-0.06613034754991531,36.7145554,3.1815223,19.94,-3.03,1.29,0.16,75,153,3.302926540374756,3.298920154571533
52,-0.16577576100826263,2.6729328632354736,0.020534493029117584,36.7144973,3.1815576,20.01,-4.01,2.02,-0.02,75,153,4.498335361480713,4.498256683349609
53,-0.05592462792992592,2.810352087020874,0.09981221705675125,36.7144437,3.181589,19.97,-3.75,1.26,0.06,75,161,3.9621729850769043,3.9616761207580566
54,-0.3131491243839264,-2.2776641845703125,0.1514306366443634,36.714392,3.1815776,19.94,-2.93,-2.89,0.02,74,229,4.120009422302246,4.119944095611572
55,-0.5034578442573547,-2.1424524784088135,-0.005157697480171919,36.7143472,3.1814995,19.94,-3.88,-6.18,0.02,74,237,7.307624816894531,7.307596206665039
56,-0.47843724489212036,-2.1476545333862305,0.026885313913226128,36.7142878,3.181382,19.95,-4.79,-7.6,0.0,73,236,8.995109558105469,8.995108604431152
57,-0.3870662450790405,-2.1505625247955322,-0.023461943492293358,36.71421,3.1812308,19.96,-4.83,-7.49,-0.01,73,236,8.915387153625488,8.915379524230957
58,-0.25101277232170105,-2.149517297744751,0.03659382462501526,36.7141495,3.181114,19.97,-4.04,-6.29,0.02,73,236,7.477612495422363,7.477571487426758
59,-0.2948443293571472,-2.1253249645233154,-0.005459786392748356,36.7140918,3.1809987,19.94,-3.42,-5.67,0.01,72,238,6.628083229064941,6.628064155578613
60,-0.2771100103855133,-2.109354019165039,0.036415763199329376,36.7140467,3.1809037,19.94,-3.27,-5.62,0.0,72,239,6.507781505584717,6.507778167724609
61,-0.22353635728359222,-2.108377695083618,-0.00707207340747118,36.713995,3.1807931,19.94,-3.16,-5.45,0.0,71,239,6.305457592010498,6.305456638336182
62,0.10291536897420883,-2.109433650970459,0.009480712004005909,36.713958,3.180714,19.93,-2.09,-3.59,0.03,71,239,4.1578216552734375,4.157652378082275
63,0.11229295283555984,-2.109154462814331,-0.016497932374477386,36.7139411,3.1806779,19.92,-0.49,-0.85,-0.02,71,239,0.9834640622138977,0.9832203984260559
64,0.023217471316456795,-2.108590602874756,-0.004753114655613899,36.71394,3.1806753,19.92,0.12,0.14,0.03,70,239,0.19370940327644348,0.19065548479557037
