timestamp,pitch,yaw,roll,lat,lon,alt,velocity_x,velocity_y,velocity_z,battery,heading,airspeed,groundspeed
0,-0.017897197976708412,0.03298543021082878,0.0235197301954031,36.7156065,3.1846299,18.86,-0.01,0.02,0.04,96,1,0.05305236950516701,0.027320636436343193
1,-0.038101401180028915,0.05674219876527786,0.10239458829164505,36.7156073,3.1846334,18.85,0.21,0.74,0.0,95,3,0.7753742933273315,0.7753707766532898
2,-0.06693780422210693,1.8789269924163818,-0.08144785463809967,36.7156156,3.1846677,18.84,0.73,2.47,-0.05,95,107,2.582061529159546,2.5815560817718506
3,0.09447453916072845,1.1070674657821655,0.038409069180488586,36.7156254,3.1847085,18.88,0.5,2.0,-0.03,95,63,2.066824197769165,2.0665555000305176
4,-0.004055773373693228,2.6144111156463623,0.3011501133441925,36.7156225,3.1847158,18.88,-1.23,-1.53,0.0,94,149,1.9689395427703857,1.9689338207244873
5,-0.1382850706577301,-1.9713577032089233,-0.038813937455415726,36.7155919,3.1846612,18.92,-2.31,-3.38,-0.01,94,247,4.098229885101318,4.098189830780029
6,-0.09875047206878662,-2.158623218536377,0.09699425101280212,36.7155613,3.1846033,18.91,-1.96,-3.38,0.0,93,236,3.911015748977661,3.911012649536133
7,-0.257058322429657,-1.0493170022964478,0.22027422487735748,36.7155528,3.1845415,18.89,1.5,-2.79,0.0,93,285,2.9659905433654785,2.965979814529419
8,-0.4453839361667633,-0.6359851360321045,0.0734119713306427,36.715599,3.1844894,18.9,5.15,-3.59,0.0,93,323,6.286675930023193,6.286675453186035
9,-0.506723165512085,-0.6244224905967712,-0.018795952200889587,36.7156848,3.1844155,18.91,7.31,-5.01,0.0,92,324,8.870317459106445,8.87031364440918
10,-0.49502041935920715,-0.6174335479736328,0.03056427836418152,36.7158069,3.1843099,18.92,7.94,-5.56,0.0,92,324,9.70161247253418,9.70161247253418
11,-0.29661795496940613,-0.6212285161018372,-0.01182864885777235,36.7159116,3.1842178,18.96,7.19,-5.11,-0.02,91,324,8.823169708251953,8.823136329650879
12,0.04627387970685959,-0.6750242114067078,-0.06508434563875198,36.7160049,3.1841344,18.95,4.09,-3.29,0.01,91,321,5.255175590515137,5.255162715911865
13,-0.18733900785446167,-1.6405121088027954,-0.29218029975891113,36.7160326,3.1840843,19.25,-0.21,-3.06,-0.43,91,266,3.1058497428894043,3.0758039951324463
14,-0.4248812198638916,-2.149320125579834,-0.00021235944586806,36.7160052,3.1840188,20.4,-3.56,-5.04,-1.06,90,236,6.264670372009277,6.172632217407227
15,-0.5036778450012207,-2.1651577949523926,-0.025279147550463676,36.7159328,3.1838916,22.81,-5.21,-7.53,-1.55,90,235,9.295462608337402,9.16466999053955
16,-0.4753015339374542,-2.1688685417175293,0.037382300943136215,36.7158582,3.1837571,25.27,-5.52,-8.06,-1.59,89,235,9.9042387008667,9.774386405944824
17,-0.4260835349559784,-2.1635208129882812,-0.026259785518050194,36.715771,3.1835959,28.12,-5.55,-8.22,-1.58,89,236,10.05329418182373,9.926815032958984
18,-0.4882015883922577,-2.164083480834961,-0.00711773382499814,36.7156958,3.1834563,30.59,-5.55,-8.29,-1.6,88,236,10.116106986999512,9.988085746765137
19,-0.47279590368270874,-2.1636533737182617,0.0407307893037796,36.7156209,3.1833166,33.08,-5.5,-8.23,-1.6,88,236,10.031587600708008,9.901984214782715
20,-0.4527618885040283,-2.1653192043304443,-0.026488449424505234,36.7155334,3.1831536,35.99,-5.5,-8.25,-1.61,87,235,10.054898262023926,9.9243745803833
21,-0.49393755197525024,-2.1626529693603516,-0.007342632859945297,36.7154589,3.1830143,38.48,-5.52,-8.27,-1.62,87,236,10.07947063446045,9.947010040283203
22,-0.4275095760822296,-2.162871837615967,-0.0015066402265802026,36.7153717,3.1828512,41.39,-5.51,-8.3,-1.63,86,236,10.104866981506348,9.97131633758545
23,-0.43883267045021057,-2.162961959838867,-0.01548770722001791,36.7153097,3.1827349,43.48,-5.51,-8.27,-1.63,86,236,10.077512741088867,9.944711685180664
24,-0.47972872853279114,-2.166415214538574,0.03169881924986839,36.715222,3.1825714,46.4,-5.52,-8.29,-1.64,86,235,10.100786209106445,9.966347694396973
25,-0.43144726753234863,-2.1662046909332275,-0.015514915809035301,36.7151349,3.1824084,49.32,-5.52,-8.27,-1.64,85,235,10.08492660522461,9.950597763061523
26,-0.4888801574707031,-2.164278745651245,-0.011520188301801682,36.7150604,3.1822688,51.83,-5.53,-8.31,-1.63,85,236,10.122832298278809,9.990050315856934
27,-0.36985570192337036,-2.163411855697632,0.0030421435367316008,36.7149735,3.1821061,54.74,-5.43,-8.11,-1.61,84,236,9.90440845489502,9.771234512329102
28,-0.16530005633831024,-2.167104482650757,-0.026184145361185074,36.7149061,3.1819815,57.0,-4.28,-6.35,-1.26,84,235,7.7667341232299805,7.662947654724121
29,-0.06810089200735092,-2.156214714050293,0.04270360991358757,36.7148594,3.181894,58.4,-2.7,-4.19,-0.56,84,236,5.023473739624023,4.992062568664551
30,-0.15978240966796875,-2.1090595722198486,-0.01051962561905384,36.7148232,3.1818196,58.88,-2.11,-3.68,-0.07,83,239,4.250606060028076,4.2500128746032715
31,-0.12635590136051178,-2.102357864379883,0.018868988379836082,36.7147951,3.1817584,58.88,-2.09,-3.7,-0.01,83,239,4.253936290740967,4.253901481628418
32,0.019099002704024315,-2.1233317852020264,-0.007962255738675594,36.7147657,3.1816948,58.78,-1.5,-2.49,0.26,82,238,2.923133611679077,2.911267042160034
33,0.0315014123916626,-2.4112610816955566,-0.05347698926925659,36.7147482,3.1816659,57.47,-1.16,-1.12,1.39,82,221,2.137815237045288,1.6214516162872314
34,-0.019192619249224663,-2.463192939758301,0.025266582146286964,36.7147315,3.1816494,54.81,-1.03,-0.79,1.43,82,218,1.9415042400360107,1.3031021356582642
35,-0.05644327774643898,-2.468414306640625,-0.01768716610968113,36.7147174,3.181636,52.57,-1.05,-0.84,1.43,81,218,1.9723986387252808,1.3505077362060547
36,-0.025913819670677185,-2.469086170196533,0.026055248454213142,36.7147031,3.1816217,50.33,-1.07,-0.88,1.43,81,218,2.000965118408203,1.3900073766708374
37,-0.05942473188042641,-2.4697089195251465,0.01369749940931797,36.714686,3.1816047,47.72,-1.06,-0.88,1.45,81,218,2.010530948638916,1.3859424591064453
38,-0.01019714493304491,-2.4695019721984863,-0.01114486251026392,36.7146714,3.18159,45.48,-1.07,-0.87,1.46,80,218,2.016303300857544,1.3887577056884766
39,-0.030662966892123222,-2.4691672325134277,0.02693173475563526,36.7146545,3.181573,42.86,-1.05,-0.88,1.46,80,218,2.009880304336548,1.3775269985198975
40,-0.04673906788229942,-2.469585418701172,-0.02550356648862362,36.71464,3.1815583,40.61,-1.06,-0.88,1.47,79,218,2.023790121078491,1.3872312307357788
41,-0.03194180876016617,-2.469548225402832,0.027888087555766106,36.7146254,3.1815435,38.37,-1.06,-0.88,1.47,79,218,2.0236129760742188,1.3853567838668823
42,-0.05918677896261215,-2.4700443744659424,0.0066773416474461555,36.7146082,3.1815263,35.74,-1.06,-0.89,1.47,79,218,2.0206398963928223,1.3841947317123413
43,-0.006771876476705074,-2.468824863433838,0.007672758307307959,36.7145937,3.1815116,33.5,-1.06,-0.88,1.47,78,218,2.025090217590332,1.3861626386642456
44,-0.03166923671960831,-2.4694607257843018,0.029265740886330605,36.7145767,3.1814945,30.87,-1.06,-0.88,1.48,78,218,2.0253422260284424,1.3803576231002808
45,-0.02895696461200714,-2.4695565700531006,-0.022347090765833855,36.7145621,3.1814798,28.62,-1.05,-0.88,1.47,78,218,2.0173850059509277,1.376376986503601
46,-0.03929668664932251,-2.4697704315185547,0.024651434272527695,36.7145476,3.181465,26.37,-1.05,-0.87,1.47,77,218,2.0168392658233643,1.3737927675247192
47,-0.059373024851083755,-2.4695539474487305,-0.00135318492539227,36.7145306,3.1814478,23.75,-1.06,-0.88,1.48,77,218,2.0313074588775635,1.388399600982666
48,-0.01646481826901436,-2.473438024520874,-0.006381409242749214,36.7145159,3.1814331,21.49,-1.08,-0.86,1.47,77,218,2.0303821563720703,1.3915884494781494
49,-0.19636781513690948,2.9228522777557373,-0.07455044984817505,36.7144913,3.181424,19.21,-2.26,0.38,0.74,76,167,2.413869619369507,2.2975986003875732
50,-0.21110650897026062,2.669764280319214,-0.029582971706986427,36.7144496,3.1814454,18.92,-3.71,1.86,-0.05,76,152,4.15280818939209,4.152425289154053
51,-0.15772543847560883,2.672323703765869,0.038578033447265625,36.7143959,3.1814791,18.99,-3.99,2.03,0.04,75,153,4.480868816375732,4.4806413650512695
52,-0.08423729240894318,-3.02128005027771,0.23635819554328918,36.7143369,3.181502,18.93,-3.24,-0.4,0.03,75,186,3.2734546661376953,3.273228406906128
53,-0.3929246664047241,-2.1875791549682617,0.1085231676697731,36.714296,3.1814621,18.92,-3.12,-4.38,0.01,75,234,5.38400936126709,5.383977890014648
54,-0.5237628221511841,-2.1572232246398926,0.0031646527349948883,36.7142356,3.1813448,18.92,-4.49,-7.15,0.0,74,236,8.452764511108398,8.452760696411133
55,-0.4344441592693329,-2.150277614593506,0.023108908906579018,36.7141705,3.181217,18.94,-4.91,-7.68,0.0,74,236,9.127079963684082,9.127076148986816
56,-0.3249770700931549,-2.152637243270874,-0.007521298248320818,36.714095,3.1810714,18.95,-4.43,-6.84,0.0,73,236,8.158656120300293,8.158653259277344
57,-0.23613187670707703,-2.139887809753418,0.038126636296510696,36.7140407,3.1809655,18.94,-3.62,-5.79,0.03,73,237,6.838141918182373,6.838073253631592
58,-0.27809396386146545,-2.1169300079345703,-0.014893812127411366,36.713994,3.1808696,18.92,-3.33,-5.64,0.01,73,238,6.554394245147705,6.554386138916016
59,-0.25756561756134033,-2.1080477237701416,0.01955207996070385,36.7139418,3.1807583,18.92,-3.27,-5.63,0.0,72,239,6.519406795501709,6.519400596618652
60,-0.12547928094863892,-2.108473062515259,-0.019252071157097816,36.7138989,3.1806667,18.93,-2.9,-4.96,0.0,72,239,5.752871513366699,5.752871036529541
61,0.18476855754852295,-2.109065532684326,-0.01587642915546894,36.7138658,3.180596,18.89,-1.1,-1.88,0.0,71,239,2.1898205280303955,2.1898136138916016
62,0.04868388921022415,-2.1092936992645264,0.015808532014489174,36.7138594,3.180582,18.92,0.0,-0.01,-0.01,71,239,0.0210269745439291,0.01840910129249096
63,0.01483448501676321,-2.107527017593384,0.07503920793533325,36.7138611,3.180584,18.88,0.32,-0.02,0.02,71,239,0.33200451731681824,0.3306848704814911
