timestamp,pitch,yaw,roll,lat,lon,alt,velocity_x,velocity_y,velocity_z,battery,heading,airspeed,groundspeed
0,-0.02236820012331009,-0.015923917293548584,-0.006334654986858368,36.7156066,3.18463,27.46,-0.01,0.02,0.12,96,359,0.1319887489080429,0.03227956220507622
1,-0.030546534806489944,-0.018528662621974945,0.09592440724372864,36.7156079,3.1846321,27.33,0.32,0.49,0.0,95,358,0.5929524898529053,0.5929450392723083
2,-0.21184633672237396,1.3866246938705444,-0.08942331373691559,36.7156238,3.1846591,27.3,1.89,2.51,-0.05,95,79,3.1455025672912598,3.145052433013916
3,-0.24372629821300507,0.8744636178016663,-0.006564959418028593,36.7156564,3.1847128,27.36,2.78,3.66,-0.07,95,50,4.605082035064697,4.6044535636901855
4,-0.09665366262197495,0.8985057473182678,0.023332294076681137,36.7156956,3.184776,27.42,2.8,3.64,-0.05,94,51,4.601396560668945,4.601048469543457
5,0.3070380389690399,0.865055501461029,0.004575398750603199,36.7157286,3.1848281,27.46,0.71,0.83,0.0,94,49,1.103003740310669,1.1029995679855347
6,0.04436541721224785,-0.5063682794570923,-0.27738356590270996,36.7157195,3.1848094,27.48,-1.86,-2.67,-0.04,93,330,3.2567102909088135,3.256403923034668
7,-0.10694681853055954,-2.2792608737945557,0.031070025637745857,36.7156851,3.1847475,27.51,-2.25,-3.23,0.01,93,229,3.9440596103668213,3.944044351577759
8,-0.06497083604335785,-1.9054862260818481,0.12373798340559006,36.7156593,3.1846926,27.49,-1.26,-3.1,0.01,93,250,3.348503589630127,3.3484485149383545
9,-0.2840614318847656,-0.8135415315628052,0.15327779948711395,36.7156631,3.1846437,27.48,2.15,-2.76,0.0,92,313,3.5049185752868652,3.504910469055176
10,-0.4896114468574524,-0.6072768568992615,0.03227202966809273,36.7157291,3.1845786,27.48,5.93,-4.16,0.0,92,325,7.252490520477295,7.252488136291504
11,-0.482443630695343,-0.6153498888015747,-0.015909260138869286,36.7158223,3.1844978,27.49,7.56,-5.28,0.0,91,324,9.231315612792969,9.231313705444336
12,-0.4807819724082947,-0.6218701004981995,0.023678958415985107,36.7159452,3.1843896,27.51,7.82,-5.57,0.0,91,324,9.608460426330566,9.608460426330566
13,-0.19074636697769165,-0.6236782073974609,0.011484779417514801,36.7160451,3.1843009,27.56,6.57,-4.68,0.0,91,324,8.071194648742676,8.07119369506836
14,0.07508199661970139,-0.8242772817611694,-0.14413785934448242,36.7161229,3.1842274,27.57,2.78,-2.99,-0.07,90,312,4.0936808586120605,4.092956066131592
15,-0.31883659958839417,-2.040158271789551,-0.17715108394622803,36.7161313,3.1841765,28.11,-1.55,-3.55,-0.63,90,243,3.9302709102630615,3.8789005279541016
16,-0.4927787780761719,-2.1818807125091553,0.04167741909623146,36.71609,3.1840989,29.57,-4.2,-5.92,-1.24,89,234,7.374159336090088,7.268550395965576
17,-0.44842207431793213,-2.1654253005981445,-0.023487163707613945,36.7160114,3.183959,32.18,-5.44,-7.85,-1.59,89,235,9.690004348754883,9.557391166687012
18,-0.4905179738998413,-2.1670877933502197,0.001016362919472158,36.7159363,3.1838226,34.66,-5.51,-8.11,-1.57,88,235,9.93466854095459,9.809447288513184
19,-0.4292173683643341,-2.1634740829467773,0.012180669233202934,36.7158489,3.1836605,37.53,-5.56,-8.26,-1.57,88,236,10.086254119873047,9.96225643157959
20,-0.4504806697368622,-2.163478374481201,-0.030633313581347466,36.7157737,3.1835206,39.99,-5.54,-8.27,-1.59,87,236,10.084982872009277,9.958148956298828
21,-0.4985256791114807,-2.163940668106079,-0.0028076169546693563,36.7156989,3.1833816,42.48,-5.52,-8.23,-1.59,87,236,10.041071891784668,9.913437843322754
22,-0.4290911555290222,-2.1647298336029053,0.001714944839477539,36.7156117,3.1832189,45.39,-5.51,-8.3,-1.61,87,235,10.097484588623047,9.968277931213379
23,-0.47554945945739746,-2.163198947906494,-0.02951112762093544,36.715537,3.1830787,47.88,-5.51,-8.29,-1.61,86,236,10.091714859008789,9.96164321899414
24,-0.4396072328090668,-2.1652138233184814,0.03600693121552467,36.7154495,3.1829158,50.8,-5.5,-8.26,-1.63,86,235,10.067682266235352,9.934409141540527
25,-0.4376154839992523,-2.1642043590545654,-0.013400639407336712,36.7153753,3.1827767,53.3,-5.5,-8.29,-1.62,85,236,10.085714340209961,9.953907012939453
26,-0.48848801851272583,-2.1637818813323975,-0.018938979133963585,36.7153005,3.1826364,55.8,-5.54,-8.31,-1.62,85,236,10.123296737670898,9.991737365722656
27,-0.42310217022895813,-2.165097713470459,0.021192055195569992,36.7152129,3.1824729,58.72,-5.51,-8.28,-1.63,84,235,10.091360092163086,9.957313537597656
28,-0.4448533058166504,-2.1650240421295166,-0.026080282405018806,36.7151383,3.1823334,61.23,-5.5,-8.28,-1.63,84,235,10.082282066345215,9.949361801147461
29,-0.34519222378730774,-2.16760516166687,0.030847463756799698,36.7150524,3.1821731,64.11,-5.19,-7.71,-1.53,83,235,9.427433967590332,9.3021821975708
30,-0.04971809685230255,-2.166536808013916,0.0022591175511479378,36.7149908,3.182059,66.16,-3.69,-5.52,-1.03,83,235,6.728394031524658,6.648410320281982
31,-0.11658868193626404,-2.137481927871704,0.0310811810195446,36.714951,3.1819822,67.22,-2.34,-3.8,-0.37,83,237,4.483797550201416,4.468188762664795
32,-0.14885646104812622,-2.089545488357544,-0.0160793736577034,36.7149175,3.1819101,67.47,-2.01,-3.69,-0.01,82,240,4.204679489135742,4.2046332359313965
33,-0.10017751157283783,-2.088576555252075,0.03075052984058857,36.7148904,3.1818487,67.46,-1.96,-3.59,-0.03,82,240,4.098959922790527,4.098822593688965
34,0.02394775301218033,-2.174337148666382,-0.050193607807159424,36.7148647,3.1817927,67.13,-1.26,-1.92,0.61,82,235,2.3870880603790283,2.305800676345825
35,0.025068389251828194,-2.4733638763427734,-0.008496436290442944,36.7148488,3.1817706,65.28,-1.07,-0.87,1.49,81,218,2.0455780029296875,1.392205834388733
36,-0.05742764472961426,-2.466721296310425,-0.006701457779854536,36.7148347,3.1817575,63.0,-1.03,-0.8,1.41,81,218,1.928160548210144,1.3114359378814697
37,-0.02040722407400608,-2.469789981842041,-0.01858770288527012,36.7148181,3.1817415,60.39,-1.06,-0.86,1.43,80,218,1.9837394952774048,1.3715386390686035
38,-0.05585719645023346,-2.469630002975464,0.02659357339143753,36.7148038,3.1817271,58.15,-1.06,-0.88,1.43,80,218,1.9932128190994263,1.3836191892623901
39,-0.04992109537124634,-2.468981981277466,-0.022040944546461105,36.7147867,3.1817099,55.54,-1.08,-0.88,1.44,80,218,2.0100789070129395,1.3957176208496094
40,-0.01705789379775524,-2.469238042831421,0.02063577249646187,36.7147722,3.1816953,53.29,-1.06,-0.87,1.45,79,218,2.009525775909424,1.3824563026428223
41,-0.049969382584095,-2.4695000648498535,-0.020719606429338455,36.7147576,3.1816807,51.05,-1.06,-0.88,1.46,79,218,2.016066551208496,1.3884451389312744
42,-0.011014631018042564,-2.470017910003662,-0.00832725316286087,36.7147406,3.1816635,48.43,-1.08,-0.88,1.46,79,218,2.0279111862182617,1.3991183042526245
43,-0.05841256305575371,-2.4692296981811523,0.00722921546548605,36.714726,3.1816487,46.18,-1.05,-0.89,1.47,78,218,2.0209360122680664,1.384885311126709
44,-0.0452091284096241,-2.469477891921997,-0.02373983897268772,36.714709,3.1816317,43.56,-1.06,-0.89,1.47,78,218,2.022341728210449,1.388548731803894
45,-0.026974601671099663,-2.4693596363067627,0.027450786903500557,36.7146944,3.1816169,41.31,-1.06,-0.88,1.46,78,218,2.0188066959381104,1.3846627473831177
46,-0.06016595661640167,-2.469693660736084,0.0047479188069701195,36.7146774,3.1815997,38.69,-1.06,-0.89,1.48,77,218,2.033024311065674,1.3937218189239502
47,-0.004852058831602335,-2.4693548679351807,0.003263256512582302,36.7146628,3.181585,36.44,-1.06,-0.87,1.47,77,218,2.018810272216797,1.3783349990844727
48,-0.06112676486372948,-2.469485282897949,0.004328039474785328,36.7146482,3.1815703,34.19,-1.06,-0.89,1.47,76,218,2.0251450538635254,1.391016960144043
49,-0.03339439630508423,-2.469987630844116,-0.021908938884735107,36.7146312,3.1815531,31.57,-1.07,-0.88,1.47,76,218,2.0280442237854004,1.390895128250122
50,-0.07602613419294357,-2.582606792449951,-0.037002697587013245,36.7146162,3.1815386,29.32,-1.25,-0.77,1.46,76,212,2.077840805053711,1.4701696634292603
51,-0.22427085041999817,2.8061628341674805,-0.11261531710624695,36.7145914,3.1815356,27.62,-2.58,0.74,0.48,75,160,2.7286534309387207,2.6852593421936035
52,-0.16977053880691528,2.6796655654907227,0.009183444082736969,36.7145372,3.1815661,27.53,-4.0,1.98,-0.07,75,153,4.4648823738098145,4.464265823364258
53,-0.1164764016866684,2.71028995513916,0.054465606808662415,36.714482,3.1815997,27.55,-3.94,1.75,0.06,75,155,4.316953659057617,4.316462516784668
54,-0.20187264680862427,-2.604534387588501,0.2318364828824997,36.7144262,3.1816073,27.5,-2.96,-1.66,0.03,74,210,3.4028077125549316,3.4026596546173096
55,-0.4925341010093689,-2.1725234985351562,0.06484242528676987,36.7143847,3.181547,27.5,-3.45,-5.43,0.02,74,235,6.43778133392334,6.437727928161621
56,-0.4594576358795166,-2.154320478439331,0.012764600105583668,36.7143292,3.1814373,27.51,-4.63,-7.32,0.0,73,236,8.670234680175781,8.670232772827148
57,-0.44872912764549255,-2.1505110263824463,0.004398287273943424,36.7142522,3.181287,27.52,-4.93,-7.66,0.0,73,236,9.115300178527832,9.115299224853516
58,-0.2644234001636505,-2.1519997119903564,0.029709627851843834,36.7141889,3.1811651,27.54,-4.32,-6.66,0.02,73,236,7.947480201721191,7.947454929351807
59,-0.3019433915615082,-2.1335411071777344,0.022323811426758766,36.7141281,3.1810454,27.51,-3.51,-5.72,0.03,72,237,6.715686798095703,6.715606212615967
60,-0.25654876232147217,-2.1115689277648926,0.024355359375476837,36.7140823,3.1809501,27.51,-3.3,-5.63,0.01,72,239,6.535696983337402,6.5356855392456055
61,-0.27732178568840027,-2.108738422393799,0.022213105112314224,36.7140304,3.1808391,27.51,-3.27,-5.65,0.0,71,239,6.539101600646973,6.539097309112549
62,0.009493906050920486,-2.1090004444122314,-0.012495813891291618,36.7139896,3.1807519,27.51,-2.53,-4.34,0.02,71,239,5.032014846801758,5.031947135925293
63,0.12834985554218292,-2.1091785430908203,0.008366073481738567,36.713966,3.1807016,27.48,-0.86,-1.49,0.0,71,239,1.7267428636550903,1.7267341613769531
64,0.01610630378127098,-2.109060764312744,-0.027274809777736664,36.7139621,3.1806928,27.49,0.1,0.15,0.0,70,239,0.18690256774425507,0.18677480518817902
65,-0.02211277186870575,-2.0804853439331055,0.17438918352127075,36.7139655,3.1806938,27.45,0.68,-0.34,-0.01,70,240,0.7656726837158203,0.7655208110809326
