timestamp,pitch,yaw,roll,lat,lon,alt,velocity_x,velocity_y,velocity_z,battery,heading,airspeed,groundspeed
0,0.020795557647943497,0.003146255621686578,0.02790260873734951,36.7156065,3.1846303,11.66,-0.01,0.0,-0.67,98,0,0.678813636302948,0.01567075029015541
1,-0.08421994000673294,-0.003397626569494605,0.057794686406850815,36.7156077,3.1846321,12.17,0.37,0.42,-0.13,97,359,0.581642210483551,0.5662069320678711
2,-0.23461385071277618,1.2193323373794556,-0.0958898663520813,36.715621,3.1846506,12.27,1.79,2.04,-0.05,97,69,2.726989269256592,2.7263736724853516
3,-0.2816734313964844,0.8667815923690796,0.013700056821107864,36.715664,3.1847122,12.24,3.43,3.98,0.06,97,49,5.265822887420654,5.265479564666748
4,-0.22364208102226257,0.840020477771759,-0.028990695253014565,36.7157143,3.1847836,12.1,3.8,4.3,0.08,96,48,5.745534420013428,5.744907855987549
5,0.10815192013978958,0.8387560844421387,0.01132955215871334,36.7157698,3.1848607,12.02,2.73,3.06,0.01,96,48,4.104530334472656,4.104506492614746
6,0.2781437635421753,0.266707181930542,-0.2181725651025772,36.7157882,3.184883,12.02,-0.36,-0.8,-0.01,95,15,0.8864906430244446,0.8864248394966125
7,-0.08047808706760406,-1.3217016458511353,-0.13683044910430908,36.7157682,3.1848451,11.99,-2.18,-3.14,0.04,95,284,3.8282241821289062,3.8279645442962646
8,-0.08872827887535095,-2.2520649433135986,0.05123639106750488,36.715733,3.1847809,12.04,-2.16,-3.19,-0.02,95,230,3.8621623516082764,3.862067699432373
9,-0.027550049126148224,-1.7412807941436768,0.17884287238121033,36.7157131,3.1847279,12.0,-0.38,-2.91,0.03,94,260,2.9424681663513184,2.942298650741577
10,-0.37460246682167053,-0.6581016182899475,0.05645009130239487,36.7157412,3.1846722,11.99,3.94,-3.1,0.0,94,322,5.0214619636535645,5.021453380584717
11,-0.5344445705413818,-0.6238386034965515,0.002204857999458909,36.7158141,3.1846076,11.99,6.6,-4.63,0.0,93,324,8.064800262451172,8.064797401428223
12,-0.45989444851875305,-0.6214365363121033,-0.000318386300932616,36.7159304,3.1845061,12.01,7.86,-5.54,0.0,93,324,9.618135452270508,9.618135452270508
13,-0.40906456112861633,-0.6230255961418152,-0.021978985518217087,36.7160367,3.1844121,12.04,7.61,-5.41,-0.01,93,324,9.346102714538574,9.346092224121094
14,-0.09298794716596603,-0.6254215240478516,0.025451743975281715,36.7161297,3.1843296,12.07,5.75,-4.1,0.04,92,324,7.066160202026367,7.066015243530273
15,0.0038400914054363966,-1.1129332780838013,-0.2594420611858368,36.7161897,3.1842647,12.17,1.37,-2.88,-0.22,92,296,3.2043662071228027,3.19667911529541
16,-0.3442372977733612,-2.1309585571289062,-0.08191230148077011,36.7161799,3.184209,12.98,-2.63,-4.2,-0.84,91,237,5.033225059509277,4.961510181427002
17,-0.508586049079895,-2.1605396270751953,0.025035429745912552,36.7161172,3.1840983,15.08,-4.86,-7.01,-1.45,91,236,8.661417007446289,8.538509368896484
18,-0.43423640727996826,-2.162081241607666,0.026235483586788177,36.7160453,3.1839685,17.49,-5.51,-8.02,-1.6,90,236,9.87173843383789,9.740246772766113
19,-0.45286598801612854,-2.164794445037842,-0.02977045439183712,36.7159701,3.1838309,19.96,-5.56,-8.18,-1.56,90,235,10.01646900177002,9.893362045288086
20,-0.4625829756259918,-2.1639599800109863,0.040920574218034744,36.7158822,3.1836681,22.82,-5.53,-8.23,-1.59,90,236,10.04741382598877,9.920780181884766
21,-0.42591455578804016,-2.1665260791778564,0.007004613988101482,36.7158076,3.1835294,25.3,-5.54,-8.26,-1.59,89,235,10.076982498168945,9.949958801269531
22,-0.489467054605484,-2.1632590293884277,-0.011954372748732567,36.7157203,3.1833667,28.2,-5.5,-8.27,-1.59,89,236,10.067647933959961,9.940228462219238
23,-0.4423745274543762,-2.1632728576660156,0.03969896584749222,36.7156455,3.1832269,30.69,-5.5,-8.3,-1.61,88,236,10.089670181274414,9.959257125854492
24,-0.42687228322029114,-2.1622068881988525,-0.015606163069605827,36.7155708,3.1830868,33.19,-5.51,-8.27,-1.62,88,236,10.076407432556152,9.945171356201172
25,-0.48929935693740845,-2.1676230430603027,0.031013386324048042,36.7154837,3.1829246,36.11,-5.53,-8.3,-1.61,87,235,10.109541893005371,9.979095458984375
26,-0.42889463901519775,-2.1630048751831055,0.025266923010349274,36.7154089,3.1827845,38.61,-5.5,-8.29,-1.63,87,236,10.087640762329102,9.954862594604492
27,-0.48643016815185547,-2.163785696029663,-0.016339778900146484,36.7153216,3.1826211,41.53,-5.51,-8.28,-1.62,86,236,10.08716106414795,9.955229759216309
28,-0.46827995777130127,-2.164581060409546,0.03905230760574341,36.715247,3.1824814,44.04,-5.5,-8.29,-1.62,86,235,10.088895797729492,9.956510543823242
29,-0.4368157386779785,-2.1645498275756836,-0.02954885922372341,36.7151597,3.1823183,46.95,-5.52,-8.3,-1.63,85,235,10.107023239135742,9.974395751953125
30,-0.28988710045814514,-2.1688590049743652,0.015413330867886543,36.7150881,3.1821855,49.35,-4.82,-7.16,-1.43,85,235,8.760601043701172,8.642316818237305
31,-0.04168295860290527,-2.163355827331543,0.018339447677135468,36.7150337,3.1820838,51.13,-3.15,-4.79,-0.78,85,236,5.794765472412109,5.740851879119873
32,-0.15641193091869354,-2.1088383197784424,0.0429990217089653,36.7149941,3.1820047,51.91,-2.15,-3.7,-0.16,84,239,4.291740417480469,4.288557052612305
33,-0.12898613512516022,-2.0862772464752197,-0.012265265919268131,36.7149666,3.1819434,51.97,-2.0,-3.7,-0.01,84,240,4.21250581741333,4.2124857902526855
34,-0.054482601583004,-2.087543249130249,0.01823361963033676,36.71494,3.1818831,51.96,-1.79,-3.31,-0.01,84,240,3.770940065383911,3.7709012031555176
35,0.01749906688928604,-2.2906713485717773,-0.07486282289028168,36.714917,3.1818361,51.22,-1.23,-1.49,1.05,83,228,2.2045228481292725,1.9351634979248047
36,-0.018437175080180168,-2.4910995960235596,0.028286179527640343,36.7149016,3.1818188,49.05,-1.04,-0.78,1.46,83,217,1.963944673538208,1.3099027872085571
37,-0.06655578315258026,-2.477908134460449,0.011473546735942364,36.714885,3.1818036,46.42,-1.05,-0.83,1.41,82,218,1.9557111263275146,1.3482095003128052
38,-0.008748753927648067,-2.476306915283203,-0.0008021676912903786,36.7148706,3.1817895,44.18,-1.08,-0.87,1.42,82,218,1.9920915365219116,1.394152045249939
39,-0.033925458788871765,-2.4757344722747803,0.026997024193406105,36.7148534,3.1817725,41.57,-1.08,-0.87,1.43,82,218,1.9994685649871826,1.3891056776046753
40,-0.03876914083957672,-2.4754648208618164,-0.022639064118266106,36.7148387,3.1817579,39.33,-1.08,-0.88,1.44,81,218,2.00950026512146,1.395514726638794
41,-0.03533604368567467,-2.475642442703247,0.030327262356877327,36.714824,3.1817433,37.08,-1.08,-0.88,1.44,81,218,2.0139896869659424,1.398038625717163
42,-0.061662763357162476,-2.4756596088409424,-0.0007835713913664222,36.7148067,3.1817261,34.47,-1.08,-0.89,1.46,81,218,2.0244598388671875,1.4014252424240112
43,-0.006391957867890596,-2.4754366874694824,0.011630205437541008,36.714792,3.1817115,32.22,-1.08,-0.88,1.46,80,218,2.0249316692352295,1.3977628946304321
44,-0.046268489211797714,-2.4753682613372803,0.0282126534730196,36.7147748,3.1816943,29.59,-1.07,-0.89,1.46,80,218,2.0252525806427,1.3998818397521973
45,-0.026654725894331932,-2.4756979942321777,-0.02394060231745243,36.71476,3.1816795,27.35,-1.08,-0.89,1.46,80,218,2.0303173065185547,1.4058616161346436
46,-0.04669368639588356,-2.476012945175171,0.026852045208215714,36.7147452,3.1816648,25.11,-1.07,-0.88,1.47,79,218,2.0289359092712402,1.3919298648834229
47,-0.059140194207429886,-2.4758498668670654,-0.008440778590738773,36.714728,3.1816477,22.48,-1.08,-0.88,1.47,79,218,2.030790090560913,1.400457501411438
48,-0.01708345115184784,-2.474980354309082,0.02328457683324814,36.7147132,3.181633,20.23,-1.08,-0.87,1.47,78,218,2.0257134437561035,1.3935928344726562
49,-0.050811197608709335,-2.4756407737731934,0.02766324207186699,36.714696,3.1816158,17.61,-1.07,-0.88,1.47,78,218,2.026916980743408,1.3893064260482788
50,-0.015070601366460323,-2.475633382797241,-0.01350701879709959,36.7146813,3.181601,15.36,-1.07,-0.88,1.47,78,218,2.0309085845947266,1.3941562175750732
51,-0.11240039765834808,-2.8615238666534424,-0.07161729037761688,36.7146647,3.1815877,13.14,-1.58,-0.5,1.32,77,196,2.127285957336426,1.6626689434051514
52,-0.2549927830696106,2.669173240661621,-0.04930780082941055,36.7146263,3.1815979,11.98,-3.34,1.59,0.0,77,152,3.706468343734741,3.7064642906188965
53,-0.1465202271938324,2.6721065044403076,0.01969755068421364,36.7145747,3.18163,12.08,-3.99,2.05,-0.02,77,153,4.493884086608887,4.493833541870117
54,-0.05258525535464287,2.8335392475128174,0.10779953747987747,36.7145211,3.1816609,12.04,-3.69,1.14,0.06,76,162,3.8738322257995605,3.873326539993286
55,-0.3286263644695282,-2.250765562057495,0.13128286600112915,36.71447,3.1816465,12.01,-2.93,-3.1,0.02,76,231,4.272529125213623,4.272471904754639
56,-0.4910648465156555,-2.1445937156677246,0.035287294536828995,36.714416,3.1815475,12.01,-4.16,-6.62,0.0,75,237,7.827426433563232,7.82742166519165
57,-0.43906906247138977,-2.1478021144866943,-0.004657010082155466,36.7143537,3.1814247,12.02,-4.91,-7.67,0.0,75,236,9.118274688720703,9.118273735046387
58,-0.3863467276096344,-2.1520633697509766,-0.011748167686164379,36.7142869,3.1812955,12.04,-4.81,-7.41,0.0,75,236,8.841798782348633,8.841798782348633
59,-0.20845484733581543,-2.1463637351989746,0.012521650642156601,36.7142179,3.1811622,12.05,-3.85,-6.04,0.03,74,237,7.165498733520508,7.165400505065918
60,-0.30198580026626587,-2.1242823600769043,0.008898471482098103,36.7141697,3.1810651,12.02,-3.41,-5.68,0.02,74,238,6.634910583496094,6.634856700897217
61,-0.2602096199989319,-2.1084489822387695,-0.004694054834544659,36.7141172,3.1809543,12.02,-3.29,-5.66,0.01,73,239,6.5527825355529785,6.552762508392334
62,-0.21569757163524628,-2.1085805892944336,0.010062585584819317,36.7140729,3.1808594,12.02,-3.14,-5.42,0.0,73,239,6.269989013671875,6.269987106323242
63,0.12522225081920624,-2.1092772483825684,0.0017284166533499956,36.7140364,3.1807816,12.01,-2.01,-3.44,0.04,73,239,3.989790201187134,3.989532232284546
64,0.11727324873209,-2.1091465950012207,0.027544895187020302,36.7140199,3.1807461,12.0,-0.23,-0.42,-0.01,72,239,0.4903753101825714,0.49008187651634216
65,0.006038822699338198,-2.108557939529419,-0.0038045647088438272,36.7140202,3.1807465,11.99,0.12,0.13,0.03,72,239,0.1839497685432434,0.18025916814804077
