timestamp,pitch,yaw,roll,lat,lon,alt,velocity_x,velocity_y,velocity_z,battery,heading,airspeed,groundspeed
0,0.00812409445643425,0.021702030673623085,0.03222496807575226,36.7156064,3.1846303,11.65,-0.01,0.0,-0.67,98,1,0.672236979007721,0.010469327680766582
1,-0.06751296669244766,0.017539719119668007,0.06087194383144379,36.7156076,3.1846324,12.15,0.33,0.48,-0.13,97,1,0.6073362231254578,0.5926960706710815
2,-0.22566314041614532,1.3854230642318726,-0.08820374310016632,36.7156192,3.1846532,12.25,1.52,2.26,-0.05,97,79,2.7350540161132812,2.7345545291900635
3,-0.2494010031223297,0.9383735656738281,0.027595533058047295,36.7156545,3.1847184,12.2,2.71,4.09,0.11,97,53,4.920556545257568,4.919320583343506
4,-0.16807958483695984,0.9517138004302979,-0.028943270444869995,36.7156938,3.1847902,12.06,2.93,4.26,0.01,96,54,5.180481910705566,5.180458068847656
5,0.23998309671878815,0.9629150032997131,0.02230660617351532,36.7157338,3.1848616,11.99,1.57,2.28,0.01,96,55,2.777690887451172,2.7776241302490234
6,0.27013102173805237,0.6226330399513245,-0.09856700152158737,36.7157363,3.1848655,12.0,-1.29,-1.88,0.0,95,35,2.2866690158843994,2.286663293838501
7,-0.03679096698760986,-1.1641273498535156,-0.12442646920681,36.7157104,3.1848182,11.95,-2.22,-3.24,0.0,95,293,3.932020902633667,3.9320199489593506
8,-0.025627680122852325,-2.3485777378082275,0.09553033113479614,36.7156764,3.1847538,12.01,-1.87,-3.17,0.02,95,225,3.6847798824310303,3.684711217880249
9,-0.1318024843931198,-1.3590164184570312,0.24059610068798065,36.7156659,3.1847026,11.96,0.71,-2.73,0.01,94,282,2.8320376873016357,2.832019567489624
10,-0.43142208456993103,-0.6432104110717773,0.01453871838748455,36.7157122,3.1846447,11.96,4.92,-3.52,0.0,94,323,6.056149005889893,6.056145668029785
11,-0.5423034429550171,-0.6252857446670532,0.016323909163475037,36.7157957,3.1845724,11.97,7.14,-4.95,-0.01,93,324,8.693510055541992,8.693498611450195
12,-0.46168825030326843,-0.6161382794380188,-0.01432791631668806,36.7159165,3.1844676,11.99,7.88,-5.56,0.0,93,324,9.653878211975098,9.653878211975098
13,-0.3544091582298279,-0.6201711297035217,-0.02228941023349762,36.7160212,3.184375,12.03,7.24,-5.16,-0.01,93,324,8.900167465209961,8.900151252746582
14,0.004985691513866186,-0.6337445378303528,-0.02423137240111828,36.7161061,3.1842998,12.04,4.86,-3.56,0.05,92,323,6.035951137542725,6.035715103149414
15,-0.05290469899773598,-1.2795836925506592,-0.30809319019317627,36.7161469,3.1842481,12.2,0.79,-2.89,-0.28,92,286,3.015148639678955,3.001375913619995
16,-0.39156806468963623,-2.144921064376831,-0.054442889988422394,36.7161232,3.1841766,13.38,-3.42,-4.88,-1.02,91,237,6.05374813079834,5.966217041015625
17,-0.5064252018928528,-2.1674728393554688,0.03958625718951225,36.7160523,3.1840521,15.73,-5.18,-7.48,-1.53,91,235,9.232292175292969,9.103215217590332
18,-0.4236380159854889,-2.1641955375671387,0.01711134985089302,36.7159784,3.1839182,18.19,-5.5,-8.03,-1.59,90,236,9.873589515686035,9.743725776672363
19,-0.49010559916496277,-2.164712429046631,-0.004832363687455654,36.7158908,3.1837568,21.06,-5.54,-8.22,-1.56,90,235,10.038285255432129,9.915026664733887
20,-0.4603677988052368,-2.165060520172119,0.04131576046347618,36.7158157,3.1836172,23.52,-5.54,-8.24,-1.59,90,235,10.057412147521973,9.930246353149414
21,-0.42611420154571533,-2.164792537689209,0.00014481642574537545,36.7157409,3.1834781,26.01,-5.53,-8.28,-1.6,89,235,10.096502304077148,9.968907356262207
22,-0.5004658102989197,-2.1642837524414062,0.0007446337258443236,36.7156535,3.1833153,28.91,-5.53,-8.27,-1.59,89,236,10.081562042236328,9.953941345214844
23,-0.43430963158607483,-2.163567066192627,0.03356330096721649,36.7155786,3.1831755,31.4,-5.48,-8.29,-1.62,88,236,10.075225830078125,9.943668365478516
24,-0.43118730187416077,-2.163795232772827,-0.019918696954846382,36.7155041,3.1830356,33.9,-5.5,-8.28,-1.62,88,236,10.079029083251953,9.947503089904785
25,-0.4842601418495178,-2.1640267372131348,0.03186443820595741,36.7154172,3.1828731,36.82,-5.52,-8.31,-1.62,87,236,10.11264419555664,9.981406211853027
26,-0.43280935287475586,-2.1638855934143066,0.031430426985025406,36.7153421,3.182733,39.32,-5.55,-8.29,-1.63,87,236,10.116425514221191,9.983866691589355
27,-0.4831835925579071,-2.1660358905792236,-0.0017581564607098699,36.7152547,3.1825696,42.24,-5.49,-8.28,-1.62,86,235,10.073634147644043,9.941215515136719
28,-0.4617484509944916,-2.1644766330718994,0.042473502457141876,36.7151802,3.1824302,44.75,-5.49,-8.29,-1.63,86,235,10.083318710327148,9.950508117675781
29,-0.39999908208847046,-2.1625285148620605,-0.008786697871983051,36.7151057,3.1822903,47.25,-5.5,-8.26,-1.63,85,236,10.063116073608398,9.930207252502441
30,-0.19868198037147522,-2.168043375015259,0.02107996679842472,36.715025,3.1821409,49.95,-4.4,-6.51,-1.3,85,235,7.972874164581299,7.866069793701172
31,-0.03859374672174454,-2.1570324897766113,0.010809688828885555,36.714977,3.1820509,51.42,-2.77,-4.28,-0.59,85,236,5.142560005187988,5.10816764831543
32,-0.14117787778377533,-2.111020803451538,0.04262114688754082,36.7149402,3.1819761,51.94,-2.13,-3.69,-0.08,84,239,4.265712261199951,4.264861106872559
33,-0.14515526592731476,-2.102632761001587,-0.023136284202337265,36.7149121,3.1819148,51.94,-2.09,-3.7,-0.02,84,239,4.2568135261535645,4.256762981414795
34,0.055642031133174896,-2.1177256107330322,-0.004795707296580076,36.7148821,3.1818499,51.87,-1.54,-2.61,0.2,84,238,3.042602062225342,3.0355050563812256
35,0.00027811332256533206,-2.391249895095825,-0.05539611726999283,36.7148644,3.1818194,50.67,-1.16,-1.18,1.34,83,223,2.1398963928222656,1.6613739728927612
36,-0.00902632437646389,-2.467395544052124,0.014734598807990551,36.7148499,3.1818049,48.38,-1.03,-0.79,1.42,83,218,1.9340450763702393,1.3025875091552734
37,-0.05512687936425209,-2.4691162109375,0.0289447158575058,36.7148335,3.1817893,45.77,-1.04,-0.85,1.42,82,218,1.9632478952407837,1.3534561395645142
38,-0.016012683510780334,-2.470019578933716,-0.0185096338391304,36.7148191,3.181775,43.53,-1.07,-0.88,1.42,82,218,1.9913543462753296,1.388822317123413
39,-0.01878276839852333,-2.469554901123047,0.025301294401288033,36.7148022,3.181758,40.92,-1.07,-0.87,1.44,82,218,1.998944878578186,1.3838552236557007
40,-0.05250959470868111,-2.4694812297821045,-0.015439631417393684,36.7147876,3.1817434,38.68,-1.06,-0.88,1.45,81,218,2.007246255874634,1.3872798681259155
41,-0.020203158259391785,-2.469345808029175,0.024231115356087685,36.7147731,3.1817288,36.43,-1.07,-0.88,1.45,81,218,2.0099596977233887,1.3883634805679321
42,-0.058204468339681625,-2.4699127674102783,0.01604229398071766,36.714756,3.1817116,33.82,-1.06,-0.89,1.46,81,218,2.0182273387908936,1.3884319067001343
43,-0.01229169312864542,-2.4694762229919434,-0.007541659753769636,36.7147414,3.1816969,31.57,-1.07,-0.89,1.46,80,218,2.026482105255127,1.3967453241348267
44,-0.03090393729507923,-2.4691972732543945,0.0275073554366827,36.7147245,3.1816798,28.94,-1.06,-0.88,1.46,80,218,2.012664794921875,1.3794128894805908
45,-0.04688718542456627,-2.46952223777771,-0.02207469567656517,36.7147099,3.1816651,26.7,-1.06,-0.89,1.46,80,218,2.021073579788208,1.390551209449768
46,-0.02843608893454075,-2.4694221019744873,0.029473287984728813,36.7146953,3.1816503,24.46,-1.06,-0.88,1.47,79,218,2.0270326137542725,1.3862799406051636
47,-0.061529356986284256,-2.4701671600341797,0.009450082667171955,36.7146783,3.1816331,21.83,-1.06,-0.88,1.47,79,218,2.0213892459869385,1.3849759101867676
48,-0.004552495200186968,-2.4690284729003906,0.007763408124446869,36.7146636,3.1816184,19.58,-1.06,-0.88,1.47,78,218,2.0194473266601562,1.3840492963790894
49,-0.030158208683133125,-2.469411611557007,0.030303047969937325,36.7146466,3.1816012,16.96,-1.05,-0.87,1.47,78,218,2.0156052112579346,1.370822548866272
50,-0.03377620503306389,-2.470569133758545,-0.027348576113581657,36.7146321,3.1815865,14.71,-1.06,-0.87,1.47,78,218,2.0218863487243652,1.3804618120193481
51,-0.14317306876182556,3.1321253776550293,-0.07971525937318802,36.7146131,3.181576,12.59,-1.93,-0.06,1.05,77,179,2.207451343536377,1.9365932941436768
52,-0.2515324056148529,2.670559883117676,-0.0049053034745156765,36.714568,3.1815957,11.98,-3.66,1.83,-0.06,77,153,4.095889568328857,4.09532356262207
53,-0.12138932943344116,2.6719987392425537,0.006937023252248764,36.7145143,3.1816293,12.06,-3.98,2.05,0.03,77,153,4.4869465827941895,4.486779689788818
54,-0.05443715304136276,3.0270376205444336,0.20043498277664185,36.7144624,3.1816545,12.01,-3.46,0.37,0.05,76,173,3.48831844329834,3.4879391193389893
55,-0.3954789340496063,-2.1949145793914795,0.06801637262105942,36.7144135,3.1816191,11.99,-3.08,-4.17,0.01,76,234,5.19485330581665,5.194821834564209
56,-0.5226972699165344,-2.154541015625,0.014982218854129314,36.7143639,3.1815242,11.99,-4.34,-6.81,0.0,75,236,8.081172943115234,8.08116626739502
57,-0.43510833382606506,-2.1558997631073,-0.015216179192066193,36.7142887,3.181378,12.01,-5.01,-7.69,0.0,75,236,9.185039520263672,9.185039520263672
58,-0.3487330377101898,-2.1583335399627686,0.007948345504701138,36.714222,3.181251,12.03,-4.65,-7.08,0.0,75,236,8.474640846252441,8.474640846252441
59,-0.22685013711452484,-2.143355131149292,0.0021278192289173603,36.7141563,3.1811244,12.02,-3.65,-5.8,0.03,74,237,6.856595516204834,6.856480121612549
60,-0.3007921576499939,-2.113085985183716,0.02669684961438179,36.7141098,3.1810287,12.0,-3.3,-5.66,0.01,74,238,6.559459686279297,6.559437274932861
61,-0.2686116099357605,-2.099485158920288,-0.022229967638850212,36.7140586,3.1809177,12.0,-3.23,-5.69,0.01,73,239,6.54957914352417,6.549563884735107
62,-0.1390102058649063,-2.1004462242126465,0.027461141347885132,36.7140158,3.1808245,12.0,-2.88,-5.07,0.0,73,239,5.843278884887695,5.843275547027588
63,0.18237797915935516,-2.1007633209228516,-0.012441186234354973,36.7139847,3.1807568,11.97,-1.47,-2.57,0.03,73,239,2.969219207763672,2.9690351486206055
64,0.10234207659959793,-2.1006124019622803,0.02188165858387947,36.7139747,3.1807344,11.99,-0.02,-0.06,0.0,72,239,0.06775189936161041,0.06701412796974182
65,-0.026680579409003258,-2.101755142211914,0.05669764056801796,36.7139761,3.1807367,11.95,0.26,0.0,0.03,72,239,0.26752740144729614,0.2655094861984253
