timestamp,pitch,yaw,roll,lat,lon,alt,velocity_x,velocity_y,velocity_z,battery,heading,airspeed,groundspeed
0,-0.021684618666768074,0.03534552827477455,0.009619721211493015,36.7156066,3.18463,23.24,-0.02,0.02,-0.14,96,2,0.14943979680538177,0.03154994919896126
1,0.0037069525569677353,0.04374055564403534,0.11301610618829727,36.715607,3.1846329,23.27,0.06,0.69,-0.05,95,2,0.6961063742637634,0.6942623853683472
2,-0.07537052035331726,1.9561048746109009,-0.04697110131382942,36.7156108,3.1846662,23.3,0.31,2.54,-0.03,95,112,2.5656285285949707,2.5654349327087402
3,0.008930412121117115,1.2561126947402954,0.03310862556099892,36.7156152,3.1847103,23.28,0.23,2.4,0.0,95,71,2.4197816848754883,2.4197776317596436
4,0.050027791410684586,2.612039566040039,0.3288241922855377,36.715612,3.184729,23.29,-1.01,-0.83,-0.04,94,149,1.3182885646820068,1.3174504041671753
5,-0.14951983094215393,-1.9737452268600464,-0.017805417999625206,36.7155836,3.1846797,23.26,-2.25,-3.33,0.0,94,246,4.028401851654053,4.02839994430542
6,-0.12289158254861832,-2.192514181137085,0.045403800904750824,36.7155525,3.1846215,23.3,-2.15,-3.41,0.0,93,234,4.038219928741455,4.038220405578613
7,-0.13831235468387604,-1.2658262252807617,0.23708948493003845,36.7155375,3.1845585,23.27,0.9,-2.82,0.01,93,287,2.9654557704925537,2.965437889099121
8,-0.45954570174217224,-0.6576875448226929,0.09585259854793549,36.7155761,3.1845082,23.27,4.71,-3.4,0.0,93,322,5.816225528717041,5.816225051879883
9,-0.4828181266784668,-0.6294431686401367,0.005814873613417149,36.7156575,3.1844374,23.27,7.07,-4.91,0.0,92,323,8.611992835998535,8.61198902130127
10,-0.5097014904022217,-0.6202967762947083,-0.021829519420862198,36.7157605,3.1843478,23.29,7.89,-5.54,0.0,92,324,9.644373893737793,9.644372940063477
11,-0.324611634016037,-0.6225780844688416,0.014074338600039482,36.7158836,3.1842394,23.33,7.35,-5.25,-0.01,91,324,9.035069465637207,9.035058975219727
12,-0.015115980990231037,-0.6489220261573792,-0.05009249970316887,36.7159813,3.1841521,23.33,4.54,-3.5,0.03,91,322,5.745625019073486,5.745494842529297
13,-0.07675434648990631,-1.4551465511322021,-0.30187830328941345,36.7160166,3.1841006,23.55,0.32,-2.96,-0.35,91,276,3.0053908824920654,2.9844493865966797
14,-0.43889114260673523,-2.1353468894958496,-0.03501535952091217,36.7159948,3.1840386,24.59,-3.28,-4.74,-0.99,90,237,5.853107929229736,5.768741130828857
15,-0.44947993755340576,-2.1624562740325928,-0.024466263130307198,36.7159254,3.1839169,26.89,-5.14,-7.38,-1.53,90,236,9.131004333496094,9.001749992370605
16,-0.4841213524341583,-2.1647095680236816,-0.008290008641779423,36.7158516,3.1837839,29.33,-5.51,-8.03,-1.6,89,235,9.879180908203125,9.747958183288574
17,-0.43509340286254883,-2.163679838180542,0.031075142323970795,36.715764,3.1836227,32.2,-5.54,-8.22,-1.58,89,236,10.045860290527344,9.92038345336914
18,-0.4531264305114746,-2.1646342277526855,-0.03343018889427185,36.7156888,3.1834831,34.67,-5.54,-8.25,-1.59,88,235,10.07239055633545,9.945718765258789
19,-0.49196600914001465,-2.165177345275879,0.0012389733456075191,36.7156139,3.1833438,37.15,-5.52,-8.26,-1.6,88,235,10.071930885314941,9.943957328796387
20,-0.41971319913864136,-2.1617283821105957,-0.0013935043243691325,36.7155267,3.1831806,40.06,-5.49,-8.26,-1.61,87,236,10.060810089111328,9.931145668029785
21,-0.47150731086730957,-2.163222551345825,-0.0360601581633091,36.7154523,3.1830417,42.54,-5.55,-8.28,-1.62,87,236,10.10657787322998,9.975607872009277
22,-0.44397321343421936,-2.1641223430633545,0.03814725950360298,36.7153647,3.1828783,45.47,-5.51,-8.29,-1.63,87,236,10.095582962036133,9.962861061096191
23,-0.42942678928375244,-2.1643059253692627,-0.019327450543642044,36.71529,3.1827383,47.97,-5.49,-8.27,-1.62,86,236,10.06433391571045,9.931779861450195
24,-0.48895570635795593,-2.1632838249206543,0.022620374336838722,36.7152031,3.1825755,50.88,-5.51,-8.28,-1.63,86,236,10.087074279785156,9.953907012939453
25,-0.42990872263908386,-2.165163993835449,0.02953830361366272,36.7151283,3.1824358,53.38,-5.56,-8.3,-1.64,85,235,10.132345199584961,9.997636795043945
26,-0.4453215003013611,-2.16485595703125,-0.020738009363412857,36.7150533,3.1822957,55.89,-5.5,-8.28,-1.63,85,235,10.081787109375,9.948195457458496
27,-0.42954549193382263,-2.16404390335083,0.02988438867032528,36.7149664,3.182133,58.81,-5.46,-8.19,-1.62,84,236,9.981637954711914,9.848675727844238
28,-0.16895045340061188,-2.1675045490264893,-0.007200074382126331,36.7148976,3.1820052,61.12,-4.5,-6.68,-1.34,84,235,8.175910949707031,8.065160751342773
29,-0.06586415320634842,-2.1517109870910645,0.04451167210936546,36.7148419,3.1819009,62.8,-2.64,-4.11,-0.53,83,236,4.920158863067627,4.890907287597656
30,-0.11976008862257004,-2.0983619689941406,-0.002525463467463851,36.7148113,3.1818373,63.23,-2.07,-3.68,-0.1,83,239,4.23400354385376,4.232806205749512
31,-0.17592167854309082,-2.0868759155273438,0.027106205001473427,36.7147842,3.181776,63.25,-2.01,-3.7,-0.01,83,240,4.216793060302734,4.216771125793457
32,0.00811027456074953,-2.097524881362915,-0.03927302733063698,36.7147548,3.1817098,63.19,-1.52,-2.7,0.18,82,239,3.1168272495269775,3.111558198928833
33,0.029702702537178993,-2.374323844909668,-0.017101667821407318,36.7147372,3.1816781,62.07,-1.17,-1.21,1.31,82,223,2.1396331787109375,1.6911462545394897
34,-0.05565013736486435,-2.4634363651275635,0.01338265836238861,36.7147203,3.181661,59.43,-1.02,-0.79,1.43,82,218,1.9311954975128174,1.295190691947937
35,-0.012087726034224033,-2.4690396785736084,-0.009085940197110176,36.7147062,3.1816476,57.19,-1.05,-0.85,1.43,81,218,1.973973274230957,1.3599859476089478
36,-0.06328228861093521,-2.469686269760132,0.009891433641314507,36.7146918,3.1816333,54.94,-1.06,-0.87,1.43,81,218,1.9912893772125244,1.38068687915802
37,-0.04038279876112938,-2.469790458679199,-0.024438029155135155,36.7146748,3.1816163,52.33,-1.07,-0.88,1.44,81,218,2.0038442611694336,1.3873584270477295
38,-0.033175550401210785,-2.4694344997406006,0.027399729937314987,36.7146604,3.1816017,50.1,-1.06,-0.88,1.46,80,218,2.01338529586792,1.3855149745941162
39,-0.06227622181177139,-2.4690494537353516,-0.003983206581324339,36.7146433,3.1815846,47.47,-1.06,-0.88,1.46,80,218,2.0145888328552246,1.3879817724227905
40,-0.010691980831325054,-2.469557285308838,-0.0005286339437589049,36.7146288,3.1815699,45.23,-1.07,-0.88,1.46,79,218,2.0197596549987793,1.3902294635772705
41,-0.061749037355184555,-2.469569683074951,-0.0021299251820892096,36.7146142,3.1815552,42.99,-1.06,-0.89,1.47,79,218,2.0299670696258545,1.3935824632644653
42,-0.030807722359895706,-2.469902276992798,-0.025472408160567284,36.7145971,3.181538,40.36,-1.06,-0.88,1.47,79,218,2.025042772293091,1.3863760232925415
43,-0.04863786697387695,-2.4692635536193848,0.027544032782316208,36.7145826,3.1815233,38.11,-1.06,-0.88,1.47,78,218,2.0226380825042725,1.3863956928253174
44,-0.06095443293452263,-2.4693098068237305,-0.0067631155252456665,36.7145656,3.1815061,35.49,-1.06,-0.89,1.47,78,218,2.0301339626312256,1.390447735786438
45,-0.010707192122936249,-2.469318151473999,0.016612479463219643,36.7145509,3.1814913,33.24,-1.06,-0.88,1.47,78,218,2.0229077339172363,1.383278250694275
46,-0.0500001460313797,-2.4699313640594482,0.023152688518166542,36.7145339,3.1814742,30.61,-1.05,-0.88,1.46,77,218,2.020270586013794,1.3854974508285522
47,-0.02033781260251999,-2.46964430809021,-0.01568012684583664,36.7145194,3.1814596,28.37,-1.07,-0.88,1.47,77,218,2.029698610305786,1.3916218280792236
48,-0.05532778427004814,-2.4700334072113037,0.020020587369799614,36.7145048,3.1814448,26.11,-1.05,-0.88,1.47,77,218,2.0207455158233643,1.3800137042999268
49,-0.11026707291603088,-3.0997815132141113,-0.12700040638446808,36.7144862,3.1814336,23.97,-1.87,-0.16,1.11,76,182,2.186823844909668,1.8830525875091553
50,-0.20385383069515228,2.675994873046875,0.011819087900221348,36.7144422,3.1814515,23.27,-3.62,1.78,-0.06,76,153,4.036984920501709,4.036450386047363
51,-0.17756834626197815,2.679673194885254,-0.03165401145815849,36.7143884,3.1814846,23.37,-4.08,2.05,0.02,75,153,4.5677032470703125,4.567615985870361
52,-0.0056367130018770695,3.1252472400665283,0.22350071370601654,36.7143273,3.1815126,23.3,-3.41,0.08,0.04,75,179,3.4119999408721924,3.4116921424865723
53,-0.42753127217292786,-2.2006516456604004,0.1202239990234375,36.7142858,3.1814818,23.29,-3.01,-3.88,0.02,75,233,4.923343181610107,4.923298358917236
54,-0.4704594314098358,-2.1534481048583984,-0.017821889370679855,36.7142281,3.1813713,23.29,-4.39,-6.97,0.0,74,236,8.245437622070312,8.245433807373047
55,-0.4796965420246124,-2.151792049407959,0.0034471633844077587,36.7141639,3.1812454,23.3,-4.93,-7.71,0.0,74,236,9.155061721801758,9.155061721801758
56,-0.31493842601776123,-2.152015209197998,0.029862014576792717,36.7140978,3.1811174,23.33,-4.64,-7.16,0.0,73,236,8.542588233947754,8.542587280273438
57,-0.27207130193710327,-2.1414783000946045,0.015180626884102821,36.7140317,3.1809892,23.31,-3.67,-5.87,0.03,73,237,6.934319496154785,6.934242248535156
58,-0.24883073568344116,-2.1115498542785645,0.03350827097892761,36.7139848,3.1808926,23.29,-3.32,-5.66,0.01,73,239,6.56794548034668,6.567931175231934
59,-0.3094102144241333,-2.0999820232391357,0.014314412139356136,36.7139335,3.1807816,23.3,-3.22,-5.65,0.01,72,239,6.509714126586914,6.509703636169434
60,-0.11546482890844345,-2.0995051860809326,0.010270501486957073,36.7138907,3.1806885,23.3,-2.95,-5.18,0.0,72,239,5.9703288078308105,5.9703288078308105
61,0.15562017261981964,-2.1008450984954834,0.024395087733864784,36.7138549,3.1806105,23.27,-1.3,-2.28,0.02,71,239,2.631065607070923,2.630979061126709
62,0.09700851887464523,-2.1008031368255615,-0.0264695156365633,36.7138467,3.1805922,23.28,-0.07,-0.14,-0.01,71,239,0.16760613024234772,0.16684968769550323
63,-0.020276594907045364,-2.1021151542663574,0.08860597014427185,36.7138478,3.180594,23.25,0.22,0.05,0.03,71,239,0.23813609778881073,0.23480179905891418
