timestamp,pitch,yaw,roll,lat,lon,alt,velocity_x,velocity_y,velocity_z,battery,heading,airspeed,groundspeed
0,-0.006912736222147942,0.029046079143881798,-0.024716515094041824,36.7156066,3.18463,26.68,-0.02,0.01,0.09,96,1,0.10074076056480408,0.03391178697347641
1,-0.052878301590681076,0.02811112254858017,0.1186748743057251,36.7156081,3.184632,26.62,0.36,0.5,0.0,95,1,0.6226817965507507,0.6226792931556702
2,-0.2960766553878784,1.2559958696365356,-0.1001313254237175,36.7156221,3.184653,26.57,1.86,2.29,-0.03,95,71,2.953378915786743,2.9532041549682617
3,-0.27287420630455017,0.9010676741600037,-0.04204590618610382,36.7156648,3.184718,26.63,3.35,4.04,-0.07,94,51,5.256721496582031,5.256231307983398
4,-0.20568808913230896,0.8670294880867004,0.02697751857340336,36.7157128,3.1847889,26.69,3.56,4.21,-0.05,94,49,5.519242286682129,5.518985748291016
5,0.16018971800804138,0.8557571172714233,-0.022560318931937218,36.7157616,3.1848602,26.74,2.09,2.43,-0.01,94,49,3.2110328674316406,3.211014747619629
6,0.22856192290782928,-0.003952053841203451,-0.25418776273727417,36.7157697,3.1848677,26.74,-1.05,-1.67,-0.01,93,359,1.976305603981018,1.9762351512908936
7,-0.13812516629695892,-1.8423806428909302,-0.009245628491044044,36.7157451,3.1848225,26.79,-2.27,-3.22,0.0,93,269,3.952389717102051,3.9523773193359375
8,-0.0744529739022255,-2.1123735904693604,0.02005169540643692,36.7157104,3.1847582,26.77,-1.98,-3.19,0.01,93,238,3.7639214992523193,3.7639009952545166
9,-0.07251830399036407,-1.4358173608779907,0.28284159302711487,36.7156972,3.1847063,26.75,0.44,-2.78,0.01,92,277,2.8188858032226562,2.818849802017212
10,-0.46637579798698425,-0.650712788105011,0.056577298790216446,36.715739,3.1846488,26.75,4.71,-3.4,0.0,92,322,5.8132758140563965,5.81327486038208
11,-0.49055159091949463,-0.6287458539009094,0.04039517417550087,36.7158198,3.1845781,26.76,7.02,-4.9,0.0,91,323,8.566654205322266,8.566651344299316
12,-0.5148102045059204,-0.622736394405365,-0.010990346781909466,36.71594,3.1844733,26.78,7.87,-5.56,0.0,91,324,9.645037651062012,9.645036697387695
13,-0.3543590009212494,-0.6228286027908325,0.02734670415520668,36.7160449,3.1843806,26.81,7.33,-5.21,-0.01,91,324,8.998420715332031,8.998408317565918
14,-0.01855963096022606,-0.6323742270469666,-0.06371056288480759,36.7161311,3.184304,26.82,5.06,-3.7,0.04,90,323,6.274898052215576,6.27470064163208
15,-0.0837794616818428,-1.4705654382705688,-0.26732081174850464,36.7161764,3.1842425,27.04,0.28,-2.97,-0.35,90,275,3.0084612369537354,2.9868786334991455
16,-0.4393326938152313,-2.1352384090423584,-0.07541442662477493,36.7161543,3.1841804,28.08,-3.29,-4.74,-0.99,89,237,5.864692687988281,5.779721260070801
17,-0.45704975724220276,-2.161417245864868,0.03128274157643318,36.7160848,3.1840585,30.4,-5.15,-7.39,-1.52,89,236,9.147993087768555,9.020030975341797
18,-0.4467927813529968,-2.1643049716949463,-0.032924819737672806,36.7160109,3.1839252,32.85,-5.53,-8.06,-1.59,88,236,9.910730361938477,9.781383514404297
19,-0.49176567792892456,-2.1653406620025635,-0.0013089358108118176,36.7159357,3.1837872,35.31,-5.54,-8.21,-1.56,88,235,10.034347534179688,9.91085147857666
20,-0.41969919204711914,-2.162400722503662,0.000542755878996104,36.7158482,3.1836241,38.19,-5.54,-8.27,-1.58,88,236,10.082601547241211,9.956868171691895
21,-0.4570268988609314,-2.1633055210113525,-0.03949928656220436,36.7157732,3.1834847,40.66,-5.53,-8.21,-1.59,87,236,10.032536506652832,9.905065536499023
22,-0.45735234022140503,-2.1639132499694824,0.034860335290431976,36.7156862,3.1833227,43.56,-5.51,-8.3,-1.61,87,236,10.097321510314941,9.966987609863281
23,-0.42721617221832275,-2.1641077995300293,-0.013137188740074635,36.7156114,3.1831825,46.06,-5.53,-8.31,-1.62,86,236,10.116934776306152,9.985870361328125
24,-0.48123911023139954,-2.167107105255127,-0.021070918068289757,36.7155365,3.1830429,48.56,-5.52,-8.28,-1.62,86,235,10.085387229919434,9.954244613647461
25,-0.43756547570228577,-2.1640708446502686,0.03282597288489342,36.7154493,3.1828797,51.47,-5.49,-8.3,-1.63,85,236,10.095288276672363,9.962324142456055
26,-0.4319867789745331,-2.16438364982605,-0.020204812288284302,36.7153746,3.1827397,53.98,-5.51,-8.27,-1.62,85,235,10.076676368713379,9.944003105163574
27,-0.4799766540527344,-2.164997100830078,0.03663990646600723,36.7152874,3.1825769,56.9,-5.5,-8.3,-1.62,84,235,10.097916603088379,9.965720176696777
28,-0.4296049475669861,-2.1625185012817383,0.01818745583295822,36.7152128,3.182437,59.41,-5.52,-8.29,-1.63,84,236,10.096534729003906,9.963894844055176
29,-0.43268898129463196,-2.1660332679748535,-0.027082189917564392,36.7151381,3.1822974,61.9,-5.54,-8.26,-1.62,83,235,10.081584930419922,9.949285507202148
30,-0.2010524868965149,-2.167919397354126,0.03212310001254082,36.7150567,3.1821466,64.63,-4.46,-6.64,-1.32,83,235,8.114584922790527,8.004905700683594
31,-0.052974190562963486,-2.157562017440796,-0.010587980970740318,36.7150079,3.1820549,66.14,-2.83,-4.37,-0.63,83,236,5.249513626098633,5.211293697357178
32,-0.11565564572811127,-2.098240375518799,0.03804973512887955,36.7149712,3.1819793,66.71,-2.08,-3.68,-0.1,82,239,4.234503746032715,4.233299732208252
33,-0.16872651875019073,-2.087026357650757,-0.018759863451123238,36.7149439,3.1819179,66.73,-2.01,-3.71,-0.01,82,240,4.223800182342529,4.223777770996094
34,0.007333435583859682,-2.089280128479004,0.018293200060725212,36.7149182,3.1818598,66.71,-1.62,-2.95,0.08,82,240,3.370630979537964,3.369582176208496
35,-0.007593316491693258,-2.3760106563568115,-0.03458232432603836,36.7148971,3.1818205,65.54,-1.16,-1.21,1.32,81,223,2.1430346965789795,1.6870535612106323
36,-0.002780759008601308,-2.4695441722869873,0.0006303267437033355,36.7148825,3.1818056,63.26,-1.03,-0.79,1.43,81,218,1.9431116580963135,1.306185245513916
37,-0.03960895165801048,-2.469388484954834,0.030928658321499825,36.7148661,3.18179,60.64,-1.04,-0.84,1.42,80,218,1.9592950344085693,1.343472957611084
38,-0.028623057529330254,-2.469754457473755,-0.02426941506564617,36.7148517,3.1817757,58.4,-1.07,-0.88,1.43,80,218,1.9971061944961548,1.3886653184890747
39,-0.00870583951473236,-2.4689931869506836,0.01553930714726448,36.7148347,3.1817587,55.79,-1.06,-0.87,1.44,80,218,1.9991449117660522,1.3818248510360718
40,-0.059275805950164795,-2.4697439670562744,-0.004069490358233452,36.7148202,3.1817442,53.55,-1.07,-0.87,1.45,79,218,2.0127861499786377,1.3886749744415283
41,-0.011760489083826542,-2.4694361686706543,0.01718214713037014,36.7148056,3.1817295,51.31,-1.07,-0.88,1.46,79,218,2.0221965312957764,1.3923124074935913
42,-0.05152018740773201,-2.4702000617980957,0.02545430324971676,36.7147886,3.1817123,48.69,-1.06,-0.88,1.46,79,218,2.021059274673462,1.3888139724731445
43,-0.011666211299598217,-2.4691195487976074,-0.014618268236517906,36.714774,3.1816976,46.44,-1.06,-0.88,1.46,78,218,2.0183095932006836,1.3840687274932861
44,-0.015865491703152657,-2.46911883354187,0.02264593355357647,36.714757,3.1816804,43.82,-1.06,-0.87,1.47,78,218,2.019345998764038,1.3823844194412231
45,-0.0497109517455101,-2.469245672225952,-0.02677762694656849,36.7147424,3.1816658,41.57,-1.07,-0.88,1.47,78,218,2.0254106521606445,1.390884518623352
46,-0.022073067724704742,-2.4694857597351074,0.025583669543266296,36.7147278,3.1816511,39.32,-1.05,-0.88,1.47,77,218,2.017564058303833,1.3804206848144531
47,-0.0598379522562027,-2.4697186946868896,0.010780966840684414,36.7147108,3.1816339,36.7,-1.06,-0.88,1.47,77,218,2.021390914916992,1.3839505910873413
48,-0.009071786887943745,-2.469526529312134,-0.004178423900157213,36.7146963,3.1816191,34.45,-1.07,-0.88,1.48,76,218,2.030205011367798,1.3894681930541992
49,-0.028956560418009758,-2.4695475101470947,0.02675691619515419,36.7146792,3.1816019,31.83,-1.07,-0.88,1.48,76,218,2.0332634449005127,1.3933206796646118
50,-0.034489989280700684,-2.4703078269958496,-0.025700943544507027,36.7146646,3.1815872,29.58,-1.06,-0.87,1.47,76,218,2.020970344543457,1.3771066665649414
51,-0.1397963911294937,-3.1047937870025635,-0.08097042143344879,36.714646,3.1815761,27.45,-1.86,-0.14,1.1,75,182,2.1769344806671143,1.8729348182678223
52,-0.25022751092910767,2.6772327423095703,-0.01588880829513073,36.7146018,3.1815944,26.75,-3.64,1.78,-0.06,75,153,4.059948444366455,4.059401988983154
53,-0.13852766156196594,2.6792283058166504,0.007601537276059389,36.7145478,3.1816275,26.84,-4.06,2.03,0.03,75,153,4.545792102813721,4.545687675476074
54,-0.05618168041110039,3.1197011470794678,0.25074970722198486,36.7144869,3.1816551,26.78,-3.39,0.05,0.04,74,178,3.3946428298950195,3.394364833831787
55,-0.3719628155231476,-2.1951019763946533,0.0833115428686142,36.7144455,3.1816239,26.77,-3.03,-3.9,0.01,74,234,4.944551467895508,4.944519519805908
56,-0.5193365812301636,-2.146573305130005,-0.0020825820975005627,36.7143972,3.1815323,26.77,-4.2,-6.7,0.01,73,237,7.913548469543457,7.91353702545166
57,-0.4294639825820923,-2.15012264251709,-0.012217896059155464,36.7143237,3.1813874,26.79,-4.93,-7.72,0.0,73,236,9.16826057434082,9.16826057434082
58,-0.3514937162399292,-2.1524994373321533,-0.019035544246435165,36.7142575,3.1812594,26.8,-4.67,-7.19,0.0,73,236,8.580310821533203,8.580309867858887
59,-0.21471506357192993,-2.1411516666412354,0.010817090049386024,36.7141914,3.1811311,26.79,-3.67,-5.84,0.03,72,237,6.902519226074219,6.902433395385742
60,-0.29521921277046204,-2.1125547885894775,0.0026231929659843445,36.7141446,3.1810349,26.77,-3.32,-5.67,0.01,72,238,6.5717949867248535,6.571781635284424
61,-0.26102572679519653,-2.099426031112671,0.026886148378252983,36.7141006,3.1809396,26.78,-3.22,-5.65,0.0,71,239,6.508639335632324,6.508632659912109
62,-0.16868890821933746,-2.1001956462860107,0.0072256154380738735,36.7140504,3.1808303,26.78,-2.94,-5.16,0.0,71,239,5.940699577331543,5.940700054168701
63,0.17605292797088623,-2.1009764671325684,0.005167309194803238,36.7140182,3.1807603,26.75,-1.6,-2.78,0.03,71,239,3.2185864448547363,3.2183992862701416
64,0.08276226371526718,-2.1005003452301025,0.027947692200541496,36.7140067,3.1807348,26.76,-0.07,-0.14,-0.01,70,239,0.16347481310367584,0.16266725957393646
65,0.005218867212533951,-2.099968910217285,0.03809579834342003,36.7140078,3.1807364,26.73,0.23,0.05,0.03,70,239,0.24287672340869904,0.2398756742477417
