timestamp,pitch,yaw,roll,lat,lon,alt,velocity_x,velocity_y,velocity_z,battery,heading,airspeed,groundspeed
0,0.030558733269572258,0.009610848501324654,0.008913688361644745,36.7156067,3.1846299,17.14,-0.02,0.02,-0.03,96,0,0.05369466915726662,0.04023757576942444
1,-0.09454776346683502,0.00201386958360672,0.08232355117797852,36.7156078,3.1846317,17.2,0.31,0.45,-0.01,95,0,0.5554651618003845,0.5553104877471924
2,-0.16464827954769135,1.2720729112625122,-0.0806051641702652,36.7156233,3.1846554,17.16,1.62,1.98,-0.02,95,72,2.568260669708252,2.568138837814331
3,-0.06164233386516571,0.8652708530426025,-0.0010667408350855112,36.7156484,3.1846929,17.19,1.92,2.31,-0.02,95,49,3.013038158416748,3.012972116470337
4,0.23335449397563934,0.7601097226142883,-0.054166052490472794,36.7156693,3.1847221,17.19,0.67,0.58,0.0,94,43,0.8979665637016296,0.897942304611206
5,-0.06801259517669678,-0.9365788698196411,-0.24714280664920807,36.715656,3.1846935,17.2,-2.04,-2.99,-0.04,94,306,3.630657434463501,3.6304149627685547
6,-0.14400549232959747,-2.3834633827209473,0.0592353455722332,36.7156255,3.1846383,17.22,-2.31,-3.34,0.01,93,223,4.073318004608154,4.073305130004883
7,-0.03919019177556038,-1.7844566106796265,0.21316710114479065,36.7155983,3.1845734,17.2,-0.57,-3.05,0.01,93,257,3.1082394123077393,3.1082003116607666
8,-0.34331372380256653,-0.665188193321228,0.0915052592754364,36.7156158,3.1845245,17.18,3.28,-2.96,0.0,93,321,4.428931713104248,4.428929805755615
9,-0.5148101449012756,-0.6238797903060913,0.0369311198592186,36.7156963,3.1844512,17.19,6.63,-4.59,0.0,92,324,8.068235397338867,8.068232536315918
10,-0.47935035824775696,-0.6176363825798035,-0.013040830381214619,36.7157956,3.1843654,17.21,7.84,-5.46,0.0,92,324,9.564401626586914,9.564400672912598
11,-0.4508883059024811,-0.620278537273407,-0.026479870080947876,36.7159025,3.1842714,17.22,7.75,-5.51,-0.01,91,324,9.51818561553955,9.518174171447754
12,-0.07440037280321121,-0.6253189444541931,0.002290979726240039,36.7160133,3.1841728,17.26,5.82,-4.15,0.03,91,324,7.153027534484863,7.152960777282715
13,0.05196760967373848,-0.9282894134521484,-0.2244120091199875,36.7160698,3.1841153,17.3,2.2,-2.92,-0.14,91,306,3.6662240028381348,3.663347005844116
14,-0.3665579855442047,-2.1278717517852783,-0.12004382163286209,36.716065,3.1840513,18.17,-2.59,-4.16,-0.84,90,238,4.9786152839660645,4.906976222991943
15,-0.5075497627258301,-2.1656861305236816,0.015219727531075478,36.7160138,3.1839605,19.91,-4.65,-6.65,-1.38,90,235,8.241958618164062,8.124759674072266
16,-0.44597962498664856,-2.163935661315918,0.02748902514576912,36.7159436,3.183835,22.25,-5.51,-8.01,-1.6,89,236,9.857630729675293,9.726326942443848
17,-0.47879108786582947,-2.1630876064300537,-0.03433742746710777,36.7158556,3.1836747,25.12,-5.56,-8.16,-1.57,89,236,10.010778427124023,9.886310577392578
18,-0.47714221477508545,-2.1650936603546143,0.037821926176548004,36.7157803,3.1835355,27.58,-5.53,-8.26,-1.59,88,235,10.074197769165039,9.947683334350586
19,-0.4413054883480072,-2.164283275604248,-0.02527938038110733,36.715693,3.1833726,30.46,-5.53,-8.27,-1.6,88,236,10.049352645874023,9.920087814331055
20,-0.4898638427257538,-2.1676180362701416,-0.006779975723475218,36.715618,3.1832331,32.95,-5.5,-8.23,-1.61,87,235,10.037744522094727,9.906691551208496
21,-0.470612496137619,-2.1648082733154297,0.044857386499643326,36.7155433,3.1830935,35.44,-5.49,-8.29,-1.62,87,235,10.08195686340332,9.950274467468262
22,-0.44569751620292664,-2.1635897159576416,-0.02923727221786976,36.7154564,3.1829305,38.36,-5.52,-8.28,-1.62,87,236,10.09181022644043,9.959811210632324
23,-0.4999448359012604,-2.165276527404785,0.011607823893427849,36.7153817,3.1827912,40.86,-5.5,-8.29,-1.62,86,235,10.087193489074707,9.95506763458252
24,-0.42788729071617126,-2.162740468978882,0.004099398851394653,36.7152944,3.1826277,43.78,-5.51,-8.27,-1.63,86,236,10.074458122253418,9.940627098083496
25,-0.4685560464859009,-2.166271686553955,-0.022966429591178894,36.7152198,3.1824884,46.28,-5.54,-8.3,-1.62,85,235,10.11534595489502,9.9835844039917
26,-0.49012261629104614,-2.1637630462646484,0.014169779606163502,36.7151449,3.1823482,48.79,-5.52,-8.31,-1.63,85,236,10.116943359375,9.984246253967285
27,-0.4243532121181488,-2.1648354530334473,-0.011934032663702965,36.7150577,3.1821848,51.7,-5.53,-8.29,-1.64,84,235,10.105259895324707,9.970624923706055
28,-0.32962918281555176,-2.1685216426849365,-0.014351814985275269,36.7149847,3.1820495,54.14,-5.03,-7.46,-1.5,84,235,9.127988815307617,9.00294017791748
29,-0.043948058038949966,-2.1643571853637695,0.011662500910460949,36.714919,3.181927,56.3,-3.18,-4.82,-0.8,83,236,5.836759090423584,5.780732154846191
30,-0.15843752026557922,-2.1177427768707275,-0.0012287015561014414,36.7148841,3.1818577,57.06,-2.2,-3.72,-0.23,83,238,4.337399482727051,4.331127643585205
31,-0.126672625541687,-2.086972951889038,0.025241274386644363,36.714856,3.1817961,57.18,-2.0,-3.67,0.0,83,240,4.189463138580322,4.189457416534424
32,-0.0608832947909832,-2.08707857131958,0.017667068168520927,36.714825,3.1817256,57.17,-1.79,-3.29,0.0,82,240,3.755204916000366,3.7552027702331543
33,0.05281049385666847,-2.22206974029541,-0.06410715728998184,36.7148048,3.1816833,56.69,-1.24,-1.71,0.81,82,232,2.2757644653320312,2.122919797897339
34,-0.019736476242542267,-2.4854438304901123,0.02567698247730732,36.7147868,3.1816611,54.28,-1.03,-0.79,1.47,82,217,1.964548110961914,1.3018332719802856
35,-0.042853232473134995,-2.4723191261291504,-0.020997757092118263,36.7147727,3.181648,52.03,-1.03,-0.81,1.42,81,218,1.94291353225708,1.320293664932251
36,-0.03735329210758209,-2.470003366470337,0.0323096327483654,36.7147586,3.1816343,49.79,-1.05,-0.86,1.44,81,218,1.9829312562942505,1.3626028299331665
37,-0.06228821724653244,-2.469682455062866,0.0012066180352121592,36.7147416,3.1816173,47.18,-1.06,-0.88,1.45,81,218,2.008498191833496,1.3859306573867798
38,-0.00966390036046505,-2.4694714546203613,0.0043922001495957375,36.7147271,3.1816026,44.94,-1.07,-0.87,1.45,80,218,2.0115747451782227,1.3870865106582642
39,-0.04686294123530388,-2.469426393508911,0.027854537591338158,36.7147101,3.1815856,42.32,-1.06,-0.88,1.46,80,218,2.0137088298797607,1.3846583366394043
40,-0.008164646103978157,-2.4691121578216553,0.01483326405286789,36.714698,3.1815734,40.44,-1.06,-0.87,1.46,80,218,2.01338267326355,1.3804543018341064
41,-0.049570001661777496,-2.469845771789551,0.02486596256494522,36.7146809,3.1815562,37.82,-1.06,-0.88,1.46,79,218,2.0183465480804443,1.383472204208374
42,-0.05571667104959488,-2.4696152210235596,-0.014498244039714336,36.7146639,3.181539,35.2,-1.07,-0.89,1.46,79,218,2.025944232940674,1.3942091464996338
43,-0.016864141449332237,-2.4690608978271484,0.023904617875814438,36.7146493,3.1815243,32.95,-1.06,-0.88,1.47,78,218,2.018383502960205,1.3802213668823242
44,-0.05481669679284096,-2.470024585723877,0.021912459284067154,36.7146322,3.1815072,30.33,-1.05,-0.88,1.47,78,218,2.021200180053711,1.3803766965866089
45,-0.007610189728438854,-2.46964955329895,-0.014707167632877827,36.7146177,3.1814925,28.09,-1.06,-0.87,1.47,78,218,2.0232901573181152,1.3809869289398193
46,-0.06033141165971756,-2.470055341720581,0.013202181085944176,36.7146031,3.1814777,25.84,-1.05,-0.88,1.48,77,218,2.0300004482269287,1.382832407951355
47,-0.040764641016721725,-2.469302177429199,-0.02193242870271206,36.7145861,3.1814605,23.21,-1.06,-0.88,1.48,77,218,2.027365207672119,1.3852304220199585
48,-0.02586348168551922,-2.4692769050598145,0.02827613800764084,36.7145715,3.1814458,20.96,-1.06,-0.87,1.47,77,218,2.020846128463745,1.378067970275879
49,-0.11447308957576752,-2.847242832183838,-0.08214308321475983,36.7145526,3.1814301,18.36,-1.57,-0.5,1.33,76,196,2.126668691635132,1.6517804861068726
50,-0.20925620198249817,2.6846117973327637,-0.044095709919929504,36.7145218,3.1814359,17.2,-3.08,1.32,0.12,76,153,3.3606069087982178,3.3583431243896484
51,-0.17534376680850983,2.6787869930267334,0.02526147849857807,36.7144627,3.1814711,17.28,-4.06,2.02,-0.02,75,153,4.545202732086182,4.5451436042785645
52,-0.0308539979159832,2.822051525115967,0.09669012576341629,36.7144084,3.1815023,17.24,-3.77,1.23,0.05,75,161,3.978480577468872,3.9780306816101074
53,-0.3069955110549927,-2.4395105838775635,0.24065124988555908,36.7143632,3.1814978,17.21,-2.92,-2.24,0.02,75,220,3.6907358169555664,3.690629005432129
54,-0.49393999576568604,-2.1403543949127197,-0.026271937415003777,36.714312,3.1814123,17.21,-3.89,-6.18,0.02,74,237,7.3076491355896,7.307620048522949
55,-0.4887752830982208,-2.1477460861206055,0.025451544672250748,36.7142521,3.1812939,17.22,-4.78,-7.59,0.0,74,236,8.976881980895996,8.97688102722168
56,-0.3600867688655853,-2.151254892349243,-0.03455778956413269,36.7141745,3.1811431,17.23,-4.83,-7.44,-0.01,73,236,8.878007888793945,8.877999305725098
57,-0.2671716511249542,-2.1494569778442383,0.03152013197541237,36.7141142,3.1810269,17.24,-4.03,-6.3,0.02,73,236,7.481385231018066,7.48132848739624
58,-0.24968333542346954,-2.123492479324341,0.021104468032717705,36.7140647,3.1809277,17.22,-3.42,-5.69,0.02,73,238,6.644485950469971,6.644437313079834
59,-0.2919859290122986,-2.102121353149414,0.03197155520319939,36.7140125,3.1808162,17.21,-3.22,-5.64,0.0,72,239,6.503622055053711,6.503617286682129
60,-0.20449061691761017,-2.100283622741699,-0.013210752047598362,36.7139688,3.180721,17.21,-3.18,-5.57,0.0,72,239,6.417765140533447,6.417764663696289
61,0.08521836251020432,-2.100536823272705,0.02537933737039566,36.7139253,3.1806264,17.2,-2.03,-3.57,0.03,71,239,4.114328384399414,4.114150524139404
62,0.13135886192321777,-2.1005570888519287,-0.026452770456671715,36.713909,3.1805906,17.19,-0.45,-0.82,-0.02,71,239,0.9409084320068359,0.9406954646110535
63,0.003880638163536787,-2.100693702697754,0.029364710673689842,36.7139078,3.1805879,17.2,0.11,0.15,0.01,71,239,0.19240932166576385,0.19152973592281342
