timestamp,pitch,yaw,roll,lat,lon,alt,velocity_x,velocity_y,velocity_z,battery,heading,airspeed,groundspeed
0,-0.01457185111939907,0.008698366582393646,0.025707602500915527,36.7156065,3.1846299,20.09,-0.01,0.03,0.04,96,0,0.053899895399808884,0.03472168371081352
1,-0.03504747524857521,0.010538381524384022,0.07636518776416779,36.7156075,3.1846328,20.04,0.25,0.61,0.0,95,0,0.6633954048156738,0.6633889079093933
2,-0.200331911444664,1.7014641761779785,-0.15775585174560547,36.7156199,3.1846662,20.01,1.46,3.09,-0.02,95,97,3.4189682006835938,3.418865442276001
3,-0.2428956776857376,0.9661636352539062,0.05140877887606621,36.7156449,3.1847316,20.05,2.1,4.46,-0.04,95,55,4.934555530548096,4.934375286102295
4,-0.11701462417840958,1.0904260873794556,-0.012514736503362656,36.7156747,3.1848085,20.08,2.16,4.47,-0.02,94,62,4.973299980163574,4.973244667053223
5,0.3126276433467865,1.1864756345748901,0.07149432599544525,36.715701,3.1848768,20.09,0.62,1.61,0.01,94,67,1.7347930669784546,1.7347381114959717
6,-0.03286934643983841,2.6355526447296143,0.24953235685825348,36.7156929,3.1848676,20.09,-1.72,-2.38,-0.03,93,151,2.9419422149658203,2.9417128562927246
7,-0.1074526384472847,-1.957549810409546,-0.04088953137397766,36.7156597,3.1848072,20.12,-2.22,-3.25,0.0,93,247,3.942650079727173,3.942638635635376
8,-0.05455264449119568,-2.0649547576904297,0.13612744212150574,36.7156325,3.1847524,20.11,-1.49,-3.17,0.01,93,241,3.5116124153137207,3.511582374572754
9,-0.23968549072742462,-0.9954190254211426,0.18790359795093536,36.7156309,3.1847024,20.09,1.65,-2.74,0.0,92,302,3.208634853363037,3.2086260318756104
10,-0.4561386704444885,-0.6120105385780334,0.026639092713594437,36.71569,3.1846402,20.09,5.61,-3.9,0.0,92,324,6.8447370529174805,6.844734191894531
11,-0.5078622102737427,-0.6164970397949219,-0.02772093378007412,36.71578,3.1845625,20.1,7.47,-5.14,-0.01,91,324,9.068302154541016,9.068296432495117
12,-0.47799283266067505,-0.6176372170448303,0.03174196556210518,36.7159027,3.1844559,20.12,7.9,-5.56,0.0,91,324,9.670462608337402,9.670461654663086
13,-0.2426447868347168,-0.6214288473129272,-0.013072783127427101,36.7160052,3.1843656,20.15,6.89,-4.89,-0.01,91,324,8.454255104064941,8.454243659973145
14,0.004284075926989317,-0.6731187105178833,-0.08426813036203384,36.7160821,3.184297,20.14,4.06,-3.26,0.01,90,321,5.216859340667725,5.216845512390137
15,-0.288609117269516,-1.8858752250671387,-0.24191617965698242,36.7161083,3.184238,20.57,-0.93,-3.29,-0.53,90,251,3.4643678665161133,3.4227712154388428
16,-0.4554291069507599,-2.171875,0.03495943918824196,36.7160732,3.1841661,21.89,-3.95,-5.51,-1.16,89,235,6.887507915496826,6.7878899574279785
17,-0.4701324999332428,-2.166952610015869,-0.027624083682894707,36.7159971,3.1840321,24.41,-5.34,-7.74,-1.58,89,235,9.543686866760254,9.4116849899292
18,-0.4936070740222931,-2.166121482849121,0.01863492652773857,36.7159224,3.1838965,26.88,-5.51,-8.1,-1.58,88,235,9.93033504486084,9.802645683288574
19,-0.448975145816803,-2.1637260913848877,0.03235364332795143,36.715847,3.1837578,29.33,-5.55,-8.25,-1.59,88,236,10.07227611541748,9.945165634155273
20,-0.4735296070575714,-2.1631412506103516,-0.028832346200942993,36.7157596,3.1835949,32.22,-5.5,-8.25,-1.59,88,236,10.050148963928223,9.922849655151367
21,-0.49886855483055115,-2.164081573486328,0.02067612297832966,36.715685,3.1834557,34.7,-5.54,-8.25,-1.6,87,236,10.0743989944458,9.946065902709961
22,-0.4329450726509094,-2.165240526199341,-0.012991663999855518,36.7155976,3.1832928,37.6,-5.52,-8.27,-1.62,87,235,10.08448600769043,9.952718734741211
23,-0.4361732602119446,-2.1635706424713135,-0.02362203598022461,36.7155354,3.1831763,39.68,-5.51,-8.27,-1.62,86,236,10.076114654541016,9.943683624267578
24,-0.4687808156013489,-2.166889190673828,0.039373669773340225,36.7154479,3.1830132,42.6,-5.51,-8.27,-1.62,86,235,10.076033592224121,9.943894386291504
25,-0.4521479904651642,-2.163555860519409,-0.02539207600057125,36.7153614,3.1828509,45.51,-5.5,-8.3,-1.63,85,236,10.09436321258545,9.96142578125
26,-0.4884888231754303,-2.16322660446167,-0.011178777553141117,36.7152864,3.1827106,48.02,-5.55,-8.31,-1.63,85,236,10.126714706420898,9.99317741394043
27,-0.4212930202484131,-2.1648576259613037,0.016071440652012825,36.7151988,3.1825471,50.94,-5.5,-8.27,-1.64,84,235,10.075801849365234,9.941351890563965
28,-0.45977091789245605,-2.16420316696167,-0.02584492228925228,36.7151244,3.1824077,53.45,-5.5,-8.29,-1.63,84,236,10.083962440490723,9.95072078704834
29,-0.43134763836860657,-2.165498971939087,0.005253900773823261,36.7150499,3.1822686,55.94,-5.44,-8.11,-1.61,84,235,9.903039932250977,9.77042293548584
30,-0.07793337851762772,-2.1669158935546875,-0.007849445566534996,36.7149734,3.1821266,58.51,-3.98,-5.93,-1.15,83,235,7.234672546386719,7.142446517944336
31,-0.09725265949964523,-2.149590492248535,0.023335544392466545,36.7149304,3.182045,59.72,-2.53,-3.96,-0.46,83,236,4.730669021606445,4.707845211029053
32,-0.13804985582828522,-2.1068482398986816,-0.02010495401918888,36.714895,3.1819718,60.08,-2.1,-3.66,-0.04,82,239,4.226134300231934,4.225907325744629
33,-0.13378271460533142,-2.1038835048675537,0.03078831546008587,36.7148669,3.1819106,60.07,-2.06,-3.65,-0.02,82,239,4.19659423828125,4.19651460647583
34,0.05857369303703308,-2.1245474815368652,-0.040164683014154434,36.7148423,3.1818574,59.97,-1.49,-2.48,0.26,82,238,2.9129531383514404,2.900621175765991
35,0.027711069211363792,-2.4488701820373535,-0.011604242026805878,36.7148225,3.1818258,58.28,-1.12,-0.99,1.47,81,219,2.108665943145752,1.5020318031311035
36,-0.05732573941349983,-2.462913990020752,-0.021212177351117134,36.7148081,3.1818121,55.99,-1.04,-0.81,1.42,81,218,1.947920560836792,1.325117826461792
37,-0.01591658964753151,-2.469104290008545,-0.013432725332677364,36.7147917,3.1817964,53.38,-1.04,-0.85,1.43,81,218,1.9677162170410156,1.3499587774276733
38,-0.057881105691194534,-2.469428062438965,0.013062295503914356,36.7147774,3.1817822,51.14,-1.05,-0.88,1.44,80,218,1.9967539310455322,1.3773550987243652
39,-0.010741480626165867,-2.4696478843688965,-0.0124787837266922,36.7147629,3.1817675,48.9,-1.07,-0.89,1.45,80,218,2.020811080932617,1.4025553464889526
40,-0.02442905493080616,-2.4692652225494385,0.026202401146292686,36.7147458,3.1817503,46.28,-1.06,-0.89,1.45,79,218,2.013580560684204,1.3903489112854004
41,-0.03840549662709236,-2.469594717025757,-0.025269675999879837,36.7147312,3.1817357,44.04,-1.07,-0.88,1.46,79,218,2.0181350708007812,1.3897738456726074
42,-0.007860544137656689,-2.4699547290802,0.004233477171510458,36.7147142,3.1817186,41.42,-1.07,-0.88,1.47,79,218,2.029917001724243,1.3934661149978638
43,-0.05990209802985191,-2.4691758155822754,-0.006193422246724367,36.7146996,3.1817039,39.17,-1.06,-0.89,1.47,78,218,2.0296363830566406,1.394532561302185
44,-0.030515506863594055,-2.4695115089416504,-0.025021886453032494,36.7146827,3.1816867,36.55,-1.07,-0.88,1.47,78,218,2.029435396194458,1.394258975982666
45,-0.049444086849689484,-2.469592809677124,0.028734229505062103,36.714668,3.1816719,34.3,-1.06,-0.89,1.48,78,218,2.032930612564087,1.3923720121383667
46,-0.02152402326464653,-2.47005295753479,-0.01903500407934189,36.7146534,3.1816572,32.05,-1.07,-0.88,1.47,77,218,2.031665086746216,1.3919641971588135
47,-0.016917020082473755,-2.469123363494873,0.01703682169318199,36.7146365,3.1816401,29.43,-1.06,-0.87,1.47,77,218,2.0181124210357666,1.3771196603775024
48,-0.05629586800932884,-2.4691219329833984,-0.018391383811831474,36.7146219,3.1816254,27.18,-1.06,-0.89,1.47,77,218,2.028329849243164,1.3872722387313843
49,-0.014195505529642105,-2.4700393676757812,-0.018501797690987587,36.7146049,3.1816081,24.55,-1.06,-0.88,1.47,76,218,2.0212254524230957,1.379683256149292
50,-0.08088397234678268,-2.503920316696167,-0.02618744969367981,36.7145901,3.1815934,22.29,-1.14,-0.84,1.46,76,216,2.0453507900238037,1.4226884841918945
51,-0.16444483399391174,2.9162864685058594,-0.11283547431230545,36.7145679,3.181587,20.4,-2.28,0.39,0.73,75,167,2.4330086708068848,2.318758249282837
52,-0.20268945395946503,2.6715810298919678,0.024331742897629738,36.7145175,3.1816138,20.13,-3.85,1.93,-0.05,75,153,4.317579746246338,4.317199230194092
53,-0.12173160910606384,2.682501792907715,0.018949199467897415,36.7144634,3.1816477,20.17,-3.95,1.92,0.06,75,153,4.395991802215576,4.395576000213623
54,-0.1165972426533699,-2.787055015563965,0.2814515233039856,36.7144062,3.1816626,20.11,-3.08,-1.08,0.03,74,200,3.2667911052703857,3.266598701477051
55,-0.4753198027610779,-2.191179037094116,0.060442954301834106,36.7143648,3.1816112,20.11,-3.32,-4.96,0.02,74,234,5.9775309562683105,5.977487564086914
56,-0.48457837104797363,-2.162205457687378,0.03469308093190193,36.7143109,3.1815066,20.11,-4.55,-7.15,0.0,73,236,8.480093002319336,8.480091094970703
57,-0.46660980582237244,-2.1553657054901123,-0.024059303104877472,36.7142342,3.1813578,20.13,-4.99,-7.7,0.0,73,236,9.180594444274902,9.18059253692627
58,-0.31526243686676025,-2.1574063301086426,0.03405921161174774,36.7141692,3.1812337,20.15,-4.46,-6.82,0.0,73,236,8.153075218200684,8.153071403503418
59,-0.28329670429229736,-2.137432813644409,-0.0009588875691406429,36.7141063,3.1811119,20.12,-3.54,-5.7,0.03,72,237,6.717299938201904,6.717232704162598
60,-0.2725187838077545,-2.1074583530426025,0.0384967178106308,36.7140607,3.1810165,20.11,-3.24,-5.63,0.0,72,239,6.5030598640441895,6.503057479858398
61,-0.2750111520290375,-2.099146604537964,-0.023760585114359856,36.7140171,3.1809214,20.11,-3.22,-5.68,0.0,71,239,6.53273868560791,6.532733917236328
62,-0.04076036810874939,-2.100468158721924,0.021330390125513077,36.7139685,3.1808155,20.12,-2.67,-4.65,0.01,71,239,5.365349769592285,5.365339756011963
63,0.14376966655254364,-2.1009931564331055,-0.024806544184684753,36.7139423,3.1807585,20.08,-1.06,-1.87,0.0,71,239,2.162074565887451,2.162069797515869
64,0.07303237915039062,-2.100637435913086,-0.009796003811061382,36.7139364,3.1807451,20.11,0.08,0.09,0.0,70,239,0.12810204923152924,0.12810193002223969
65,-0.03971057012677193,-2.104161024093628,0.11961294710636139,36.7139389,3.1807466,20.06,0.51,-0.19,0.0,70,239,0.5489122271537781,0.5488971471786499
