timestamp,pitch,yaw,roll,lat,lon,alt,velocity_x,velocity_y,velocity_z,battery,heading,airspeed,groundspeed
0,0.013549493625760078,0.04266233369708061,-0.022330116480588913,36.7156067,3.18463,23.17,-0.03,0.02,-0.13,96,2,0.1422237753868103,0.03768037259578705
1,-0.07932458072900772,0.036336272954940796,0.10295861214399338,36.7156082,3.1846317,23.21,0.4,0.42,-0.04,95,2,0.5878248810768127,0.5857515335083008
2,-0.18228177726268768,0.955328106880188,-0.01218236330896616,36.7156266,3.184653,23.24,1.87,1.78,-0.03,95,54,2.587350606918335,2.5871450901031494
3,-0.06263440102338791,0.7781593799591064,-0.032091833651065826,36.715655,3.1846865,23.22,2.17,2.03,0.0,95,44,2.9785842895507812,2.978576183319092
4,0.22692516446113586,0.4933623671531677,-0.09109508246183395,36.7156784,3.1847107,23.21,0.77,0.28,-0.01,94,28,0.8227118849754333,0.8226210474967957
5,-0.18207310140132904,-1.4473810195922852,-0.160640150308609,36.7156649,3.1846777,23.23,-2.14,-3.1,0.04,94,277,3.775940418243408,3.7757277488708496
6,-0.1068737730383873,-2.3495683670043945,0.021527064964175224,36.7156337,3.1846212,23.23,-2.33,-3.38,-0.05,93,225,4.115463733673096,4.115099906921387
7,-0.009807671420276165,-1.7186106443405151,0.24896804988384247,36.7156073,3.1845566,23.21,-0.38,-3.0,0.03,93,261,3.0279085636138916,3.027700662612915
8,-0.37869253754615784,-0.6622254252433777,0.06483958661556244,36.7156282,3.1845079,23.2,3.54,-3.02,0.0,93,322,4.657182216644287,4.65717887878418
9,-0.513396143913269,-0.6148154735565186,0.03879231587052345,36.7156972,3.1844459,23.2,6.44,-4.44,0.0,92,324,7.830262184143066,7.830262184143066
10,-0.47615522146224976,-0.6139155030250549,0.000632196431979537,36.715795,3.184362,23.22,7.78,-5.39,0.0,92,324,9.473076820373535,9.473075866699219
11,-0.4512520432472229,-0.6204053163528442,0.012426894158124924,36.7159195,3.184253,23.24,7.75,-5.48,0.0,91,324,9.502456665039062,9.50245475769043
12,-0.07259506732225418,-0.6230055093765259,-0.028579844161868095,36.7160295,3.1841559,23.28,5.69,-4.03,0.04,91,324,6.980385780334473,6.980230808258057
13,0.05226952210068703,-0.9650670886039734,-0.20602749288082123,36.716084,3.1840998,23.33,2.0,-2.9,-0.15,91,304,3.5314507484436035,3.5279300212860107
14,-0.35122910141944885,-2.116307020187378,-0.134063720703125,36.7160819,3.1840466,24.02,-2.19,-3.93,-0.75,90,238,4.570745468139648,4.508144378662109
15,-0.4817141592502594,-2.163774251937866,0.03762950748205185,36.7160237,3.1839424,26.01,-4.71,-6.75,-1.4,90,236,8.356240272521973,8.237133979797363
16,-0.4385824203491211,-2.1661109924316406,-0.007987839169800282,36.7159529,3.1838157,28.36,-5.49,-7.97,-1.6,89,235,9.816367149353027,9.684798240661621
17,-0.4935300052165985,-2.163473129272461,0.013872362673282623,36.7158655,3.1836556,31.23,-5.54,-8.22,-1.57,89,236,10.03936767578125,9.91535758972168
18,-0.433415949344635,-2.1635549068450928,0.023746732622385025,36.7157902,3.1835157,33.7,-5.55,-8.23,-1.58,88,236,10.058016777038574,9.932109832763672
19,-0.42883461713790894,-2.164281129837036,-0.017991621047258377,36.715715,3.1833764,36.17,-5.53,-8.24,-1.59,88,236,10.0518798828125,9.924455642700195
20,-0.4792696237564087,-2.163841724395752,0.029772838577628136,36.7156281,3.1832142,39.06,-5.5,-8.28,-1.61,87,236,10.077438354492188,9.947611808776855
21,-0.43471792340278625,-2.1634483337402344,0.02983773685991764,36.7155533,3.1830746,41.56,-5.53,-8.27,-1.61,87,236,10.084554672241211,9.953819274902344
22,-0.48845750093460083,-2.164456844329834,-0.011795234866440296,36.7154661,3.1829115,44.48,-5.5,-8.28,-1.61,87,235,10.075891494750977,9.94618034362793
23,-0.4683324992656708,-2.164363384246826,0.037714049220085144,36.7153915,3.1827718,46.97,-5.51,-8.29,-1.62,86,236,10.094558715820312,9.962203025817871
24,-0.4431683421134949,-2.1647398471832275,-0.027118029072880745,36.7153041,3.1826086,49.89,-5.52,-8.3,-1.63,86,235,10.102686882019043,9.970303535461426
25,-0.49190738797187805,-2.1634764671325684,0.0014936401275917888,36.7152293,3.1824687,52.4,-5.48,-8.27,-1.61,85,236,10.053030014038086,9.92169189453125
26,-0.45813196897506714,-2.1635756492614746,0.03189673274755478,36.715155,3.1823293,54.9,-5.52,-8.3,-1.63,85,236,10.107189178466797,9.97407341003418
27,-0.4598139524459839,-2.1650867462158203,-0.024861257523298264,36.7150674,3.1821657,57.82,-5.53,-8.31,-1.63,84,235,10.1210298538208,9.98820972442627
28,-0.3213060796260834,-2.168592929840088,0.019464557990431786,36.7149948,3.1820307,60.26,-4.97,-7.39,-1.47,84,235,9.040457725524902,8.918630599975586
29,-0.04558798298239708,-2.1661417484283447,0.012712820433080196,36.7149374,3.1819239,62.15,-3.37,-5.09,-0.88,84,235,6.175029277801514,6.110929489135742
30,-0.16356922686100006,-2.125706434249878,0.033095426857471466,36.7148953,3.1818416,63.08,-2.24,-3.72,-0.22,83,238,4.354701995849609,4.349099636077881
31,-0.12876571714878082,-2.102938652038574,-0.011293157003819942,36.7148664,3.18178,63.19,-2.08,-3.68,-0.01,83,239,4.234057426452637,4.234045505523682
32,-0.010278958827257156,-2.1026511192321777,0.02510708197951317,36.7148344,3.1817099,63.18,-1.83,-3.23,0.0,82,239,3.7196850776672363,3.7196848392486572
33,0.016797594726085663,-2.2410736083984375,-0.07327547669410706,36.7148139,3.1816686,62.66,-1.24,-1.66,0.86,82,231,2.2550058364868164,2.0844316482543945
34,-0.015502016060054302,-2.48482346534729,0.025513235479593277,36.7147983,3.1816494,60.6,-1.04,-0.81,1.48,82,217,1.990978717803955,1.3235026597976685
35,-0.061015985906124115,-2.472332239151001,0.009754637256264687,36.7147819,3.1816341,57.96,-1.03,-0.82,1.41,81,218,1.9389381408691406,1.323750615119934
36,-0.00956654455512762,-2.4701080322265625,0.0010524316458031535,36.7147677,3.1816203,55.73,-1.06,-0.86,1.43,81,218,1.9865189790725708,1.3731498718261719
37,-0.03684503212571144,-2.4699413776397705,0.028740549460053444,36.7147508,3.1816032,53.11,-1.06,-0.87,1.44,81,218,1.9979536533355713,1.3822190761566162
38,-0.02838720753788948,-2.469794511795044,-0.023046297952532768,36.7147363,3.1815886,50.86,-1.07,-0.88,1.44,80,218,2.004882335662842,1.391548991203308
39,-0.010440316051244736,-2.4688875675201416,0.013218692503869534,36.7147193,3.1815715,48.26,-1.06,-0.87,1.45,80,218,2.011373996734619,1.3846441507339478
40,-0.059745244681835175,-2.469528913497925,-0.004865557886660099,36.7147046,3.1815569,46.01,-1.07,-0.88,1.46,79,218,2.0216732025146484,1.3929165601730347
41,-0.011534654535353184,-2.4693925380706787,0.015951549634337425,36.7146901,3.1815422,43.76,-1.06,-0.88,1.46,79,218,2.013692855834961,1.3843238353729248
42,-0.05020063370466232,-2.469815731048584,0.022509509697556496,36.7146731,3.181525,41.14,-1.05,-0.89,1.46,79,218,2.0150082111358643,1.3804658651351929
43,-0.015094393864274025,-2.4692044258117676,-0.014894750900566578,36.7146585,3.1815103,38.9,-1.07,-0.88,1.47,78,218,2.0322787761688232,1.3962078094482422
44,-0.014223005622625351,-2.469301223754883,0.02174641191959381,36.7146415,3.181493,36.27,-1.06,-0.88,1.47,78,218,2.0228514671325684,1.3862264156341553
45,-0.05420039966702461,-2.4694087505340576,-0.0230280589312315,36.7146269,3.1814784,34.02,-1.06,-0.88,1.47,78,218,2.0235466957092285,1.3884912729263306
46,-0.0239550843834877,-2.469703435897827,0.0264569241553545,36.7146123,3.1814637,31.78,-1.05,-0.87,1.48,77,218,2.0198473930358887,1.373966097831726
47,-0.05653180181980133,-2.4695253372192383,0.007951379753649235,36.7145953,3.1814465,29.15,-1.05,-0.88,1.47,77,218,2.020432472229004,1.3783113956451416
48,-0.007893343456089497,-2.4695065021514893,-0.007025170139968395,36.7145807,3.1814317,26.9,-1.06,-0.88,1.47,77,218,2.019578695297241,1.3831475973129272
49,-0.08516517281532288,-2.8842945098876953,-0.0722169578075409,36.7145616,3.1814162,24.31,-1.6,-0.46,1.31,76,194,2.128847122192383,1.6705379486083984
50,-0.24313285946846008,2.6753504276275635,-0.06903814524412155,36.7145302,3.1814231,23.2,-3.13,1.4,0.09,76,153,3.4385440349578857,3.437333106994629
51,-0.13951033353805542,2.6720354557037354,-0.0035552142653614283,36.7144711,3.1814593,23.29,-4.0,2.03,-0.01,75,153,4.47896671295166,4.478643894195557
52,-0.06799966096878052,2.8442840576171875,0.13124950230121613,36.7144178,3.1814898,23.25,-3.7,1.09,0.06,75,162,3.867182970046997,3.8666932582855225
53,-0.292677104473114,-2.3656198978424072,0.19376584887504578,36.7143733,3.1814817,23.22,-2.93,-2.51,0.02,75,224,3.860461950302124,3.8603639602661133
54,-0.5064529180526733,-2.1439573764801025,0.016346681863069534,36.7143208,3.1813919,23.22,-4.01,-6.32,0.01,74,237,7.48975133895874,7.489732265472412
55,-0.44492483139038086,-2.153653621673584,0.013956760056316853,36.7142596,3.1812726,23.23,-4.9,-7.6,0.0,74,236,9.046650886535645,9.046651840209961
56,-0.3850330710411072,-2.156181573867798,0.0006705017294734716,36.7141814,3.1811222,23.25,-4.83,-7.41,0.0,73,236,8.855464935302734,8.855463981628418
57,-0.2112242430448532,-2.1522762775421143,0.02900821715593338,36.7141209,3.1810068,23.25,-4.01,-6.2,0.03,73,236,7.3872270584106445,7.387157440185547
58,-0.28142306208610535,-2.1253507137298584,-0.010277438908815384,36.7140715,3.1809083,23.23,-3.42,-5.67,0.02,73,238,6.633839130401611,6.633780002593994
59,-0.25262895226478577,-2.101005792617798,0.015811989083886147,36.7140197,3.1807975,23.23,-3.22,-5.66,0.01,72,239,6.514009475708008,6.51399564743042
60,-0.23457667231559753,-2.099794864654541,-0.021382926031947136,36.7139761,3.1807023,23.23,-3.16,-5.56,0.0,72,239,6.3997697830200195,6.399767875671387
61,0.13048246502876282,-2.1007096767425537,-0.011871499940752983,36.7139333,3.1806093,23.21,-1.95,-3.4,0.04,71,239,3.9296343326568604,3.9294092655181885
62,0.10614089667797089,-2.100649833679199,0.015413651242852211,36.7139182,3.1805761,23.2,-0.39,-0.7,-0.02,71,239,0.8055093884468079,0.805214524269104
63,0.027532709762454033,-2.100639820098877,-0.00434138672426343,36.7139175,3.1805746,23.21,0.11,0.16,0.02,71,239,0.20063883066177368,0.199247345328331
