timestamp,pitch,yaw,roll,lat,lon,alt,velocity_x,velocity_y,velocity_z,battery,heading,airspeed,groundspeed
0,0.031056735664606094,-0.011510982178151608,-0.005646242760121822,36.7156066,3.1846299,25.11,-0.02,0.02,-0.06,96,359,0.07880004495382309,0.037165332585573196
1,-0.04557923227548599,-0.015102656558156013,0.12258119136095047,36.7156072,3.1846326,25.18,0.13,0.6,-0.03,95,359,0.6245537996292114,0.6237940788269043
2,-0.2099989503622055,1.6585346460342407,-0.11419247835874557,36.7156121,3.1846569,25.15,0.69,2.55,-0.03,95,95,2.6488864421844482,2.6486833095550537
3,-0.15127038955688477,1.106966257095337,0.017416274175047874,36.7156279,3.184725,25.19,1.14,4.05,-0.04,95,63,4.216272354125977,4.216020107269287
4,-0.07078610360622406,1.271751880645752,0.02206384763121605,36.7156437,3.1847936,25.21,1.09,3.81,-0.02,94,72,3.966310501098633,3.9662153720855713
5,0.2014409452676773,2.0028631687164307,0.26986268162727356,36.7156509,3.1848377,25.2,-0.67,-0.18,0.0,94,114,0.6962019801139832,0.696180522441864
6,-0.15513931214809418,-2.644198417663574,0.12512777745723724,36.7156298,3.184805,25.23,-2.16,-3.15,-0.04,93,208,3.831723690032959,3.8315091133117676
7,-0.1564653366804123,-2.1317806243896484,0.004803420510143042,36.7155994,3.1847484,25.24,-2.28,-3.35,0.0,93,237,4.060919761657715,4.060915946960449
8,-0.015512767247855663,-1.6791714429855347,0.18490241467952728,36.715575,3.184684,25.22,-0.26,-2.99,0.0,93,263,3.0084497928619385,3.0084376335144043
9,-0.37869977951049805,-0.6579578518867493,0.12420240044593811,36.7155971,3.1846355,25.22,3.58,-3.03,0.0,92,322,4.696624755859375,4.696625232696533
10,-0.47791150212287903,-0.6163156032562256,-0.018187202513217926,36.7156664,3.1845734,25.22,6.43,-4.49,0.0,92,324,7.85361909866333,7.853618621826172
11,-0.5074265599250793,-0.6219866275787354,0.033793602138757706,36.7157817,3.1844732,25.24,7.83,-5.5,0.0,91,324,9.577067375183105,9.577068328857422
12,-0.38669830560684204,-0.6221011281013489,0.003470692317932844,36.7158882,3.1843794,25.27,7.7,-5.49,0.0,91,324,9.460136413574219,9.460131645202637
13,-0.09507575631141663,-0.6257752776145935,0.014642148278653622,36.715997,3.1842829,25.3,5.58,-4.01,0.04,91,324,6.876754283905029,6.876576900482178
14,0.07942278683185577,-1.0108332633972168,-0.26440998911857605,36.7160499,3.184227,25.36,1.82,-2.9,-0.17,90,302,3.4374828338623047,3.4331724643707275
15,-0.3622099459171295,-2.1309056282043457,-0.05497623607516289,36.7160399,3.1841617,26.3,-2.81,-4.34,-0.88,90,237,5.258445739746094,5.182892322540283
16,-0.4852362871170044,-2.162355661392212,-0.02955719642341137,36.7159865,3.1840677,28.09,-4.75,-6.85,-1.41,89,236,8.466285705566406,8.346491813659668
17,-0.44803938269615173,-2.1634132862091064,0.04353347420692444,36.7159025,3.1839167,30.87,-5.51,-8.02,-1.61,89,236,9.869568824768066,9.736885070800781
18,-0.43186846375465393,-2.164417266845703,-0.018654432147741318,36.7158273,3.183779,33.34,-5.52,-8.15,-1.57,88,235,9.976940155029297,9.851531982421875
19,-0.48407256603240967,-2.164508819580078,-0.029365960508584976,36.7157521,3.1836399,35.8,-5.54,-8.25,-1.58,88,235,10.072436332702637,9.947253227233887
20,-0.43053799867630005,-2.164637327194214,0.026070663705468178,36.7156648,3.1834771,38.69,-5.51,-8.26,-1.6,87,235,10.066330909729004,9.936951637268066
21,-0.43218299746513367,-2.1638994216918945,-0.020436078310012817,36.7155901,3.1833376,41.18,-5.52,-8.29,-1.61,87,236,10.094457626342773,9.965096473693848
22,-0.4698109030723572,-2.1644649505615234,0.03221410512924194,36.7155028,3.1831746,44.09,-5.51,-8.26,-1.61,87,235,10.070812225341797,9.940176963806152
23,-0.4624236524105072,-2.1650006771087646,0.04061051830649376,36.7154404,3.1830584,46.17,-5.5,-8.29,-1.62,86,235,10.083478927612305,9.952052116394043
24,-0.4593975245952606,-2.163146734237671,-0.03378043323755264,36.7153535,3.1828953,49.09,-5.5,-8.29,-1.62,86,236,10.088635444641113,9.957261085510254
25,-0.4578566253185272,-2.1656312942504883,0.04051496461033821,36.7152663,3.1827325,52.01,-5.55,-8.33,-1.62,85,235,10.143256187438965,10.011686325073242
26,-0.4220939874649048,-2.1641910076141357,-0.0020202717278152704,36.7151912,3.1825921,54.52,-5.51,-8.28,-1.62,85,236,10.08330249786377,9.950784683227539
27,-0.48864760994911194,-2.1649835109710693,0.024383550509810448,36.7151041,3.1824291,57.43,-5.5,-8.29,-1.63,84,235,10.088948249816895,9.955480575561523
28,-0.43687376379966736,-2.1628243923187256,0.029479773715138435,36.7150295,3.1822892,59.93,-5.51,-8.28,-1.64,84,236,10.090105056762695,9.955110549926758
29,-0.2719264328479767,-2.168198347091675,-0.02183007448911667,36.7149572,3.1821549,62.36,-4.95,-7.35,-1.47,83,235,8.991458892822266,8.869026184082031
30,-0.05665869265794754,-2.162062883377075,0.03751542046666145,36.7148931,3.1820358,64.43,-3.06,-4.65,-0.74,83,236,5.624546527862549,5.575136184692383
31,-0.14699828624725342,-2.1133944988250732,-0.008895596489310265,36.7148592,3.1819681,65.12,-2.15,-3.71,-0.2,83,238,4.303920269012451,4.299180507659912
32,-0.12973567843437195,-2.0854554176330566,0.007157108746469021,36.7148272,3.1818966,65.2,-2.01,-3.7,0.0,82,240,4.215505123138428,4.215497970581055
33,-0.04706753045320511,-2.0872817039489746,-0.010328635573387146,36.7148008,3.1818367,65.2,-1.75,-3.22,0.0,82,240,3.669811964035034,3.669801712036133
34,0.047471992671489716,-2.2494022846221924,-0.034396883100271225,36.714781,3.1817961,64.61,-1.22,-1.6,0.92,82,231,2.222862482070923,2.0211198329925537
35,-0.04390886425971985,-2.4816296100616455,0.026043856516480446,36.7147633,3.1817753,62.12,-1.02,-0.78,1.45,81,217,1.9467368125915527,1.2958365678787231
36,-0.021952394396066666,-2.472445487976074,-0.016365163028240204,36.7147493,3.1817624,59.88,-1.03,-0.83,1.41,81,218,1.944467544555664,1.3332231044769287
37,-0.014166904613375664,-2.469805955886841,0.01924612745642662,36.7147327,3.181746,57.27,-1.06,-0.87,1.43,80,218,1.9920778274536133,1.3801742792129517
38,-0.05767770856618881,-2.46958327293396,-0.018766775727272034,36.7147182,3.1817313,55.03,-1.07,-0.88,1.44,80,218,2.0050032138824463,1.394675612449646
39,-0.01733979769051075,-2.4692177772521973,0.019803546369075775,36.7147036,3.1817167,52.78,-1.07,-0.86,1.44,80,218,1.9984132051467896,1.378717064857483
40,-0.05500831454992294,-2.469797372817993,0.019370170310139656,36.7146866,3.1816997,50.17,-1.06,-0.87,1.45,79,218,2.0044820308685303,1.3784112930297852
41,-0.011657542549073696,-2.469757318496704,-0.012748036533594131,36.714672,3.181685,47.92,-1.07,-0.88,1.46,79,218,2.0188300609588623,1.3936152458190918
42,-0.023891370743513107,-2.4696452617645264,0.027111439034342766,36.714655,3.1816679,45.3,-1.07,-0.88,1.46,79,218,2.015850782394409,1.3871456384658813
43,-0.038148704916238785,-2.469154119491577,-0.022276347503066063,36.7146403,3.1816531,43.05,-1.07,-0.89,1.46,78,218,2.025063991546631,1.3960868120193481
44,-0.024026479572057724,-2.469210386276245,0.027933185920119286,36.7146258,3.1816384,40.81,-1.06,-0.88,1.47,78,218,2.0207059383392334,1.3858431577682495
45,-0.058578863739967346,-2.4696216583251953,0.0074965073727071285,36.7146088,3.1816213,38.19,-1.05,-0.88,1.47,78,218,2.020928144454956,1.381210446357727
46,-0.009914888069033623,-2.4699747562408447,0.0007175654754973948,36.7145942,3.1816066,35.95,-1.07,-0.87,1.48,77,218,2.030268907546997,1.3873859643936157
47,-0.03564276546239853,-2.4692986011505127,0.0321049727499485,36.7145772,3.1815894,33.32,-1.05,-0.88,1.47,77,218,2.022392511367798,1.3805562257766724
48,-0.03590470924973488,-2.469543695449829,-0.025171037763357162,36.7145626,3.1815746,31.06,-1.07,-0.88,1.47,76,218,2.0247390270233154,1.387829065322876
49,-0.009124510921537876,-2.469252824783325,0.002132952446117997,36.7145456,3.1815574,28.44,-1.06,-0.87,1.47,76,218,2.0175650119781494,1.3789433240890503
50,-0.13001547753810883,-2.9233107566833496,-0.10432504862546921,36.7145286,3.1815446,26.23,-1.66,-0.42,1.27,76,192,2.141120433807373,1.7170966863632202
51,-0.20903192460536957,2.6785690784454346,-0.0292196087539196,36.7144963,3.1815525,25.21,-3.22,1.45,0.05,75,153,3.537001371383667,3.536637544631958
52,-0.1841188669204712,2.679509162902832,0.02519514411687851,36.714436,3.1815891,25.31,-4.07,2.03,0.0,75,153,4.550223350524902,4.550220489501953
53,-0.025646327063441277,2.863053798675537,0.11889896541833878,36.714382,3.1816193,25.27,-3.72,1.03,0.06,75,164,3.865497350692749,3.864983081817627
54,-0.34139618277549744,-2.235286235809326,0.1542273312807083,36.7143309,3.181602,25.24,-2.93,-3.25,0.02,74,231,4.380375862121582,4.380322456359863
55,-0.49426016211509705,-2.138882875442505,-0.02872513234615326,36.7142855,3.1815193,25.24,-3.99,-6.37,0.01,74,237,7.5248284339904785,7.524807929992676
56,-0.4978477656841278,-2.146512508392334,0.015056795440614223,36.7142246,3.1813989,25.25,-4.85,-7.62,0.0,73,237,9.03575325012207,9.03575325012207
57,-0.3452874422073364,-2.1521475315093994,-0.029072705656290054,36.7141469,3.1812482,25.27,-4.77,-7.36,0.0,73,236,8.775827407836914,8.775825500488281
58,-0.2596210539340973,-2.149393320083618,0.02661004289984703,36.7140873,3.1811335,25.28,-3.96,-6.19,0.03,73,236,7.355846881866455,7.355769634246826
59,-0.2770332396030426,-2.1233913898468018,-0.01282639242708683,36.7140305,3.1810193,25.25,-3.42,-5.7,0.02,72,238,6.652378082275391,6.652336120605469
60,-0.2927605211734772,-2.1090919971466064,0.030515160411596298,36.7139854,3.180924,25.25,-3.28,-5.66,0.01,72,239,6.545166492462158,6.545152187347412
61,-0.19463862478733063,-2.1088061332702637,-0.015557755716145039,36.713941,3.1808288,25.25,-3.22,-5.52,0.0,71,239,6.400130271911621,6.400127410888672
62,0.12473656982183456,-2.1093475818634033,0.025860007852315903,36.7138978,3.1807368,25.23,-1.95,-3.33,0.04,71,239,3.8630480766296387,3.8627896308898926
63,0.12305760383605957,-2.109001874923706,-0.02860669605433941,36.7138828,3.1807047,25.23,-0.37,-0.64,-0.01,71,239,0.7473713755607605,0.7471117377281189
64,0.0259868111461401,-2.1080222129821777,0.027278773486614227,36.7138827,3.180704,25.22,0.13,0.12,0.03,70,239,0.1938832849264145,0.19213345646858215
