timestamp,pitch,yaw,roll,lat,lon,alt,velocity_x,velocity_y,velocity_z,battery,heading,airspeed,groundspeed
0,0.022638006135821342,-0.01775783859193325,-0.016418669372797012,36.7156066,3.18463,27.13,-0.02,0.02,0.12,96,358,0.12742780148983002,0.03827846422791481
1,-0.024894531816244125,-0.01957775093615055,0.13381050527095795,36.7156069,3.1846326,27.03,0.06,0.6,0.0,95,358,0.6125444769859314,0.6125409603118896
2,-0.2041626274585724,1.6651275157928467,-0.08689432591199875,36.7156098,3.1846577,26.99,0.4,2.61,-0.04,95,95,2.650634527206421,2.650191068649292
3,-0.11173336207866669,1.2363386154174805,-0.0030854488722980022,36.7156188,3.1847237,27.07,0.61,3.74,-0.07,95,70,3.794754981994629,3.794018268585205
4,0.0640992671251297,1.4213297367095947,0.059292446821928024,36.7156266,3.184784,27.13,0.35,2.95,-0.04,94,81,2.973215103149414,2.9728262424468994
5,-0.1182032898068428,2.9248995780944824,0.3103173077106476,36.7156193,3.1847994,27.15,-1.56,-1.79,-0.02,94,167,2.379518508911133,2.379384756088257
6,-0.11311562359333038,-1.9402403831481934,-0.021248964592814445,36.7155918,3.1847509,27.19,-2.29,-3.37,-0.02,93,248,4.080076217651367,4.080007553100586
7,-0.042510781437158585,-2.0549476146698,0.12249993532896042,36.7155574,3.184684,27.18,-1.71,-3.31,0.0,93,242,3.7301039695739746,3.7300925254821777
8,-0.21854321658611298,-1.0857800245285034,0.21402402222156525,36.7155524,3.1846321,27.17,1.38,-2.79,0.0,93,297,3.1188108921051025,3.1188039779663086
9,-0.45024922490119934,-0.6409862041473389,0.0755942165851593,36.7155968,3.1845805,27.17,5.02,-3.55,0.0,92,323,6.150218486785889,6.150218486785889
10,-0.4878993630409241,-0.6243767142295837,-0.005958281457424164,36.7156813,3.1845075,27.17,7.23,-4.97,0.0,92,324,8.77817153930664,8.778166770935059
11,-0.5078126192092896,-0.6165695786476135,0.022626634687185287,36.715803,3.1844024,27.19,7.93,-5.55,0.0,91,324,9.687858581542969,9.687856674194336
12,-0.282824844121933,-0.6210033893585205,-0.02739720232784748,36.7159239,3.1842961,27.23,6.96,-4.96,-0.01,91,324,8.55278491973877,8.552775382995605
13,0.011408022604882717,-0.6624684929847717,-0.06054707244038582,36.7160026,3.1842257,27.22,4.23,-3.34,0.01,91,322,5.398467540740967,5.398435115814209
14,-0.14925269782543182,-1.5829310417175293,-0.3018689751625061,36.7160327,3.1841752,27.5,-0.03,-3.0,-0.4,90,269,3.029064655303955,3.0016841888427734
15,-0.4265406131744385,-2.167557954788208,0.027329344302415848,36.7159985,3.1840965,28.88,-3.85,-5.38,-1.14,90,235,6.716219425201416,6.617610931396484
16,-0.4719172716140747,-2.1643521785736084,-0.028834927827119827,36.7159355,3.1839854,30.98,-5.18,-7.47,-1.54,89,236,9.226116180419922,9.095541954040527
17,-0.4744876027107239,-2.167013645172119,0.04776787757873535,36.7158489,3.1838289,33.85,-5.51,-8.09,-1.58,89,235,9.929152488708496,9.801483154296875
18,-0.42854562401771545,-2.163752794265747,-0.00429152324795723,36.7157739,3.1836904,36.3,-5.55,-8.24,-1.58,88,236,10.063551902770996,9.937856674194336
19,-0.4584285020828247,-2.1643943786621094,-0.03590835630893707,36.7156986,3.1835507,38.77,-5.55,-8.26,-1.59,88,235,10.083686828613281,9.956253051757812
20,-0.44549402594566345,-2.162785053253174,0.03520508483052254,36.7156113,3.1833878,41.67,-5.5,-8.26,-1.61,87,236,10.0556001663208,9.925813674926758
21,-0.4299597442150116,-2.163620710372925,-0.006285060662776232,36.7155367,3.1832487,44.15,-5.53,-8.26,-1.62,87,236,10.077597618103027,9.946486473083496
22,-0.49083539843559265,-2.1651434898376465,0.02075595036149025,36.7154494,3.1830857,47.07,-5.5,-8.28,-1.62,87,235,10.08448600769043,9.952615737915039
23,-0.4343884587287903,-2.1636898517608643,0.028666019439697266,36.7153748,3.1829457,49.57,-5.51,-8.28,-1.63,86,236,10.08613109588623,9.953095436096191
24,-0.43847402930259705,-2.1657187938690186,-0.02135355956852436,36.7153001,3.1828062,52.06,-5.53,-8.3,-1.63,86,235,10.112814903259277,9.979301452636719
25,-0.4786827564239502,-2.164818525314331,0.034065209329128265,36.7152128,3.1826431,54.98,-5.51,-8.27,-1.64,85,235,10.077790260314941,9.942938804626465
26,-0.42899659276008606,-2.163440704345703,0.015934167429804802,36.7151379,3.182503,57.5,-5.51,-8.29,-1.63,85,236,10.093172073364258,9.959474563598633
27,-0.48787495493888855,-2.164139986038208,-0.008379416540265083,36.7150509,3.1823397,60.42,-5.5,-8.27,-1.62,84,236,10.070456504821777,9.938125610351562
28,-0.41042762994766235,-2.165947914123535,0.029714584350585938,36.7149764,3.182201,62.91,-5.46,-8.14,-1.62,84,235,9.939343452453613,9.80547046661377
29,-0.1455993801355362,-2.1679537296295166,-0.008959716185927391,36.7149084,3.1820751,65.19,-4.35,-6.49,-1.29,83,235,7.926209449768066,7.820302486419678
30,-0.07654226571321487,-2.1510512828826904,0.03735297918319702,36.7148551,3.1819741,66.77,-2.56,-4.01,-0.48,83,236,4.786101818084717,4.761190414428711
31,-0.13385023176670074,-2.1102092266082764,-0.015927447006106377,36.7148243,3.1819111,67.14,-2.12,-3.68,-0.08,83,239,4.2561354637146,4.255348205566406
32,-0.10779374092817307,-2.103388547897339,0.016033435240387917,36.7147915,3.1818396,67.15,-2.09,-3.67,-0.02,82,239,4.230772495269775,4.230710506439209
33,0.01592804491519928,-2.1191813945770264,-0.04035079851746559,36.7147664,3.1817854,67.07,-1.51,-2.56,0.23,82,238,2.9872114658355713,2.9779722690582275
34,0.029559200629591942,-2.4400787353515625,-0.04552284628152847,36.7147463,3.1817528,65.47,-1.14,-1.02,1.46,82,220,2.12219500541687,1.5338454246520996
35,-0.0540059395134449,-2.4630236625671387,0.018089771270751953,36.714732,3.1817389,63.17,-1.03,-0.8,1.43,81,218,1.9384480714797974,1.3081088066101074
36,-0.014325231313705444,-2.468668222427368,-0.010072814300656319,36.7147179,3.1817256,60.93,-1.05,-0.85,1.43,81,218,1.9734134674072266,1.3559348583221436
37,-0.026331575587391853,-2.4693500995635986,0.026830269023776054,36.7147012,3.1817089,58.32,-1.06,-0.87,1.44,80,218,1.9996167421340942,1.3804198503494263
38,-0.04638480767607689,-2.469601631164551,-0.0228569433093071,36.7146867,3.1816943,56.08,-1.07,-0.89,1.45,80,218,2.0185234546661377,1.401330590248108
39,-0.007376065477728844,-2.469249725341797,-9.485727787250653e-05,36.7146697,3.1816771,53.45,-1.07,-0.87,1.45,80,218,2.0069501399993896,1.3828465938568115
40,-0.06019218638539314,-2.4697227478027344,0.005653785541653633,36.7146551,3.1816625,51.21,-1.06,-0.87,1.45,79,218,2.0086660385131836,1.3798320293426514
41,-0.00992676243185997,-2.4694716930389404,0.0026372589636594057,36.7146406,3.1816479,48.98,-1.08,-0.88,1.47,79,218,2.030855417251587,1.3971421718597412
42,-0.0377940870821476,-2.4697725772857666,0.02623605541884899,36.7146235,3.1816307,46.35,-1.06,-0.88,1.47,79,218,2.020087480545044,1.3835887908935547
43,-0.025162018835544586,-2.4693546295166016,-0.022211074829101562,36.7146089,3.181616,44.1,-1.07,-0.88,1.47,78,218,2.0265109539031982,1.3923441171646118
44,-0.01014336384832859,-2.469294309616089,0.009787372313439846,36.7145919,3.1815988,41.48,-1.07,-0.88,1.48,78,218,2.029202461242676,1.3878812789916992
45,-0.06106441095471382,-2.4693195819854736,-0.01131565310060978,36.7145773,3.1815841,39.23,-1.07,-0.88,1.48,78,218,2.0323376655578613,1.3916853666305542
46,-0.014751485548913479,-2.469635486602783,0.016743551939725876,36.7145627,3.1815693,36.98,-1.06,-0.87,1.47,77,218,2.0166921615600586,1.3735463619232178
47,-0.050530098378658295,-2.46947979927063,0.019453007727861404,36.7145457,3.1815521,34.36,-1.05,-0.88,1.47,77,218,2.019606351852417,1.3753478527069092
48,-0.01612090691924095,-2.46958589553833,-0.01846507377922535,36.7145311,3.1815374,32.11,-1.07,-0.88,1.47,76,218,2.0282833576202393,1.3870806694030762
49,-0.031110459938645363,-2.4926788806915283,-0.014340152032673359,36.714514,3.1815203,29.48,-1.11,-0.84,1.47,76,217,2.032353162765503,1.3994325399398804
50,-0.20031917095184326,2.9588260650634766,-0.13610625267028809,36.7144925,3.1815128,27.53,-2.21,0.29,0.8,76,169,2.376396417617798,2.2361748218536377
51,-0.2003406584262848,2.6702418327331543,0.01835532672703266,36.7144517,3.1815331,27.18,-3.67,1.84,-0.06,75,152,4.108508586883545,4.108006477355957
52,-0.14662736654281616,2.6776301860809326,0.04175277426838875,36.714389,3.1815725,27.26,-3.96,1.95,0.05,75,153,4.419199466705322,4.418822765350342
53,-0.024599356576800346,-3.0564894676208496,0.238876610994339,36.7143386,3.1815912,27.2,-3.27,-0.24,0.04,75,184,3.2843377590179443,3.2840735912323
54,-0.44053536653518677,-2.1861603260040283,0.10614258795976639,36.7142906,3.1815415,27.19,-3.23,-4.81,0.01,74,234,5.800215721130371,5.80018424987793
55,-0.46023064851760864,-2.1587905883789062,-0.012637619860470295,36.714238,3.1814386,27.19,-4.48,-7.11,0.0,74,236,8.409185409545898,8.409183502197266
56,-0.47904297709465027,-2.1505544185638428,-0.009814404882490635,36.7141733,3.1813115,27.21,-4.92,-7.71,0.0,73,236,9.150052070617676,9.15005111694336
57,-0.28095853328704834,-2.1528444290161133,-0.005148219410330057,36.7140976,3.1811653,27.23,-4.47,-6.88,0.0,73,236,8.209775924682617,8.209773063659668
58,-0.2769777476787567,-2.1414923667907715,0.0027249720878899097,36.7140427,3.1810585,27.21,-3.65,-5.81,0.03,73,237,6.866631507873535,6.866555213928223
59,-0.24952027201652527,-2.114863157272339,-0.006985493469983339,36.7139882,3.1809464,27.19,-3.32,-5.63,0.0,72,238,6.539997100830078,6.539991855621338
60,-0.31401681900024414,-2.1076178550720215,0.007050859741866589,36.7139438,3.1808516,27.19,-3.28,-5.67,0.01,72,239,6.554847717285156,6.55483865737915
61,-0.09435784071683884,-2.1085715293884277,0.006794323213398457,36.7139005,3.180759,27.2,-2.93,-5.02,0.0,71,239,5.818052291870117,5.818051338195801
62,0.15022902190685272,-2.109513282775879,0.028198305517435074,36.7138663,3.1806861,27.16,-1.16,-2.01,0.0,71,239,2.3221938610076904,2.322174549102783
63,0.09495548158884048,-2.1090505123138428,-0.022781290113925934,36.7138594,3.180671,27.18,-0.02,-0.04,-0.01,71,239,0.053463902324438095,0.052168939262628555
64,0.008236799389123917,-2.1076791286468506,0.12908874452114105,36.7138617,3.1806729,27.14,0.45,-0.14,0.01,70,239,0.47950479388237,0.4793880581855774
