timestamp,pitch,yaw,roll,lat,lon,alt,velocity_x,velocity_y,velocity_z,battery,heading,airspeed,groundspeed
0,0.026815636083483696,0.026713382452726364,-0.013468371704220772,36.7156067,3.18463,13.79,-0.03,0.02,-0.03,96,1,0.053114861249923706,0.04109378159046173
1,-0.10529588907957077,0.03352576121687889,0.11743535101413727,36.7156082,3.1846324,13.8,0.42,0.54,-0.01,95,1,0.6907135248184204,0.690441906452179
2,-0.3161972761154175,1.151136040687561,-0.08027906715869904,36.7156289,3.1846621,13.82,2.37,2.77,-0.06,95,65,3.6506457328796387,3.6501474380493164
3,-0.24532748758792877,0.8933067321777344,-0.028685087338089943,36.7156696,3.1847219,13.83,3.53,4.08,0.01,95,51,5.404671669006348,5.404662609100342
4,-0.2258697748184204,0.8528819680213928,-0.015810146927833557,36.7157198,3.1847933,13.78,3.74,4.24,0.01,94,48,5.65534782409668,5.655318260192871
5,0.20166069269180298,0.8343918919563293,-0.03463670238852501,36.7157711,3.1848647,13.8,2.19,2.41,0.0,94,47,3.2665183544158936,3.266512155532837
6,0.17479169368743896,-0.08381417393684387,-0.2561616599559784,36.7157797,3.1848719,13.84,-1.05,-1.67,0.0,93,355,1.9805577993392944,1.9805415868759155
7,-0.15748897194862366,-1.9215713739395142,-0.04038672149181366,36.71575,3.1848177,13.8,-2.31,-3.23,0.0,93,249,3.9801719188690186,3.9801712036132812
8,-0.04765286669135094,-2.0812480449676514,0.058533743023872375,36.7157203,3.1847625,13.86,-1.99,-3.19,0.02,93,240,3.765392780303955,3.7653298377990723
9,-0.10971861332654953,-1.4483891725540161,0.2595389783382416,36.7157066,3.1847107,13.8,0.42,-2.78,0.02,92,277,2.8123600482940674,2.8122880458831787
10,-0.43734118342399597,-0.6461129784584045,0.021230770274996758,36.7157479,3.1846536,13.8,4.7,-3.37,0.0,92,322,5.790380001068115,5.790379524230957
11,-0.5353212952613831,-0.6273835897445679,0.027882643043994904,36.7158287,3.1845833,13.8,7.04,-4.85,0.0,91,324,8.55532455444336,8.555320739746094
12,-0.4643672704696655,-0.6172163486480713,-0.02505994588136673,36.7159491,3.1844792,13.82,7.88,-5.49,0.0,91,324,9.609875679016113,9.609872817993164
13,-0.3789498805999756,-0.6192095279693604,-0.007940405048429966,36.7160541,3.184387,13.85,7.4,-5.23,-0.01,91,324,9.06665325164795,9.066636085510254
14,-0.013031123206019402,-0.6276036500930786,-0.014207764528691769,36.7161417,3.1843095,13.86,5.17,-3.74,0.04,90,324,6.392825603485107,6.392662048339844
15,-0.10927171260118484,-1.4039853811264038,-0.27031874656677246,36.7161891,3.184248,14.07,0.43,-2.92,-0.34,90,279,2.9789254665374756,2.9590349197387695
16,-0.37757474184036255,-2.1372978687286377,-0.07148146629333496,36.7161684,3.184187,15.08,-3.21,-4.64,-0.97,89,237,5.7345871925354,5.650896072387695
17,-0.5085238218307495,-2.1609110832214355,0.0290224626660347,36.7161003,3.1840669,17.37,-5.11,-7.37,-1.51,89,236,9.098308563232422,8.971290588378906
18,-0.4207296371459961,-2.1642487049102783,0.012724949978291988,36.7160265,3.183934,19.81,-5.55,-8.03,-1.6,88,236,9.899459838867188,9.768793106079102
19,-0.44983962178230286,-2.1635961532592773,-0.02693638764321804,36.7159512,3.183796,22.26,-5.54,-8.19,-1.57,88,236,10.0228271484375,9.897997856140137
20,-0.46217748522758484,-2.166869640350342,0.03930183872580528,36.7158637,3.1836337,25.12,-5.54,-8.24,-1.6,88,235,10.066811561584473,9.93799114227295
21,-0.42193910479545593,-2.164334774017334,0.016532057896256447,36.7157886,3.1834941,27.61,-5.52,-8.27,-1.6,87,236,10.076961517333984,9.947526931762695
22,-0.488415390253067,-2.163067579269409,0.007594742346554995,36.7157017,3.1833313,30.52,-5.5,-8.25,-1.6,87,236,10.054031372070312,9.925082206726074
23,-0.4496500790119171,-2.1639647483825684,0.03887147456407547,36.715627,3.183192,33.01,-5.53,-8.28,-1.62,86,236,10.095489501953125,9.963262557983398
24,-0.425314724445343,-2.162980318069458,-0.01265692338347435,36.7155521,3.1830519,35.51,-5.51,-8.31,-1.62,86,236,10.103569030761719,9.971235275268555
25,-0.48889094591140747,-2.166792631149292,0.028382619842886925,36.7154648,3.1828889,38.43,-5.51,-8.24,-1.62,85,235,10.049763679504395,9.917779922485352
26,-0.44461995363235474,-2.1642043590545654,0.02940203621983528,36.7153903,3.1827497,40.93,-5.51,-8.31,-1.63,85,236,10.113387107849121,9.980297088623047
27,-0.477835088968277,-2.163822650909424,-0.02326483651995659,36.7153032,3.1825859,43.85,-5.53,-8.31,-1.63,84,236,10.11861515045166,9.985722541809082
28,-0.47584715485572815,-2.1673717498779297,0.037129465490579605,36.7152281,3.1824461,46.36,-5.51,-8.27,-1.63,84,235,10.076302528381348,9.943357467651367
29,-0.4148638844490051,-2.163928985595703,0.017298052087426186,36.7151535,3.1823064,48.86,-5.48,-8.29,-1.63,84,236,10.07532024383545,9.941726684570312
30,-0.2302725613117218,-2.167073965072632,-0.00473862374201417,36.7150721,3.1821552,51.6,-4.54,-6.75,-1.35,83,235,8.254467964172363,8.142631530761719
31,-0.0419158935546875,-2.159769296646118,0.025759870186448097,36.7150221,3.1820617,53.16,-2.9,-4.43,-0.65,83,236,5.34698486328125,5.306747913360596
32,-0.16544479131698608,-2.1133437156677246,0.028685437515378,36.7149843,3.1819853,53.76,-2.15,-3.68,-0.1,82,238,4.270152568817139,4.268808841705322
33,-0.129490464925766,-2.1025900840759277,-0.006662873551249504,36.7149561,3.1819241,53.78,-2.08,-3.68,-0.01,82,239,4.23447322845459,4.234455585479736
34,-0.030759291723370552,-2.103163480758667,-0.01065573375672102,36.7149293,3.1818659,53.77,-1.7,-2.99,0.05,82,239,3.447211980819702,3.4466917514801025
35,0.013375717215240002,-2.3651671409606934,-0.06242028996348381,36.7149074,3.1818256,52.68,-1.18,-1.26,1.27,81,224,2.151502847671509,1.7332432270050049
36,-0.03396652638912201,-2.4728245735168457,0.030413076281547546,36.7148927,3.1818101,50.42,-1.02,-0.79,1.44,81,218,1.9442294836044312,1.297183871269226
37,-0.06389489769935608,-2.469521999359131,-0.0031029582023620605,36.7148763,3.1817946,47.81,-1.04,-0.84,1.43,81,218,1.9657272100448608,1.3470500707626343
38,-0.013704686425626278,-2.4697577953338623,0.01615919917821884,36.7148619,3.1817805,45.56,-1.06,-0.87,1.43,80,218,1.9886679649353027,1.3772403001785278
39,-0.05523137003183365,-2.4694881439208984,0.02142709493637085,36.714845,3.1817635,42.95,-1.06,-0.88,1.44,80,218,2.002943515777588,1.3827565908432007
40,-0.010271189734339714,-2.469338893890381,0.0179474838078022,36.7148329,3.1817513,41.08,-1.07,-0.87,1.45,79,218,2.0103180408477783,1.3862682580947876
41,-0.053853798657655716,-2.470017194747925,0.022704454138875008,36.7148159,3.1817342,38.46,-1.06,-0.88,1.45,79,218,2.008829116821289,1.3829411268234253
42,-0.05373740568757057,-2.4696297645568848,-0.019379179924726486,36.7147989,3.181717,35.84,-1.06,-0.88,1.46,79,218,2.0181479454040527,1.389157772064209
43,-0.0264459066092968,-2.468916177749634,0.02951955981552601,36.7147843,3.1817024,33.6,-1.07,-0.88,1.47,78,218,2.0260839462280273,1.3889936208724976
44,-0.057963769882917404,-2.4696998596191406,0.018357547000050545,36.7147672,3.1816852,30.98,-1.06,-0.89,1.47,78,218,2.0232176780700684,1.3865506649017334
45,-0.007731742691248655,-2.469428062438965,-0.003781998762860894,36.7147527,3.1816705,28.73,-1.06,-0.88,1.47,78,218,2.0211668014526367,1.3826030492782593
46,-0.06250429153442383,-2.4702680110931396,0.009672226384282112,36.7147381,3.1816558,26.49,-1.06,-0.88,1.48,77,218,2.029963493347168,1.3871729373931885
47,-0.03497377410531044,-2.4693028926849365,-0.02830721065402031,36.7147211,3.1816385,23.86,-1.06,-0.88,1.47,77,218,2.027942419052124,1.3866249322891235
48,-0.03199828416109085,-2.4694669246673584,0.028918970376253128,36.7147065,3.1816238,21.6,-1.05,-0.88,1.47,77,218,2.0179877281188965,1.3779315948486328
49,-0.028843048959970474,-2.4697275161743164,-0.02210497297346592,36.7146919,3.1816092,19.36,-1.06,-0.88,1.47,76,218,2.026951551437378,1.3851896524429321
50,-0.009223881177604198,-2.469578742980957,0.009319890290498734,36.714675,3.181592,16.73,-1.06,-0.87,1.47,76,218,2.020782232284546,1.3788087368011475
51,-0.15245741605758667,-3.060021162033081,-0.11568649113178253,36.7146568,3.1815804,14.57,-1.82,-0.23,1.15,75,184,2.1723318099975586,1.8382307291030884
52,-0.21131783723831177,2.6687326431274414,-0.04013064131140709,36.7146139,3.1815974,13.8,-3.56,1.77,-0.06,75,152,3.9806244373321533,3.980152130126953
53,-0.17688482999801636,2.67166805267334,0.020464587956666946,36.7145608,3.1816306,13.89,-4.01,2.05,0.02,75,153,4.5062360763549805,4.5061845779418945
54,-0.0527246929705143,3.1012465953826904,0.19258403778076172,36.7145003,3.1816589,13.83,-3.4,0.12,0.04,74,177,3.408010721206665,3.407715320587158
55,-0.3728587031364441,-2.1995506286621094,0.13220252096652985,36.7144588,3.1816289,13.82,-3.02,-3.81,0.01,74,233,4.866203784942627,4.8661699295043945
56,-0.47597479820251465,-2.150435447692871,-0.020255275070667267,36.7144105,3.1815386,13.82,-4.25,-6.67,0.01,73,236,7.914732456207275,7.914721488952637
57,-0.4437408745288849,-2.1548774242401123,0.02895362116396427,36.714336,3.1813938,13.83,-4.97,-7.71,0.0,73,236,9.182900428771973,9.182896614074707
58,-0.3031434118747711,-2.1572792530059814,-0.018191350623965263,36.7142692,3.1812659,13.85,-4.7,-7.18,0.0,73,236,8.589451789855957,8.589449882507324
59,-0.24312427639961243,-2.145634174346924,0.04287483170628548,36.7142027,3.1811377,13.84,-3.73,-5.88,0.03,72,237,6.964799880981445,6.964734077453613
60,-0.25640469789505005,-2.1142547130584717,-0.010781285353004932,36.7141553,3.1810411,13.82,-3.35,-5.65,0.01,72,238,6.571591377258301,6.5715813636779785
61,-0.30355018377304077,-2.100736379623413,0.024311022832989693,36.7141111,3.1809459,13.82,-3.21,-5.64,0.0,71,239,6.491939544677734,6.4919328689575195
62,-0.1497950404882431,-2.10030198097229,-0.02687207981944084,36.7140611,3.1808366,13.83,-2.97,-5.2,0.0,71,239,5.9913716316223145,5.9913716316223145
63,0.13990674912929535,-2.1014792919158936,0.02815118618309498,36.7140283,3.1807654,13.8,-1.64,-2.88,0.03,71,239,3.3157503604888916,3.315568208694458
64,0.06708693504333496,-2.1006712913513184,-0.00815697479993105,36.7140163,3.1807389,13.81,-0.09,-0.18,-0.01,70,239,0.20347554981708527,0.2028128057718277
65,0.01875334605574608,-2.0988051891326904,0.07777479290962219,36.7140173,3.1807405,13.79,0.21,0.07,0.03,70,239,0.23022125661373138,0.2267826944589615
