timestamp,pitch,yaw,roll,lat,lon,alt,velocity_x,velocity_y,velocity_z,battery,heading,airspeed,groundspeed
0,-0.014428701251745224,0.03413623198866844,-0.02747521363198757,36.7156065,3.1846302,11.38,0.0,0.0,-0.73,98,1,0.7323516011238098,0.004805912263691425
1,-0.06062395125627518,0.04655979201197624,0.0846589133143425,36.715608,3.1846328,11.97,0.43,0.54,-0.12,97,2,0.7118656039237976,0.7006672620773315
2,-0.2883317470550537,1.2747405767440796,-0.07615922391414642,36.7156231,3.1846554,12.07,1.94,2.41,-0.06,97,73,3.103849411010742,3.1030867099761963
3,-0.306171178817749,0.9254260659217834,-0.018250830471515656,36.7156668,3.1847234,12.02,3.36,4.2,0.06,97,53,5.391044616699219,5.390670299530029
4,-0.17737440764904022,0.8849703669548035,0.014634940773248672,36.715715,3.184797,11.87,3.57,4.37,0.06,96,50,5.653243064880371,5.652888298034668
5,0.14297892153263092,0.873458743095398,0.006578522268682718,36.7157644,3.1848714,11.8,2.15,2.58,0.01,96,50,3.3701770305633545,3.3701374530792236
6,0.262418657541275,0.11737877875566483,-0.2729688882827759,36.7157735,3.1848814,11.81,-0.96,-1.55,0.0,95,6,1.8338069915771484,1.8338059186935425
7,-0.13113053143024445,-1.462280035018921,-0.08008798211812973,36.7157496,3.1848373,11.77,-2.25,-3.21,0.02,95,276,3.9290857315063477,3.9290149211883545
8,-0.10798820108175278,-2.1644229888916016,0.03701935335993767,36.7157149,3.1847731,11.83,-2.02,-3.21,0.01,95,235,3.796938180923462,3.7969141006469727
9,-0.0372866652905941,-1.5019431114196777,0.2698444426059723,36.7157001,3.1847211,11.78,0.26,-2.8,0.01,94,273,2.814145803451538,2.8141000270843506
10,-0.44769349694252014,-0.6557202935218811,0.08209357410669327,36.7157391,3.1846641,11.78,4.54,-3.33,0.0,94,322,5.640264987945557,5.640264511108398
11,-0.4774289131164551,-0.6291632056236267,0.02340369112789631,36.7158183,3.1845946,11.78,6.96,-4.82,-0.01,93,323,8.475780487060547,8.4757719039917
12,-0.4964316189289093,-0.6213740706443787,-0.03099694289267063,36.7159201,3.1845061,11.8,7.87,-5.5,0.0,93,324,9.607625961303711,9.607625961303711
13,-0.3462873101234436,-0.6235976815223694,0.027636736631393433,36.7160428,3.1843978,11.83,7.39,-5.28,-0.01,93,324,9.090819358825684,9.090798377990723
14,-0.042251814156770706,-0.6290610432624817,-0.05511321499943733,36.7161307,3.1843197,11.85,5.22,-3.78,0.04,92,323,6.453022003173828,6.452845096588135
15,-0.04248768836259842,-1.3924280405044556,-0.2843555212020874,36.7161793,3.1842579,12.04,0.52,-2.93,-0.33,92,280,3.00162935256958,2.983302593231201
16,-0.43588003516197205,-2.1309759616851807,-0.0766502246260643,36.7161598,3.184197,13.04,-3.16,-4.63,-0.96,91,237,5.690606594085693,5.608883380889893
17,-0.47916677594184875,-2.158820629119873,0.03651333600282669,36.7161032,3.1840977,14.93,-4.92,-7.04,-1.46,91,236,8.720471382141113,8.59730339050293
18,-0.4484766125679016,-2.164219617843628,-0.0356401763856411,36.7160181,3.183945,17.74,-5.55,-8.03,-1.6,90,236,9.900309562683105,9.77015209197998
19,-0.48990386724472046,-2.1651296615600586,0.01387835294008255,36.7159427,3.183807,20.19,-5.53,-8.21,-1.58,90,235,10.029046058654785,9.902816772460938
20,-0.4234936535358429,-2.1634650230407715,0.004920875653624535,36.7158551,3.1836442,23.07,-5.53,-8.24,-1.6,89,236,10.054343223571777,9.925832748413086
21,-0.4734880030155182,-2.1638474464416504,-0.027427397668361664,36.7157804,3.1835049,25.55,-5.51,-8.25,-1.6,89,236,10.061003684997559,9.932524681091309
22,-0.4910670518875122,-2.164121389389038,0.004556669387966394,36.7157057,3.1833656,28.04,-5.52,-8.25,-1.6,89,236,10.061641693115234,9.932156562805176
23,-0.42631322145462036,-2.16550350189209,-0.001296086935326457,36.7156184,3.1832026,30.95,-5.51,-8.29,-1.62,88,235,10.08985710144043,9.958182334899902
24,-0.47969889640808105,-2.1637487411499023,-0.023920387029647827,36.7155438,3.1830629,33.45,-5.51,-8.29,-1.62,88,236,10.09466552734375,9.963163375854492
25,-0.44613930583000183,-2.1633777618408203,0.030054260045289993,36.7154568,3.1829,36.37,-5.51,-8.28,-1.62,87,236,10.090506553649902,9.958197593688965
26,-0.43162649869918823,-2.164296865463257,-0.01057529915124178,36.7153819,3.1827602,38.87,-5.55,-8.27,-1.63,87,236,10.100275993347168,9.967744827270508
27,-0.4791964292526245,-2.1659629344940186,-0.013352303765714169,36.7153068,3.18262,41.36,-5.51,-8.29,-1.63,86,235,10.09302806854248,9.95916748046875
28,-0.4383080303668976,-2.164546489715576,0.03412500023841858,36.7152197,3.1824568,44.29,-5.5,-8.29,-1.64,86,235,10.089123725891113,9.953635215759277
29,-0.4206494390964508,-2.1636104583740234,-0.02644522301852703,36.7151453,3.1823172,46.8,-5.51,-8.27,-1.63,85,236,10.080094337463379,9.945884704589844
30,-0.22568047046661377,-2.168795347213745,0.029758688062429428,36.7150634,3.1821655,49.54,-4.56,-6.79,-1.35,85,235,8.297612190246582,8.185809135437012
31,-0.03979864716529846,-2.158684015274048,0.008928770199418068,36.7150132,3.1820714,51.12,-2.91,-4.45,-0.66,85,236,5.364068984985352,5.322391986846924
32,-0.16765879094600677,-2.107126235961914,0.019429855048656464,36.7149805,3.1820054,51.71,-2.15,-3.71,-0.15,84,239,4.301440238952637,4.298583030700684
33,-0.13863088190555573,-2.0864274501800537,-0.016411179676651955,36.7149484,3.1819337,51.76,-2.0,-3.69,0.0,84,240,4.198504447937012,4.198497772216797
34,-0.02076052874326706,-2.0887043476104736,0.013880886137485504,36.7149226,3.1818751,51.75,-1.64,-3.03,0.05,84,240,3.4493794441223145,3.4488635063171387
35,0.0025942842476069927,-2.3577804565429688,-0.0618441216647625,36.7149011,3.1818343,50.67,-1.18,-1.27,1.27,83,224,2.1582083702087402,1.7436316013336182
36,-0.017536820843815804,-2.472996234893799,0.027810074388980865,36.7148863,3.1818188,48.41,-1.03,-0.79,1.44,83,218,1.9519729614257812,1.3100486993789673
37,-0.039725374430418015,-2.471081018447876,-0.02297503687441349,36.7148723,3.1818057,46.18,-1.04,-0.83,1.43,82,218,1.958066701889038,1.3353937864303589
38,-0.009205738082528114,-2.4699530601501465,0.0014942592242732644,36.7148557,3.1817892,43.56,-1.06,-0.88,1.44,82,218,1.997025728225708,1.3824868202209473
39,-0.06089070439338684,-2.4691591262817383,-0.01061414834111929,36.7148412,3.1817746,41.32,-1.07,-0.89,1.44,82,218,2.0103938579559326,1.3957269191741943
40,-0.02388411946594715,-2.469424247741699,-0.023773562163114548,36.7148242,3.1817575,38.7,-1.07,-0.88,1.45,81,218,2.011608362197876,1.3894331455230713
41,-0.05403744429349899,-2.469761848449707,0.028159240260720253,36.7148096,3.181743,36.45,-1.07,-0.89,1.45,81,218,2.020421028137207,1.3969056606292725
42,-0.01673562452197075,-2.4698314666748047,-0.01719474606215954,36.7147951,3.1817283,34.21,-1.08,-0.88,1.46,81,218,2.0246665477752686,1.3990089893341064
43,-0.019301682710647583,-2.4696860313415527,0.025291264057159424,36.714778,3.181711,31.59,-1.05,-0.89,1.47,80,218,2.019731044769287,1.3843605518341064
44,-0.03957468271255493,-2.4693338871002197,-0.023264242336153984,36.7147634,3.1816963,29.34,-1.07,-0.88,1.47,80,218,2.0271201133728027,1.3913620710372925
45,-0.00729907164350152,-2.4694178104400635,3.3346916552545736e-06,36.7147463,3.1816791,26.73,-1.07,-0.87,1.48,80,218,2.0295581817626953,1.3870683908462524
46,-0.0596039779484272,-2.469583749771118,-0.0005551297217607498,36.7147318,3.1816644,24.48,-1.06,-0.88,1.48,79,218,2.032457113265991,1.3867241144180298
47,-0.008413361385464668,-2.4693684577941895,0.011893198825418949,36.7147173,3.1816497,22.23,-1.06,-0.88,1.47,79,218,2.029118061065674,1.3881958723068237
48,-0.05304688960313797,-2.469341516494751,0.019242264330387115,36.7147002,3.1816325,19.6,-1.06,-0.88,1.47,78,218,2.0256175994873047,1.3869683742523193
49,-0.016716377809643745,-2.469754457473755,-0.019948983564972878,36.7146857,3.1816177,17.35,-1.06,-0.87,1.47,78,218,2.0210683345794678,1.381328821182251
50,-0.025320766493678093,-2.4690301418304443,0.029609788209199905,36.7146686,3.1816006,14.72,-1.06,-0.88,1.47,78,218,2.024667501449585,1.3888659477233887
51,-0.1372370421886444,-3.050997734069824,-0.13061627745628357,36.7146506,3.1815889,12.56,-1.82,-0.22,1.16,77,185,2.1741561889648438,1.836997389793396
52,-0.19659802317619324,2.6757800579071045,-0.022195681929588318,36.7146076,3.1816055,11.78,-3.57,1.75,-0.05,77,153,3.9825377464294434,3.9820895195007324
53,-0.1962515413761139,2.6793367862701416,-0.0009527618531137705,36.714554,3.1816383,11.87,-4.07,2.03,0.02,77,153,4.5515522956848145,4.551492691040039
54,-0.0010371177922934294,2.9455039501190186,0.18006783723831177,36.7145006,3.181666,11.82,-3.61,0.73,0.05,76,168,3.6870579719543457,3.686660051345825
55,-0.39704203605651855,-2.205514669418335,0.14533062279224396,36.7144507,3.1816396,11.8,-2.99,-3.7,0.01,76,233,4.763739109039307,4.763698101043701
56,-0.45356181263923645,-2.1439874172210693,-0.004129067528992891,36.7144033,3.1815507,11.8,-4.15,-6.6,0.01,75,237,7.798572540283203,7.798564910888672
57,-0.48661577701568604,-2.146878719329834,-0.025982432067394257,36.7143413,3.1814281,11.81,-4.88,-7.68,0.0,75,237,9.103198051452637,9.103196144104004
58,-0.3120534420013428,-2.152308464050293,0.011476225219666958,36.714264,3.1812784,11.83,-4.7,-7.23,0.0,75,236,8.634498596191406,8.634493827819824
59,-0.24776481091976166,-2.146421194076538,-0.008581282570958138,36.7142058,3.1811661,11.83,-3.86,-6.08,0.03,74,237,7.20253849029541,7.202474594116211
60,-0.24165824055671692,-2.1131019592285156,0.019882947206497192,36.7141501,3.1810522,11.8,-3.33,-5.67,0.01,74,238,6.581099987030029,6.581090450286865
61,-0.2914595901966095,-2.0993404388427734,-0.023285459727048874,36.714106,3.1809569,11.8,-3.22,-5.64,0.0,73,239,6.495494365692139,6.495487213134766
62,-0.1849251538515091,-2.1004161834716797,0.0331350639462471,36.7140625,3.1808622,11.8,-3.09,-5.41,0.0,73,239,6.237461566925049,6.237461090087891
63,0.11886096745729446,-2.1002426147460938,-0.010892397724092007,36.7140225,3.1807753,11.78,-1.68,-2.94,0.03,73,239,3.3986425399780273,3.3984439373016357
64,0.14391806721687317,-2.100166082382202,0.015059052035212517,36.7140104,3.1807486,11.79,-0.26,-0.45,-0.02,72,239,0.5271707773208618,0.5266528725624084
65,-0.02237577550113201,-2.1019229888916016,0.07400931417942047,36.7140108,3.1807489,11.77,0.2,0.08,0.03,72,239,0.22403009235858917,0.22044214606285095
