timestamp,pitch,yaw,roll,lat,lon,alt,velocity_x,velocity_y,velocity_z,battery,heading,airspeed,groundspeed
0,0.027924874797463417,0.024153871461749077,-0.001679115230217576,36.7156066,3.18463,27.16,-0.02,0.02,0.11,96,1,0.12400665134191513,0.03230803459882736
1,-0.07489200681447983,0.016914047300815582,0.10630666464567184,36.7156076,3.1846323,27.05,0.26,0.54,0.0,95,0,0.6022208333015442,0.6021714806556702
2,-0.14930759370326996,1.4942383766174316,-0.09299754351377487,36.7156171,3.1846536,27.03,1.14,2.13,-0.06,95,85,2.4218034744262695,2.421006202697754
3,-0.08091109246015549,0.9263067245483398,-0.006358876824378967,36.7156396,3.1847044,27.11,1.53,2.78,-0.07,95,53,3.1836905479431152,3.1827902793884277
4,0.20103022456169128,1.0717118978500366,0.027115516364574432,36.7156573,3.1847442,27.17,0.66,1.3,-0.03,94,61,1.4608659744262695,1.4603297710418701
5,-0.03822841867804527,2.5841689109802246,0.22809462249279022,36.7156468,3.184727,27.19,-1.87,-2.71,-0.05,94,148,3.300623893737793,3.3001768589019775
6,-0.12160363048315048,-2.14796781539917,0.023180590942502022,36.7156171,3.184673,27.21,-2.24,-3.29,-0.01,93,236,3.9930293560028076,3.993013620376587
7,-0.04759855940937996,-2.108745574951172,0.11884273588657379,36.7155896,3.1846174,27.2,-1.4,-3.18,0.0,93,239,3.484715461730957,3.484712839126587
8,-0.3188972473144531,-0.7447160482406616,0.11229753494262695,36.7155961,3.1845593,27.19,2.63,-2.83,0.0,93,317,3.8680171966552734,3.8680174350738525
9,-0.513767421245575,-0.6095741987228394,0.023513445630669594,36.7156547,3.1845032,27.2,5.86,-4.07,0.0,92,325,7.138356685638428,7.13835334777832
10,-0.5013828873634338,-0.6146823167800903,-0.026873886585235596,36.7157644,3.1844085,27.22,7.72,-5.36,0.0,92,324,9.410260200500488,9.410258293151855
11,-0.48616135120391846,-0.6186329126358032,0.001955729443579912,36.7158712,3.1843154,27.23,7.9,-5.57,0.0,91,324,9.671664237976074,9.671662330627441
12,-0.15643645823001862,-0.6225254535675049,-0.015324496664106846,36.7159872,3.1842134,27.28,6.32,-4.5,0.02,91,324,7.762515544891357,7.762477397918701
13,0.050061486661434174,-0.7812062501907349,-0.1470893770456314,36.7160534,3.1841515,27.28,3.03,-3.05,-0.05,91,315,4.307579040527344,4.3072333335876465
14,-0.29687026143074036,-1.9955297708511353,-0.19539447128772736,36.7160654,3.1841013,27.77,-1.34,-3.47,-0.58,90,245,3.7777626514434814,3.7317774295806885
15,-0.4776232838630676,-2.1812944412231445,0.05613981559872627,36.7160161,3.1840089,29.49,-4.35,-6.23,-1.3,90,235,7.720094203948975,7.608358860015869
16,-0.44662439823150635,-2.165842056274414,-0.008508292026817799,36.7159486,3.1838879,31.76,-5.36,-7.85,-1.59,89,235,9.640047073364258,9.507512092590332
17,-0.47834512591362,-2.1657536029815674,-0.027521353214979172,36.7158736,3.1837513,34.24,-5.54,-8.11,-1.57,89,235,9.953585624694824,9.828707695007324
18,-0.43076467514038086,-2.1640422344207764,0.026207633316516876,36.7157856,3.1835889,37.1,-5.53,-8.22,-1.58,88,236,10.043157577514648,9.916950225830078
19,-0.4277931749820709,-2.1643402576446533,-0.02129269205033779,36.7157107,3.1834496,39.57,-5.51,-8.23,-1.59,88,236,10.039146423339844,9.911588668823242
20,-0.4833773672580719,-2.163755178451538,0.029309727251529694,36.715624,3.1832877,42.47,-5.52,-8.29,-1.59,87,236,10.091197967529297,9.963550567626953
21,-0.43040332198143005,-2.162827968597412,0.028923416510224342,36.715549,3.1831478,44.96,-5.55,-8.29,-1.61,87,236,10.115160942077637,9.985086441040039
22,-0.48246151208877563,-2.1639559268951416,-0.006433067377656698,36.7154615,3.1829845,47.87,-5.5,-8.26,-1.61,86,236,10.06501579284668,9.93423080444336
23,-0.46451306343078613,-2.164536476135254,0.0405319482088089,36.715387,3.1828452,50.38,-5.5,-8.28,-1.62,86,235,10.07905387878418,9.947210311889648
24,-0.4228766858577728,-2.161642074584961,-0.002320157829672098,36.7153124,3.1827052,52.87,-5.51,-8.31,-1.63,86,236,10.11177921295166,9.97951889038086
25,-0.49000248312950134,-2.1663928031921387,0.011461623013019562,36.715225,3.1825421,55.79,-5.54,-8.27,-1.63,85,235,10.096755027770996,9.964140892028809
26,-0.4468229413032532,-2.1649553775787354,0.04058964550495148,36.7151501,3.1824023,58.3,-5.5,-8.29,-1.63,85,235,10.088467597961426,9.955822944641113
27,-0.4779908359050751,-2.1629199981689453,-0.028584390878677368,36.7150632,3.1822391,61.22,-5.51,-8.3,-1.62,84,236,10.104328155517578,9.972867012023926
28,-0.3697403371334076,-2.165374994277954,0.01816568523645401,36.7149892,3.1821012,63.69,-5.24,-7.77,-1.55,84,235,9.511309623718262,9.38374137878418
29,-0.06139909848570824,-2.1670074462890625,0.006207786034792662,36.7149267,3.1819855,65.79,-3.81,-5.66,-1.07,83,235,6.914036273956299,6.8303751945495605
30,-0.13566561043262482,-2.137687921524048,0.04044938087463379,36.7148801,3.1818963,66.99,-2.3,-3.75,-0.32,83,237,4.4221272468566895,4.410444736480713
31,-0.132010817527771,-2.1052098274230957,-0.016957895830273628,36.7148509,3.1818345,67.18,-2.08,-3.67,-0.03,83,239,4.224543571472168,4.224414825439453
32,-0.05312091484665871,-2.103106737136841,0.023422781378030777,36.7148183,3.1817632,67.17,-1.99,-3.51,-0.03,82,239,4.0364789962768555,4.036286354064941
33,0.04241429269313812,-2.169687032699585,-0.062270764261484146,36.7147958,3.1817156,66.91,-1.33,-2.03,0.52,82,235,2.489609479904175,2.4339897632598877
34,0.011555705219507217,-2.4638783931732178,0.0017961816629394889,36.7147794,3.1816924,65.17,-1.09,-0.91,1.49,82,218,2.0678489208221436,1.4271115064620972
35,-0.061104826629161835,-2.4693305492401123,0.016901623457670212,36.7147629,3.181677,62.5,-1.02,-0.8,1.41,81,218,1.9275285005569458,1.308769702911377
36,-0.012708199210464954,-2.468980073928833,-0.006325442809611559,36.7147488,3.1816633,60.26,-1.06,-0.86,1.42,81,218,1.9797892570495605,1.3729827404022217
37,-0.02919319085776806,-2.469613790512085,0.027805879712104797,36.714732,3.1816464,57.65,-1.06,-0.87,1.43,80,218,1.9965509176254272,1.3835601806640625
38,-0.037352826446294785,-2.4694886207580566,-0.025968750938773155,36.7147173,3.1816317,55.41,-1.07,-0.87,1.44,80,218,2.00651216506958,1.3891273736953735
39,-0.030332274734973907,-2.4694905281066895,0.02647692710161209,36.7147028,3.1816171,53.16,-1.06,-0.87,1.45,80,218,2.001784324645996,1.3800147771835327
40,-0.05922563001513481,-2.4696662425994873,0.003749224590137601,36.7146858,3.1816,50.55,-1.06,-0.89,1.45,79,218,2.012197732925415,1.3900115489959717
41,-0.007556012365967035,-2.4695544242858887,0.00525736203417182,36.7146712,3.1815853,48.31,-1.07,-0.87,1.46,79,218,2.0193839073181152,1.3848458528518677
42,-0.03975224867463112,-2.469968318939209,0.029633592814207077,36.7146542,3.1815682,45.68,-1.06,-0.88,1.46,79,218,2.0205137729644775,1.388161301612854
43,-0.022415243089199066,-2.4693431854248047,-0.02355826646089554,36.7146396,3.1815535,43.44,-1.06,-0.88,1.46,78,218,2.022127389907837,1.3897678852081299
44,-0.04376273602247238,-2.469627857208252,0.02701605297625065,36.714625,3.1815387,41.19,-1.06,-0.88,1.47,78,218,2.023343563079834,1.3846750259399414
45,-0.05995640903711319,-2.469290018081665,-0.013425440527498722,36.714608,3.1815216,38.57,-1.06,-0.88,1.47,78,218,2.0265657901763916,1.388267159461975
46,-0.014545424841344357,-2.469593048095703,0.016924003139138222,36.7145935,3.1815069,36.31,-1.06,-0.87,1.47,77,218,2.016817808151245,1.3792661428451538
47,-0.04850529879331589,-2.4695141315460205,0.01957419328391552,36.7145764,3.1814896,33.7,-1.05,-0.88,1.47,77,218,2.017324924468994,1.3764073848724365
48,-0.015378288924694061,-2.469491481781006,-0.01834184303879738,36.7145618,3.1814749,31.44,-1.06,-0.88,1.47,76,218,2.0233607292175293,1.3840430974960327
49,-0.0833914577960968,-2.5414984226226807,-0.03710535168647766,36.714547,3.1814604,29.19,-1.2,-0.8,1.46,76,214,2.0649526119232178,1.4514702558517456
50,-0.2592237591743469,2.754457473754883,-0.09776666015386581,36.7145175,3.1814576,27.28,-2.74,0.95,0.35,76,157,2.9278855323791504,2.9068515300750732
51,-0.18869294226169586,2.6796727180480957,0.019984159618616104,36.7144707,3.1814843,27.24,-3.96,1.97,-0.07,75,153,4.427474021911621,4.426769256591797
52,-0.10361617058515549,2.7343266010284424,0.0920550525188446,36.7144067,3.1815234,27.27,-3.9,1.62,0.06,75,156,4.230947971343994,4.230409145355225
53,-0.15436455607414246,-2.7006494998931885,0.26486697793006897,36.7143588,3.1815301,27.22,-3.02,-1.38,0.03,75,205,3.32596492767334,3.325794219970703
54,-0.4792896807193756,-2.1572539806365967,0.05786764621734619,36.7143098,3.181459,27.22,-3.58,-5.7,0.02,74,236,6.734033584594727,6.733992576599121
55,-0.4633093774318695,-2.15399169921875,-0.011797210201621056,36.714253,3.1813466,27.22,-4.72,-7.42,0.0,74,236,8.79771900177002,8.797718048095703
56,-0.455425888299942,-2.150559663772583,-0.022354833781719208,36.7141866,3.1812172,27.24,-4.95,-7.69,0.0,73,236,9.156549453735352,9.156549453735352
57,-0.2386625111103058,-2.151660203933716,0.0029280283488333225,36.7141128,3.1810749,27.26,-4.21,-6.51,0.02,73,236,7.757819175720215,7.7577643394470215
58,-0.29538050293922424,-2.1313364505767822,0.005576140247285366,36.7140613,3.1809732,27.24,-3.47,-5.69,0.03,73,237,6.671469211578369,6.671362400054932
59,-0.25680720806121826,-2.1035232543945312,-0.00593959167599678,36.714009,3.1808625,27.23,-3.25,-5.66,0.01,72,239,6.529419898986816,6.529404640197754
60,-0.293232262134552,-2.0996251106262207,0.005753176752477884,36.7139652,3.180767,27.23,-3.24,-5.7,0.01,72,239,6.560081481933594,6.560070991516113
61,-0.009335344657301903,-2.100572347640991,0.005172095261514187,36.7139244,3.1806781,27.23,-2.58,-4.5,0.02,71,239,5.199016094207764,5.198967456817627
62,0.1462685912847519,-2.100749969482422,0.026442429050803185,36.7138977,3.1806201,27.2,-0.7,-1.25,-0.01,71,239,1.435638427734375,1.4355965852737427
63,0.04360999912023544,-2.1008472442626953,-0.025347013026475906,36.7138949,3.1806135,27.21,0.09,0.13,0.0,71,239,0.16952313482761383,0.16947542130947113
64,-0.015277997590601444,-2.012584924697876,0.1656857579946518,36.7138993,3.1806142,27.17,0.79,-0.48,-0.02,70,244,0.9346201419830322,0.934272289276123
