timestamp,pitch,yaw,roll,lat,lon,alt,velocity_x,velocity_y,velocity_z,battery,heading,airspeed,groundspeed
0,0.031907662749290466,0.032740551978349686,0.0014414980541914701,36.7156066,3.18463,26.28,-0.03,0.02,0.05,96,1,0.06770675629377365,0.041113805025815964
1,-0.11748655885457993,0.042254794389009476,0.10862595587968826,36.7156082,3.1846323,26.27,0.43,0.55,-0.01,95,2,0.7080370187759399,0.7079553604125977
2,-0.18457986414432526,1.200823426246643,-0.08923705667257309,36.7156241,3.1846551,26.23,1.95,2.25,-0.05,95,68,2.9833383560180664,2.982905149459839
3,-0.11006208509206772,0.8847034573554993,-0.006140138488262892,36.7156617,3.1847087,26.3,2.58,2.93,-0.06,95,50,3.9137251377105713,3.913212776184082
4,0.11871285736560822,0.8275063037872314,-0.02809843420982361,36.7156943,3.1847538,26.34,1.79,1.92,-0.03,94,47,2.632639169692993,2.632413387298584
5,0.05347609519958496,-0.46468308568000793,-0.3150974214076996,36.7156976,3.1847507,26.35,-1.51,-2.28,-0.03,94,333,2.742136240005493,2.7418808937072754
6,-0.15644340217113495,-2.0158820152282715,0.011081752367317677,36.7156699,3.1847004,26.4,-2.35,-3.3,0.0,93,244,4.059665679931641,4.059656620025635
7,-0.07216772437095642,-1.9746094942092896,0.11571190506219864,36.7156363,3.1846347,26.38,-1.58,-3.19,0.01,93,246,3.570749044418335,3.57071590423584
8,-0.22300776839256287,-0.96062171459198,0.20721876621246338,36.7156341,3.1845843,26.37,1.66,-2.73,0.0,93,304,3.2069292068481445,3.2069263458251953
9,-0.49725767970085144,-0.62872314453125,0.036939263343811035,36.7156816,3.1845323,26.37,5.22,-3.64,0.0,92,323,6.374039649963379,6.3740363121032715
10,-0.4968753457069397,-0.6199656128883362,0.034236252307891846,36.7157679,3.1844578,26.38,7.33,-5.04,0.0,92,324,8.897409439086914,8.897404670715332
11,-0.5073212385177612,-0.6185094118118286,-0.015146915800869465,36.7158905,3.1843514,26.4,7.91,-5.55,0.0,91,324,9.669151306152344,9.669151306152344
12,-0.3081696927547455,-0.6203150153160095,0.036211974918842316,36.7159944,3.18426,26.44,7.13,-5.03,-0.01,91,324,8.735823631286621,8.73581600189209
13,0.01115348283201456,-0.6786990761756897,-0.11363707482814789,36.716086,3.1841781,26.43,4.02,-3.27,0.01,91,321,5.1874775886535645,5.187458038330078
14,-0.16679291427135468,-1.694554090499878,-0.2505728602409363,36.7161124,3.1841276,26.75,-0.31,-3.11,-0.43,90,262,3.1580348014831543,3.1272411346435547
15,-0.48381149768829346,-2.174542188644409,0.026100050657987595,36.716075,3.1840459,28.22,-3.97,-5.55,-1.17,90,235,6.932764530181885,6.833285331726074
16,-0.4505607485771179,-2.166224241256714,0.01830766722559929,36.7160111,3.1839331,30.35,-5.27,-7.61,-1.55,89,235,9.392802238464355,9.263304710388184
17,-0.44779667258262634,-2.1650919914245605,-0.03334705904126167,36.7159366,3.1837984,32.81,-5.55,-8.06,-1.58,89,235,9.917204856872559,9.789109230041504
18,-0.4593530297279358,-2.165900707244873,0.045524485409259796,36.7158486,3.1836367,35.67,-5.53,-8.22,-1.58,88,235,10.044349670410156,9.91905689239502
19,-0.4232526421546936,-2.1616077423095703,0.004911346826702356,36.7157738,3.1834971,38.14,-5.53,-8.26,-1.6,88,236,10.076887130737305,9.948809623718262
20,-0.4905676245689392,-2.1680080890655518,0.01070334017276764,36.7156863,3.1833346,41.04,-5.53,-8.25,-1.6,87,235,10.066579818725586,9.93790340423584
21,-0.4497348964214325,-2.164412021636963,0.04911511018872261,36.7156115,3.183195,43.53,-5.48,-8.28,-1.61,87,235,10.05993366241455,9.930240631103516
22,-0.4679037630558014,-2.162428855895996,-0.03403303027153015,36.7155248,3.1830323,46.43,-5.52,-8.28,-1.61,87,236,10.093173027038574,9.962363243103027
23,-0.47674617171287537,-2.165053606033325,-0.025488356128335,36.7154623,3.1829159,48.51,-5.54,-8.3,-1.62,86,235,10.114583969116211,9.982434272766113
24,-0.4299944341182709,-2.162343978881836,0.0299395564943552,36.7153749,3.1827523,51.44,-5.49,-8.29,-1.63,86,236,10.079171180725098,9.945879936218262
25,-0.48151493072509766,-2.166538715362549,-0.016610436141490936,36.7152878,3.1825896,54.36,-5.52,-8.27,-1.62,85,235,10.083303451538086,9.951645851135254
26,-0.4852997064590454,-2.164763927459717,0.030259016901254654,36.7152133,3.1824501,56.86,-5.52,-8.32,-1.64,85,235,10.124765396118164,9.9910306930542
27,-0.4347482919692993,-2.1649386882781982,-0.026540791615843773,36.7151259,3.1822863,59.78,-5.53,-8.29,-1.63,84,235,10.101886749267578,9.968141555786133
28,-0.4201667010784149,-2.165302276611328,-0.013826387003064156,36.7150512,3.1821473,62.28,-5.4,-8.05,-1.6,84,235,9.830557823181152,9.699121475219727
29,-0.1450699418783188,-2.1679091453552246,0.03243740275502205,36.7149847,3.182024,64.52,-4.24,-6.33,-1.25,83,235,7.723665714263916,7.621468544006348
30,-0.09617194533348083,-2.14819598197937,-0.0011596058029681444,36.7149329,3.1819256,66.02,-2.5,-3.95,-0.45,83,236,4.703162670135498,4.681344032287598
31,-0.11771102994680405,-2.1085100173950195,0.024606917053461075,36.7149025,3.1818627,66.35,-2.11,-3.66,-0.06,83,239,4.231802940368652,4.231306552886963
32,-0.14214842021465302,-2.103503465652466,0.021757079288363457,36.7148697,3.1817913,66.35,-2.07,-3.66,-0.02,82,239,4.207870960235596,4.20779275894165
33,0.06903425604104996,-2.1278579235076904,-0.03563456982374191,36.714845,3.1817384,66.24,-1.48,-2.44,0.28,82,238,2.8737635612487793,2.8595194816589355
34,-0.011727070435881615,-2.4156558513641357,-0.0268878024071455,36.7148277,3.1817102,64.88,-1.14,-1.09,1.41,82,221,2.1244006156921387,1.5866926908493042
35,-0.040428973734378815,-2.4633519649505615,-0.022507844492793083,36.7148111,3.1816939,62.22,-1.03,-0.8,1.42,81,218,1.9390002489089966,1.311160683631897
36,-0.03395099565386772,-2.4684393405914307,0.03173727169632912,36.714797,3.1816804,59.99,-1.04,-0.84,1.43,81,218,1.9698609113693237,1.344711184501648
37,-0.06201495602726936,-2.4695682525634766,0.002377003664150834,36.7147802,3.1816637,57.36,-1.06,-0.88,1.43,80,218,1.9946131706237793,1.3807350397109985
38,-0.009811976924538612,-2.4694437980651855,0.001866508973762393,36.7147657,3.181649,55.12,-1.07,-0.86,1.44,80,218,2.0032806396484375,1.385116457939148
39,-0.06125766783952713,-2.4693520069122314,-0.0031900585163384676,36.7147511,3.1816345,52.89,-1.06,-0.88,1.46,80,218,2.0129027366638184,1.384691596031189
40,-0.02791786380112171,-2.46988582611084,-0.021327586844563484,36.7147341,3.1816174,50.26,-1.06,-0.88,1.46,79,218,2.0164434909820557,1.3860602378845215
41,-0.0476791150867939,-2.4699056148529053,0.025901466608047485,36.7147195,3.1816026,48.02,-1.06,-0.88,1.46,79,218,2.0176446437835693,1.385210394859314
42,-0.05595608055591583,-2.469759941101074,-0.01259321253746748,36.7147025,3.1815855,45.4,-1.07,-0.89,1.47,79,218,2.035653591156006,1.3995466232299805
43,-0.018045777454972267,-2.469081401824951,0.022482722997665405,36.7146879,3.1815708,43.15,-1.06,-0.87,1.47,78,218,2.021523952484131,1.379465103149414
44,-0.05453496426343918,-2.469442844390869,-0.01633591391146183,36.7146733,3.1815561,40.9,-1.06,-0.88,1.47,78,218,2.022260904312134,1.383880615234375
45,-0.009901657700538635,-2.46980881690979,-0.017796790227293968,36.7146563,3.1815389,38.28,-1.06,-0.88,1.47,78,218,2.0271248817443848,1.3862968683242798
46,-0.05859610065817833,-2.470067024230957,0.013139230199158192,36.7146417,3.1815242,36.03,-1.05,-0.89,1.47,77,218,2.023449659347534,1.380703330039978
47,-0.03996274247765541,-2.4692697525024414,-0.019926298409700394,36.7146247,3.181507,33.4,-1.06,-0.88,1.47,77,218,2.0214908123016357,1.3853925466537476
48,-0.02601110003888607,-2.4694013595581055,0.02855778858065605,36.7146101,3.1814923,31.16,-1.06,-0.88,1.47,76,218,2.021768569946289,1.381144642829895
49,-0.04910968244075775,-2.4754581451416016,-0.04428037628531456,36.7145955,3.1814776,28.91,-1.09,-0.88,1.47,76,218,2.037079334259033,1.401259422302246
50,-0.16590815782546997,2.8975272178649902,-0.1060093492269516,36.7145704,3.181469,26.65,-2.3,0.44,0.7,76,166,2.4538466930389404,2.351881504058838
51,-0.24815329909324646,2.6709253787994385,-0.00044840871123597026,36.7145282,3.1814911,26.39,-3.73,1.86,-0.05,75,153,4.176537990570068,4.176156044006348
52,-0.10251837223768234,2.6857781410217285,0.022436128929257393,36.7144655,3.1815303,26.45,-3.94,1.91,0.06,75,153,4.3873982429504395,4.3869733810424805
53,-0.07959649711847305,-2.9869606494903564,0.29376229643821716,36.7144157,3.1815467,26.4,-3.2,-0.51,0.03,75,188,3.248387098312378,3.2481443881988525
54,-0.40350258350372314,-2.1882641315460205,0.06340915709733963,36.7143748,3.1815048,26.39,-3.14,-4.46,0.01,74,234,5.461084842681885,5.461058616638184
55,-0.48965689539909363,-2.156926393508911,0.03903272747993469,36.7143141,3.1813866,26.39,-4.51,-7.21,0.0,74,236,8.511883735656738,8.511881828308105
56,-0.422124445438385,-2.151157855987549,-0.010736526921391487,36.7142489,3.1812587,26.41,-4.95,-7.72,0.0,73,236,9.173866271972656,9.173866271972656
57,-0.308610200881958,-2.1532161235809326,0.03220517560839653,36.7141734,3.1811131,26.43,-4.39,-6.79,0.01,73,236,8.093737602233887,8.093728065490723
58,-0.23162861168384552,-2.139578342437744,0.0008793190936557949,36.7141196,3.1810079,26.41,-3.61,-5.77,0.03,73,237,6.819775104522705,6.819694995880127
59,-0.2777632176876068,-2.1142752170562744,0.03844515234231949,36.7140653,3.1808959,26.39,-3.32,-5.63,0.0,72,238,6.542420387268066,6.542415618896484
60,-0.2569427490234375,-2.1079747676849365,-0.01501103863120079,36.7140207,3.1808008,26.39,-3.28,-5.65,0.0,72,239,6.538849353790283,6.538842678070068
61,-0.13068093359470367,-2.1089468002319336,0.017098383978009224,36.7139779,3.1807093,26.4,-2.86,-4.91,0.0,71,239,5.686079025268555,5.6860785484313965
62,0.15038266777992249,-2.108973979949951,-0.02894606627523899,36.7139453,3.1806399,26.36,-1.05,-1.82,0.0,71,239,2.1054718494415283,2.1054675579071045
63,0.07332807779312134,-2.1092653274536133,0.028181931003928185,36.7139394,3.1806269,26.38,0.02,0.0,0.0,71,239,0.02603718265891075,0.024344144389033318
64,-0.041657235473394394,-2.112637519836426,0.11956550180912018,36.7139421,3.1806285,26.34,0.53,-0.21,0.0,70,238,0.5746196508407593,0.5746189951896667
