timestamp,pitch,yaw,roll,lat,lon,alt,velocity_x,velocity_y,velocity_z,battery,heading,airspeed,groundspeed
0,0.03312579542398453,0.0076897526159882545,0.0050557260401546955,36.7156067,3.1846299,17.87,-0.03,0.03,-0.01,96,0,0.04907497391104698,0.047086331993341446
1,-0.0694412812590599,0.0008908209856599569,0.11124201864004135,36.7156073,3.1846325,17.92,0.19,0.6,0.0,95,0,0.6351994276046753,0.6351528167724609
2,-0.1727239489555359,1.6248670816421509,-0.11203627288341522,36.715615,3.1846571,17.88,0.98,2.53,-0.01,95,93,2.714639902114868,2.7145872116088867
3,-0.10092569142580032,1.0046665668487549,0.010915035381913185,36.715635,3.1847196,17.91,1.37,3.5,-0.03,95,57,3.766307830810547,3.7661845684051514
4,0.0898447185754776,1.1844923496246338,0.02862582542002201,36.7156529,3.1847752,17.93,0.97,2.58,-0.01,94,67,2.759031057357788,2.759011745452881
5,-0.04799593612551689,2.6537222862243652,0.29506200551986694,36.7156506,3.1847836,17.92,-1.5,-1.99,-0.02,94,152,2.49760365486145,2.4975109100341797
6,-0.12171271443367004,-2.11360502243042,0.0060516055673360825,36.7156232,3.1847343,17.96,-2.26,-3.31,-0.01,93,238,4.015260219573975,4.015233039855957
7,-0.0895485132932663,-2.2218737602233887,0.07809381186962128,36.7155933,3.1846778,17.95,-1.93,-3.28,0.0,93,232,3.80781626701355,3.8078086376190186
8,-0.2140076607465744,-1.0913975238800049,0.20819170773029327,36.7155845,3.1846174,17.93,1.4,-2.77,0.0,93,297,3.110205888748169,3.110196352005005
9,-0.45663535594940186,-0.6414945125579834,0.07596883177757263,36.715629,3.1845661,17.93,5.02,-3.53,0.0,92,323,6.144112586975098,6.144111633300781
10,-0.48930177092552185,-0.6234572529792786,-0.00657660560682416,36.7157133,3.1844934,17.94,7.22,-4.98,0.0,92,324,8.776678085327148,8.77667236328125
11,-0.509259819984436,-0.6198354363441467,0.029045460745692253,36.7158348,3.1843881,17.96,7.94,-5.57,0.0,91,324,9.702398300170898,9.702397346496582
12,-0.291591078042984,-0.6199548840522766,0.014955790713429451,36.7159398,3.1842959,17.99,7.24,-5.13,-0.01,91,324,8.879986763000488,8.879968643188477
13,0.011568507179617882,-0.6620485186576843,-0.06371063739061356,36.7160346,3.1842116,17.99,4.23,-3.35,0.02,91,322,5.401804447174072,5.401740550994873
14,-0.14753451943397522,-1.5799376964569092,-0.30464228987693787,36.7160648,3.1841612,18.26,-0.05,-3.03,-0.4,90,269,3.0581915378570557,3.0318732261657715
15,-0.4236919581890106,-2.1693966388702393,0.024367056787014008,36.7160304,3.1840826,19.64,-3.84,-5.38,-1.14,90,235,6.710398197174072,6.612123966217041
16,-0.4810749888420105,-2.1665406227111816,-0.02609967812895775,36.7159675,3.1839719,21.73,-5.18,-7.48,-1.54,89,235,9.236321449279785,9.106200218200684
17,-0.4649035334587097,-2.1668403148651123,0.03269243612885475,36.7158808,3.183815,24.6,-5.52,-8.06,-1.58,89,235,9.900367736816406,9.77214527130127
18,-0.4270397126674652,-2.1650965213775635,-0.005947593133896589,36.7158055,3.1836765,27.06,-5.55,-8.22,-1.57,88,235,10.048007011413574,9.92334270477295
19,-0.4804983139038086,-2.1637699604034424,-0.025075454264879227,36.7157305,3.1835373,29.53,-5.55,-8.25,-1.58,88,236,10.07393741607666,9.948820114135742
20,-0.4394439458847046,-2.16573166847229,0.034262653440237045,36.7156428,3.1833747,32.42,-5.56,-8.27,-1.6,87,235,10.101783752441406,9.973799705505371
21,-0.42677929997444153,-2.165454387664795,-0.0226682610809803,36.7155678,3.1832353,34.9,-5.52,-8.23,-1.6,87,235,10.048007011413574,9.918380737304688
22,-0.47790563106536865,-2.1653826236724854,0.033563219010829926,36.7154805,3.1830724,37.8,-5.5,-8.27,-1.62,87,235,10.072038650512695,9.939987182617188
23,-0.42575451731681824,-2.164644479751587,0.01340807881206274,36.7154058,3.182933,40.3,-5.52,-8.26,-1.63,86,235,10.074112892150879,9.940898895263672
24,-0.45542630553245544,-2.1641452312469482,-0.030205024406313896,36.715331,3.1827932,42.8,-5.53,-8.3,-1.63,86,236,10.112589836120605,9.980196952819824
25,-0.4555595815181732,-2.168318748474121,0.04396243393421173,36.7152433,3.1826302,45.72,-5.54,-8.27,-1.63,85,235,10.095062255859375,9.961798667907715
26,-0.42453286051750183,-2.165800094604492,0.0008414813783019781,36.7151684,3.1824906,48.23,-5.5,-8.28,-1.63,85,235,10.075094223022461,9.942190170288086
27,-0.4955611526966095,-2.165515422821045,0.022941159084439278,36.7150815,3.182328,51.15,-5.53,-8.32,-1.62,84,235,10.126519203186035,9.994793891906738
28,-0.39035865664482117,-2.1640563011169434,0.02134629525244236,36.7150068,3.1821883,53.64,-5.48,-8.15,-1.61,84,236,9.957871437072754,9.826189994812012
29,-0.16643251478672028,-2.1689136028289795,-0.023923184722661972,36.7149383,3.1820622,55.93,-4.39,-6.5,-1.29,83,235,7.959195613861084,7.853195667266846
30,-0.04525096341967583,-2.148153781890869,0.041220199316740036,36.7148844,3.1819608,57.52,-2.55,-4.01,-0.49,83,236,4.785662651062012,4.759816646575928
31,-0.1585056632757187,-2.097583293914795,-0.005788190755993128,36.7148543,3.1818979,57.9,-2.06,-3.68,-0.09,83,239,4.224001407623291,4.223036289215088
32,-0.10895141959190369,-2.0877528190612793,-0.009400524199008942,36.7148227,3.1818263,57.9,-2.01,-3.7,-0.03,82,240,4.214889049530029,4.214782238006592
33,0.007429442368447781,-2.1034297943115234,-0.013727244921028614,36.7147984,3.1817716,57.83,-1.48,-2.6,0.22,82,239,3.007329225540161,2.9990346431732178
34,0.04023445025086403,-2.394280195236206,-0.03563796356320381,36.714781,3.1817414,56.6,-1.16,-1.17,1.36,82,222,2.142796516418457,1.6541858911514282
35,-0.026497989892959595,-2.4625442028045654,0.02843160182237625,36.7147641,3.1817246,53.94,-1.03,-0.79,1.42,81,218,1.9321917295455933,1.3062283992767334
36,-0.03856898099184036,-2.4686717987060547,-0.023550886660814285,36.71475,3.1817113,51.7,-1.04,-0.84,1.42,81,218,1.9598110914230347,1.3430726528167725
37,-0.009743120521306992,-2.469351291656494,0.002143002348020673,36.7147334,3.1816946,49.08,-1.07,-0.88,1.43,81,218,1.9977370500564575,1.3909567594528198
38,-0.06075045466423035,-2.4696059226989746,0.0018940507434308529,36.7147188,3.1816799,46.84,-1.07,-0.88,1.44,80,218,2.002946138381958,1.389283537864685
39,-0.007343204226344824,-2.469343662261963,0.000842164910864085,36.7147042,3.1816653,44.6,-1.07,-0.87,1.45,80,218,2.010331392288208,1.390734076499939
40,-0.0643707662820816,-2.469536304473877,-0.0038326247595250607,36.7146895,3.1816507,42.36,-1.07,-0.88,1.46,79,218,2.020240545272827,1.3945672512054443
41,-0.027869731187820435,-2.469924211502075,-0.023832041770219803,36.7146725,3.1816336,39.75,-1.07,-0.88,1.47,79,218,2.0263359546661377,1.3921178579330444
42,-0.008907320909202099,-2.46966290473938,0.007011960726231337,36.7146556,3.1816164,37.12,-1.06,-0.88,1.47,79,218,2.021862506866455,1.3857152462005615
43,-0.06104091554880142,-2.468921184539795,-0.014813984744250774,36.7146411,3.1816017,34.87,-1.07,-0.89,1.47,78,218,2.027838706970215,1.3949213027954102
44,-0.00912937056273222,-2.4692885875701904,0.010819932445883751,36.7146264,3.1815869,32.62,-1.07,-0.88,1.47,78,218,2.030644178390503,1.3973389863967896
45,-0.05164187774062157,-2.4697844982147217,0.024787655100226402,36.7146094,3.1815698,30.0,-1.06,-0.88,1.47,78,218,2.0243217945098877,1.3886717557907104
46,-0.02021905407309532,-2.4699699878692627,-0.017755968496203423,36.7145948,3.1815551,27.75,-1.07,-0.88,1.47,77,218,2.025049924850464,1.3918125629425049
47,-0.01398288644850254,-2.4691264629364014,0.022186648100614548,36.7145778,3.1815379,25.13,-1.05,-0.88,1.47,77,218,2.017566204071045,1.3795939683914185
48,-0.05973828211426735,-2.4692156314849854,-0.013904226012527943,36.7145633,3.1815232,22.88,-1.06,-0.88,1.47,77,218,2.0233380794525146,1.382000207901001
49,-0.02142728678882122,-2.470595598220825,0.013680151663720608,36.7145487,3.1815084,20.63,-1.07,-0.87,1.47,76,218,2.029268264770508,1.3884503841400146
50,-0.19544443488121033,2.970933675765991,-0.08413500338792801,36.7145247,3.1814983,18.29,-2.2,0.27,0.81,76,170,2.36462664604187,2.2196295261383057
51,-0.2047998309135437,2.6773412227630615,-0.023003609851002693,36.7144839,3.1815181,17.94,-3.7,1.82,-0.06,75,153,4.13297176361084,4.132403373718262
52,-0.11469671875238419,2.684209108352661,0.05880741402506828,36.7144204,3.1815572,18.01,-4.01,1.97,0.05,75,153,4.476832389831543,4.476485729217529
53,-0.06154913827776909,-3.1019108295440674,0.22019492089748383,36.7143693,3.181577,17.96,-3.35,-0.15,0.04,75,182,3.355705738067627,3.3554491996765137
54,-0.4062896966934204,-2.18491530418396,0.07364657521247864,36.7143209,3.1815299,17.95,-3.2,-4.7,0.01,74,234,5.69201135635376,5.691978454589844
55,-0.5184312462806702,-2.1564736366271973,-0.005463529843837023,36.714269,3.1814283,17.95,-4.45,-7.08,0.0,74,236,8.368422508239746,8.368419647216797
56,-0.4489496946334839,-2.150742292404175,0.029831452295184135,36.7142044,3.1813014,17.96,-4.93,-7.69,0.0,73,236,9.135852813720703,9.13585090637207
57,-0.3251565098762512,-2.1522507667541504,-0.01676884852349758,36.7141281,3.1811543,17.99,-4.46,-6.9,0.0,73,236,8.225080490112305,8.225075721740723
58,-0.24756133556365967,-2.1394870281219482,0.041416969150304794,36.7140733,3.1810473,17.97,-3.63,-5.81,0.03,73,237,6.854600429534912,6.85450553894043
59,-0.2978653907775879,-2.1091115474700928,0.0016468064859509468,36.7140192,3.1809353,17.96,-3.27,-5.65,0.01,72,239,6.540868282318115,6.540854454040527
60,-0.27184754610061646,-2.0987772941589355,0.025338144972920418,36.7139756,3.1808404,17.96,-3.22,-5.67,0.01,72,239,6.525422096252441,6.5254082679748535
61,-0.13668088614940643,-2.09995698928833,-0.02498631179332733,36.7139329,3.1807472,17.96,-2.89,-5.09,0.0,71,239,5.8608222007751465,5.860820293426514
62,0.19198192656040192,-2.101095676422119,-0.009386992081999779,36.7138987,3.1806728,17.93,-1.19,-2.09,0.01,71,239,2.4117584228515625,2.411705255508423
63,0.05574202537536621,-2.100684404373169,0.004033909644931555,36.7138915,3.1806567,17.95,-0.02,-0.08,-0.01,71,239,0.08699879050254822,0.08615164458751678
64,-0.01609000936150551,-2.1019399166107178,0.07778281718492508,36.7138936,3.1806588,17.9,0.41,-0.13,0.01,70,239,0.43841543793678284,0.4382275640964508
