timestamp,pitch,yaw,roll,lat,lon,alt,velocity_x,velocity_y,velocity_z,battery,heading,airspeed,groundspeed
0,0.028074752539396286,-0.05430082231760025,0.01343213114887476,36.7156066,3.1846299,18.62,-0.02,0.03,0.03,96,356,0.05421943962574005,0.04076215624809265
1,-0.11661121249198914,-0.05871503800153732,0.06548218429088593,36.7156083,3.1846315,18.62,0.48,0.38,0.0,95,356,0.6211835145950317,0.6211565136909485
2,-0.22038869559764862,0.7648863792419434,-0.05970161408185959,36.7156309,3.1846523,18.58,2.52,1.77,-0.03,95,43,3.0827128887176514,3.082515239715576
3,-0.1083698496222496,0.6372819542884827,0.01472112163901329,36.715671,3.1846871,18.62,3.19,2.18,-0.04,95,36,3.8734993934631348,3.8732845783233643
4,0.08250405639410019,0.5754260420799255,-0.05601365864276886,36.7157125,3.1847218,18.65,2.48,1.55,-0.01,94,32,2.929971694946289,2.9299192428588867
5,-0.06129033491015434,-0.9421218633651733,-0.34509730339050293,36.7157251,3.1847189,18.65,-1.25,-2.16,-0.01,94,306,2.5029423236846924,2.502899408340454
6,-0.15888288617134094,-2.3799266815185547,0.06312508881092072,36.7156979,3.1846684,18.69,-2.39,-3.37,-0.01,93,223,4.139716625213623,4.139698028564453
7,-0.06338198482990265,-2.070387363433838,0.11047901213169098,36.7156626,3.1846012,18.68,-1.68,-3.23,0.01,93,241,3.648690938949585,3.648655414581299
8,-0.21822936832904816,-1.0014467239379883,0.22608928382396698,36.7156592,3.1845501,18.66,1.6,-2.76,0.01,93,302,3.196265459060669,3.1962392330169678
9,-0.5031286478042603,-0.6351540684700012,0.03327503800392151,36.715706,3.1844982,18.66,5.2,-3.65,0.01,92,323,6.360872745513916,6.360864639282227
10,-0.491273432970047,-0.6231204271316528,0.031815361231565475,36.7157923,3.1844232,18.67,7.29,-5.07,0.0,92,324,8.888450622558594,8.888446807861328
11,-0.5114694833755493,-0.6223218441009521,-0.016994629055261612,36.7159143,3.1843164,18.69,7.9,-5.59,0.01,91,324,9.686115264892578,9.68610668182373
12,-0.22891341149806976,-0.6245874762535095,0.00756931584328413,36.7160337,3.1842106,18.74,6.84,-4.86,0.0,91,324,8.397254943847656,8.39725399017334
13,0.021978311240673065,-0.6860378384590149,-0.1172233447432518,36.7161095,3.1841422,18.73,3.94,-3.26,0.02,91,320,5.123204231262207,5.123163223266602
14,-0.17901577055454254,-1.7122353315353394,-0.24573318660259247,36.7161349,3.1840921,19.05,-0.4,-3.1,-0.44,90,261,3.165327787399292,3.134171724319458
15,-0.4892730116844177,-2.1758949756622314,0.030116505920886993,36.7160967,3.1840103,20.53,-3.99,-5.62,-1.17,90,235,6.995734214782715,6.896415710449219
16,-0.4466979503631592,-2.167140483856201,0.01889982633292675,36.7160324,3.1838964,22.67,-5.26,-7.62,-1.55,89,235,9.392428398132324,9.263311386108398
17,-0.49358442425727844,-2.1658596992492676,-0.01570954918861389,36.7159453,3.1837386,25.54,-5.54,-8.07,-1.57,89,235,9.924215316772461,9.797786712646484
18,-0.4570878744125366,-2.1637730598449707,0.03771177679300308,36.7158703,3.1836001,28.01,-5.53,-8.24,-1.57,88,236,10.050662994384766,9.926529884338379
19,-0.4211476743221283,-2.163036346435547,-0.0039109764620661736,36.7157954,3.1834605,30.48,-5.55,-8.27,-1.58,88,236,10.09348201751709,9.968213081359863
20,-0.4867386817932129,-2.1640734672546387,0.013455035164952278,36.7157077,3.1832975,33.36,-5.52,-8.26,-1.6,88,236,10.069045066833496,9.940851211547852
21,-0.44831568002700806,-2.1634950637817383,0.0363285206258297,36.7156329,3.1831581,35.86,-5.51,-8.23,-1.6,87,236,10.040743827819824,9.910870552062988
22,-0.48082435131073,-2.164487361907959,-0.021615320816636086,36.715546,3.1829957,38.77,-5.51,-8.31,-1.6,87,235,10.102198600769043,9.973576545715332
23,-0.47877806425094604,-2.1648287773132324,0.03140644729137421,36.7154713,3.1828555,41.27,-5.51,-8.31,-1.62,86,235,10.108524322509766,9.977179527282715
24,-0.42484763264656067,-2.164055109024048,0.02197413146495819,36.7153963,3.1827156,43.77,-5.51,-8.29,-1.62,86,236,10.091702461242676,9.959489822387695
25,-0.4942028522491455,-2.1653213500976562,-0.0051393224857747555,36.7153093,3.1825531,46.69,-5.51,-8.27,-1.61,85,235,10.080029487609863,9.949670791625977
26,-0.46760648488998413,-2.164552688598633,0.03727804869413376,36.7152345,3.1824129,49.19,-5.52,-8.31,-1.63,85,235,10.112312316894531,9.979646682739258
27,-0.45483097434043884,-2.1646502017974854,-0.033871445804834366,36.7151473,3.1822494,52.11,-5.52,-8.28,-1.63,84,235,10.09147834777832,9.95868968963623
28,-0.4243159592151642,-2.164310932159424,0.0019608421716839075,36.7150728,3.1821107,54.61,-5.39,-8.05,-1.59,84,236,9.829142570495605,9.699641227722168
29,-0.1175534576177597,-2.1669089794158936,0.020568205043673515,36.7150062,3.1819872,56.85,-4.2,-6.27,-1.23,84,235,7.659398078918457,7.559539318084717
30,-0.09336552768945694,-2.143474817276001,0.026085147634148598,36.7149548,3.1818897,58.31,-2.45,-3.91,-0.44,83,237,4.639093399047852,4.617805480957031
31,-0.1164056658744812,-2.094522476196289,0.006272895261645317,36.7149253,3.1818274,58.64,-2.04,-3.69,-0.06,83,240,4.222318649291992,4.221771717071533
32,-0.11964844912290573,-2.088224411010742,0.02891860157251358,36.7148938,3.1817556,58.63,-2.01,-3.68,-0.03,82,240,4.1944756507873535,4.194344997406006
33,0.053242314606904984,-2.1159167289733887,-0.049279648810625076,36.7148699,3.1817026,58.51,-1.42,-2.43,0.29,82,238,2.8356616497039795,2.8198728561401367
34,0.03223646804690361,-2.455900192260742,-0.011826691217720509,36.7148505,3.181672,56.74,-1.09,-0.94,1.48,82,219,2.073312997817993,1.4464993476867676
35,-0.05860862135887146,-2.463521718978882,-0.003972252365201712,36.7148364,3.1816586,54.44,-1.03,-0.8,1.41,81,218,1.924873948097229,1.308563470840454
36,-0.011763581074774265,-2.4683284759521484,0.014128206297755241,36.7148223,3.1816451,52.21,-1.05,-0.85,1.42,81,218,1.9690792560577393,1.3559958934783936
37,-0.049204692244529724,-2.4698069095611572,0.025633806362748146,36.7148055,3.1816283,49.6,-1.06,-0.87,1.43,81,218,1.992216944694519,1.38075852394104
38,-0.020957930013537407,-2.469561815261841,-0.018285958096385002,36.7147909,3.1816137,47.35,-1.07,-0.88,1.43,80,218,2.0021474361419678,1.3939883708953857
39,-0.017684586346149445,-2.4690041542053223,0.0217707771807909,36.714774,3.1815966,44.74,-1.06,-0.87,1.45,80,218,2.002436399459839,1.3776427507400513
40,-0.016070326790213585,-2.469777822494507,-0.015315537340939045,36.7147618,3.1815844,42.87,-1.07,-0.88,1.45,80,218,2.0130770206451416,1.3863656520843506
41,-0.016804659739136696,-2.4694085121154785,0.024082070216536522,36.7147448,3.1815674,40.25,-1.06,-0.88,1.45,79,218,2.014401912689209,1.389657735824585
42,-0.056535352021455765,-2.4700732231140137,0.020932355895638466,36.7147278,3.1815502,37.63,-1.06,-0.88,1.46,79,218,2.016719102859497,1.3862602710723877
43,-0.0065577225759625435,-2.4691076278686523,-0.004888230003416538,36.7147131,3.1815354,35.39,-1.06,-0.88,1.47,78,218,2.0253992080688477,1.38877534866333
44,-0.019070198759436607,-2.469186544418335,0.025136733427643776,36.7146962,3.1815183,32.76,-1.06,-0.88,1.47,78,218,2.0172722339630127,1.3792810440063477
45,-0.041427455842494965,-2.4695098400115967,-0.01892770640552044,36.7146816,3.1815036,30.51,-1.06,-0.89,1.47,78,218,2.022843599319458,1.3880701065063477
46,-0.024058330804109573,-2.4694228172302246,0.02462133951485157,36.714667,3.1814888,28.27,-1.06,-0.88,1.47,77,218,2.0231215953826904,1.3803526163101196
47,-0.05938011035323143,-2.4696011543273926,0.01097493153065443,36.71465,3.1814717,25.64,-1.06,-0.88,1.47,77,218,2.023569345474243,1.3839508295059204
48,-0.00779683655127883,-2.469641923904419,-0.00435596751049161,36.7146354,3.1814569,23.39,-1.07,-0.88,1.47,77,218,2.021629810333252,1.3870985507965088
49,-0.05243682488799095,-2.5196964740753174,-0.022123102098703384,36.7146182,3.1814398,20.77,-1.16,-0.82,1.47,76,215,2.0553104877471924,1.4300423860549927
50,-0.20706796646118164,2.8909549713134766,-0.1362570971250534,36.7145953,3.1814339,18.91,-2.36,0.48,0.66,76,165,2.49934983253479,2.4088211059570312
51,-0.21696236729621887,2.6786997318267822,0.02678641490638256,36.7145526,3.1814561,18.68,-3.79,1.88,-0.05,75,153,4.232222080230713,4.231812000274658
52,-0.13732841610908508,2.690713882446289,0.038870640099048615,36.7144887,3.1814955,18.74,-3.99,1.9,0.06,75,154,4.422413349151611,4.421970844268799
53,-0.03812297061085701,-2.983020305633545,0.26831725239753723,36.7144383,3.181512,18.69,-3.22,-0.49,0.03,75,189,3.2592155933380127,3.2589752674102783
54,-0.4638601839542389,-2.1823172569274902,0.08884023874998093,36.7143904,3.1814576,18.68,-3.28,-5.03,0.02,74,234,6.0115065574646,6.011462211608887
55,-0.4578899145126343,-2.1572563648223877,-0.0015741256065666676,36.7143371,3.1813523,18.68,-4.54,-7.2,0.0,74,236,8.520842552185059,8.520840644836426
56,-0.4583580493927002,-2.1509578227996826,0.008964243344962597,36.7142606,3.1812027,18.7,-4.94,-7.67,0.0,73,236,9.132619857788086,9.132619857788086
57,-0.27146807312965393,-2.1529808044433594,0.011252314783632755,36.7141963,3.1810791,18.72,-4.41,-6.8,0.01,73,236,8.111536026000977,8.111515045166016
58,-0.2736113667488098,-2.1404619216918945,-0.004062339197844267,36.7141421,3.1809735,18.7,-3.61,-5.8,0.03,73,237,6.836176872253418,6.836068630218506
59,-0.24507904052734375,-2.114039182662964,0.004323600325733423,36.7140879,3.1808615,18.69,-3.31,-5.64,0.01,72,238,6.546275615692139,6.5462565422058105
60,-0.30954936146736145,-2.1076254844665527,-0.010738582350313663,36.7140434,3.1807665,18.69,-3.28,-5.67,0.01,72,239,6.554516792297363,6.554497718811035
61,-0.03685617446899414,-2.1087703704833984,-0.015347306616604328,36.7139942,3.1806614,18.69,-2.7,-4.63,0.01,71,239,5.362905502319336,5.3628830909729
62,0.14386942982673645,-2.1096954345703125,0.02058551460504532,36.7139677,3.1806049,18.66,-1.05,-1.83,0.0,71,239,2.113402843475342,2.11338210105896
63,0.09166177362203598,-2.109257698059082,-0.01952487789094448,36.7139618,3.1805918,18.68,0.01,0.01,0.0,71,239,0.024241138249635696,0.023058440536260605
64,0.003956642467528582,-2.107577323913574,0.14564017951488495,36.7139646,3.1805936,18.63,0.53,-0.2,0.0,70,239,0.5778578519821167,0.5778578519821167
