timestamp,pitch,yaw,roll,lat,lon,alt,velocity_x,velocity_y,velocity_z,battery,heading,airspeed,groundspeed
0,-0.0021395606454461813,0.04117123782634735,-0.0208583977073431,36.7156067,3.1846299,21.12,-0.02,0.02,-0.02,96,2,0.04797361418604851,0.041484735906124115
1,-0.07095488905906677,0.040656618773937225,0.10268641263246536,36.7156083,3.1846319,21.06,0.44,0.44,-0.03,95,2,0.6307100057601929,0.6299591064453125
2,-0.1706525683403015,0.8761836886405945,0.012664256617426872,36.7156284,3.1846543,21.09,2.02,1.85,-0.04,95,50,2.7490859031677246,2.7487478256225586
3,-0.09839876741170883,0.7530935406684875,-0.03235742449760437,36.7156594,3.1846893,21.11,2.42,2.15,-0.02,95,43,3.242600917816162,3.242530345916748
4,0.2364906221628189,0.5397984385490417,-0.05724020302295685,36.7156866,3.1847167,21.11,1.06,0.55,-0.01,94,30,1.1994960308074951,1.1994035243988037
5,-0.17603647708892822,-1.3584129810333252,-0.16897624731063843,36.7156765,3.1846881,21.14,-2.04,-3.02,0.02,94,282,3.6545867919921875,3.6545047760009766
6,-0.124718077480793,-2.3906195163726807,-0.006230904255062342,36.7156457,3.1846322,21.14,-2.36,-3.39,-0.06,93,223,4.134034156799316,4.133513450622559
7,0.01718493551015854,-1.7928524017333984,0.21717873215675354,36.7156173,3.1845668,21.13,-0.61,-3.06,0.03,93,248,3.336365222930908,3.336094379425049
8,-0.39745333790779114,-0.6774491667747498,0.08823680132627487,36.7156347,3.1845179,21.11,3.29,-2.95,0.0,93,321,4.4250922203063965,4.4250922203063965
9,-0.47978904843330383,-0.6120642423629761,0.029899362474679947,36.7157007,3.1844576,21.11,6.27,-4.36,0.0,92,324,7.646127700805664,7.646126747131348
10,-0.532473087310791,-0.6185905933380127,-0.01606576144695282,36.7158142,3.1843592,21.13,7.83,-5.47,0.0,92,324,9.554883003234863,9.554882049560547
11,-0.4289378523826599,-0.6231765747070312,0.03243454545736313,36.715921,3.184265,21.15,7.76,-5.52,-0.01,91,324,9.531976699829102,9.53196907043457
12,-0.12555380165576935,-0.6253620386123657,-0.0232598427683115,36.7160318,3.1841667,21.19,5.81,-4.16,0.04,91,324,7.1570563316345215,7.15692138671875
13,0.09243158996105194,-0.9282425045967102,-0.1902979612350464,36.7160888,3.184109,21.23,2.23,-2.94,-0.13,91,306,3.6987359523773193,3.696342706680298
14,-0.38068005442619324,-2.0981686115264893,-0.13963870704174042,36.7160898,3.1840565,21.88,-2.01,-3.84,-0.71,90,239,4.397543430328369,4.338405609130859
15,-0.43534672260284424,-2.1660408973693848,0.01925031654536724,36.7160334,3.1839547,23.8,-4.66,-6.64,-1.38,90,235,8.234997749328613,8.117348670959473
16,-0.4786856174468994,-2.163789749145508,-0.032677892595529556,36.7159633,3.1838294,26.15,-5.47,-7.98,-1.59,89,236,9.813878059387207,9.683043479919434
17,-0.46471482515335083,-2.164638042449951,0.04662465304136276,36.7158754,3.183669,29.02,-5.56,-8.19,-1.57,89,235,10.02408218383789,9.899835586547852
18,-0.42497262358665466,-2.1650147438049316,-0.016473324969410896,36.7158002,3.1835294,31.48,-5.53,-8.22,-1.58,88,235,10.039632797241211,9.91340160369873
19,-0.4814320206642151,-2.164963960647583,-0.02574317157268524,36.7157254,3.1833905,33.96,-5.53,-8.27,-1.58,88,235,10.078384399414062,9.952662467956543
20,-0.4325658082962036,-2.162705183029175,0.029675347730517387,36.7156382,3.1832276,36.86,-5.51,-8.28,-1.6,87,236,10.07922649383545,9.950335502624512
21,-0.43030595779418945,-2.1640403270721436,-0.020207198336720467,36.7155633,3.1830878,39.34,-5.53,-8.26,-1.62,87,236,10.08279037475586,9.951653480529785
22,-0.474648118019104,-2.164811134338379,0.037741128355264664,36.7154762,3.1829252,42.26,-5.49,-8.27,-1.61,87,235,10.062448501586914,9.931290626525879
23,-0.4612632095813751,-2.1653170585632324,0.04048246517777443,36.7154141,3.1828091,44.35,-5.52,-8.31,-1.62,86,235,10.115194320678711,9.984148025512695
24,-0.4559067487716675,-2.163088321685791,-0.031752847135066986,36.7153268,3.1826454,47.26,-5.51,-8.29,-1.62,86,236,10.093888282775879,9.961530685424805
25,-0.453937828540802,-2.167144536972046,0.044073693454265594,36.7152394,3.1824823,50.18,-5.53,-8.29,-1.63,85,235,10.10186767578125,9.968233108520508
26,-0.42593827843666077,-2.1641244888305664,-0.00026190272183157504,36.7151648,3.1823428,52.69,-5.5,-8.29,-1.62,85,236,10.08323860168457,9.951188087463379
27,-0.4906952381134033,-2.165649652481079,0.025703296065330505,36.7150776,3.1821797,55.61,-5.53,-8.31,-1.63,84,235,10.120306015014648,9.987541198730469
28,-0.28525295853614807,-2.167229652404785,0.026066651567816734,36.7150047,3.1820437,58.05,-5.05,-7.49,-1.5,84,235,9.167854309082031,9.044257164001465
29,-0.07646948844194412,-2.1667850017547607,-0.018162107095122337,36.7149462,3.181935,60.0,-3.46,-5.2,-0.92,84,235,6.321507930755615,6.25371789932251
30,-0.11279008537530899,-2.1171820163726807,0.032242219895124435,36.7149034,3.1818514,60.98,-2.2,-3.71,-0.23,83,238,4.326650619506836,4.320155620574951
31,-0.17418596148490906,-2.087432384490967,-0.002553128870204091,36.7148754,3.1817897,61.1,-1.99,-3.67,-0.01,83,240,4.184805393218994,4.184781551361084
32,-0.017901161685585976,-2.0871052742004395,-0.02237650379538536,36.7148444,3.1817193,61.09,-1.8,-3.32,-0.01,82,240,3.787220001220703,3.7871859073638916
33,0.019493624567985535,-2.2166616916656494,-0.030273636803030968,36.7148241,3.1816764,60.61,-1.23,-1.71,0.8,82,233,2.263172149658203,2.1164777278900146
34,-0.04403330758213997,-2.486121654510498,-0.02233079820871353,36.7148061,3.1816543,58.22,-1.02,-0.79,1.46,82,217,1.9619430303573608,1.2999544143676758
35,-0.019626539200544357,-2.4724538326263428,0.023864343762397766,36.7147921,3.1816413,55.96,-1.04,-0.81,1.41,81,218,1.9390628337860107,1.320976972579956
36,-0.051323968917131424,-2.4702165126800537,-0.017358360812067986,36.7147779,3.1816274,53.72,-1.05,-0.87,1.42,81,218,1.9785118103027344,1.370689034461975
37,-0.010709293186664581,-2.470318555831909,-0.010566982440650463,36.714761,3.1816105,51.11,-1.07,-0.87,1.44,81,218,2.0040299892425537,1.3897522687911987
38,-0.059393227100372314,-2.4699461460113525,0.014564242213964462,36.7147465,3.1815959,48.87,-1.06,-0.87,1.45,80,218,2.0011110305786133,1.3786808252334595
39,-0.010383101180195808,-2.4699723720550537,-0.010714124888181686,36.7147319,3.1815813,46.62,-1.07,-0.88,1.45,80,218,2.016319751739502,1.3987205028533936
40,-0.021842623129487038,-2.4699513912200928,0.028841493651270866,36.7147148,3.1815641,44.01,-1.07,-0.88,1.46,79,218,2.0231406688690186,1.3948001861572266
41,-0.03974763676524162,-2.470106601715088,-0.023726578801870346,36.7147002,3.1815495,41.77,-1.06,-0.89,1.46,79,218,2.022859573364258,1.3906598091125488
42,-0.009519541636109352,-2.4704577922821045,-0.0037665993440896273,36.7146833,3.1815324,39.14,-1.07,-0.88,1.46,79,218,2.0225026607513428,1.3926877975463867
43,-0.06286241859197617,-2.469290018081665,-0.0039674979634583,36.7146687,3.1815176,36.9,-1.06,-0.89,1.47,78,218,2.025160312652588,1.3905943632125854
44,-0.03702898696064949,-2.469799041748047,-0.02503206580877304,36.7146517,3.1815004,34.27,-1.07,-0.88,1.47,78,218,2.031698226928711,1.3932291269302368
45,-0.04236053302884102,-2.470113754272461,0.02561096101999283,36.7146371,3.1814857,32.02,-1.07,-0.88,1.47,78,218,2.0261662006378174,1.3905045986175537
46,-0.02826208621263504,-2.470170497894287,-0.02092229574918747,36.7146224,3.181471,29.77,-1.06,-0.88,1.47,77,218,2.0264391899108887,1.3894180059432983
47,-0.011222794651985168,-2.469698429107666,0.004838466644287109,36.7146055,3.1814538,27.16,-1.06,-0.87,1.48,77,218,2.021252155303955,1.3753347396850586
48,-0.061285343021154404,-2.4696967601776123,-0.005552535876631737,36.7145909,3.1814391,24.9,-1.05,-0.88,1.47,77,218,2.022479772567749,1.3790826797485352
49,-0.05106128007173538,-2.684218406677246,-0.06783586740493774,36.7145755,3.181425,22.65,-1.4,-0.68,1.42,76,206,2.1135454177856445,1.5599571466445923
50,-0.24605216085910797,2.6883139610290527,-0.011221296153962612,36.7145414,3.1814287,21.12,-3.08,1.31,0.13,76,154,3.355329751968384,3.352754831314087
51,-0.17240573465824127,2.6794700622558594,-0.029970308765769005,36.7144915,3.1814584,21.18,-4.04,2.02,-0.05,75,153,4.521357536315918,4.520985126495361
52,-0.029371321201324463,2.8196499347686768,0.14594875276088715,36.7144281,3.1814954,21.16,-3.78,1.25,0.06,75,161,3.9863808155059814,3.9859018325805664
53,-0.31386834383010864,-2.447744846343994,0.2009056657552719,36.7143826,3.1814912,21.13,-2.92,-2.23,0.02,75,219,3.6826915740966797,3.6825783252716064
54,-0.4459477961063385,-2.140568256378174,-0.002748265163972974,36.7143314,3.1814059,21.13,-3.88,-6.19,0.01,74,237,7.311854362487793,7.311829566955566
55,-0.5099401473999023,-2.1490156650543213,-0.014819544740021229,36.7142719,3.1812882,21.14,-4.83,-7.61,0.0,74,236,9.017653465270996,9.017650604248047
56,-0.4080013334751129,-2.150891065597534,0.030085857957601547,36.7142051,3.1811581,21.15,-4.9,-7.6,0.0,73,236,9.049415588378906,9.049413681030273
57,-0.26268813014030457,-2.14901065826416,-0.008562551811337471,36.7141335,3.1810201,21.16,-4.03,-6.29,0.03,73,236,7.482364177703857,7.482297897338867
58,-0.27551785111427307,-2.124232769012451,0.04099716991186142,36.714084,3.180921,21.14,-3.43,-5.69,0.02,73,238,6.651970863342285,6.651910781860352
59,-0.30359992384910583,-2.1024134159088135,-0.0028703114949166775,36.7140318,3.1808098,21.14,-3.22,-5.66,0.01,72,239,6.516493797302246,6.516481399536133
60,-0.2158195823431015,-2.0995595455169678,0.022655416280031204,36.7139882,3.1807144,21.14,-3.17,-5.57,0.0,72,239,6.4211649894714355,6.421164035797119
61,0.010574162006378174,-2.1000754833221436,-0.023703215643763542,36.7139496,3.1806305,21.13,-2.31,-4.05,0.03,71,239,4.664427757263184,4.664318084716797
62,0.16531933844089508,-2.100695848464966,-0.015544247813522816,36.7139282,3.1805837,21.11,-0.46,-0.82,-0.01,71,239,0.9482073187828064,0.9480096697807312
63,-0.02207038924098015,-2.1007070541381836,0.009657924063503742,36.7139271,3.180581,21.12,0.1,0.15,0.01,71,239,0.18860425055027008,0.1877630054950714
