timestamp,pitch,yaw,roll,lat,lon,alt,velocity_x,velocity_y,velocity_z,battery,heading,airspeed,groundspeed
0,0.031339190900325775,0.0005470727919600904,0.007777148857712746,36.7156066,3.1846299,28.77,-0.02,0.03,0.03,96,0,0.05443909019231796,0.03804397955536842
1,-0.04995909333229065,-0.005227262154221535,0.10937709361314774,36.7156072,3.1846327,28.66,0.13,0.61,-0.04,95,359,0.6324409246444702,0.6311253905296326
2,-0.21721215546131134,1.679164171218872,-0.11701147258281708,36.7156121,3.1846574,28.67,0.68,2.63,-0.04,95,96,2.725053310394287,2.724640130996704
3,-0.18667882680892944,1.1167669296264648,0.037154313176870346,36.7156281,3.1847305,28.7,1.2,4.47,-0.05,94,63,4.63766622543335,4.637322425842285
4,-0.14789548516273499,1.2797092199325562,0.0002337049227207899,36.7156452,3.1848079,28.72,1.23,4.46,-0.03,94,73,4.636251449584961,4.636106967926025
5,0.28154456615448,1.5172345638275146,0.09197966009378433,36.7156587,3.1848742,28.73,0.0,1.35,0.0,94,86,1.3513389825820923,1.3513360023498535
6,-0.1307564675807953,-3.0887041091918945,0.25240063667297363,36.715645,3.1848602,28.73,-1.94,-2.66,-0.04,93,183,3.295424699783325,3.295109748840332
7,-0.15058502554893494,-2.0021188259124756,0.011628729291260242,36.7156104,3.1847962,28.76,-2.26,-3.31,0.0,93,245,4.01059627532959,4.010594844818115
8,-0.013251845724880695,-1.916278600692749,0.10828530043363571,36.7155847,3.1847405,28.75,-1.18,-3.14,0.01,93,250,3.3580524921417236,3.3580243587493896
9,-0.33289971947669983,-0.7874717712402344,0.18724215030670166,36.7155902,3.1846914,28.74,2.34,-2.79,0.0,92,314,3.6500329971313477,3.6500229835510254
10,-0.5185840725898743,-0.6037861108779907,-0.019529562443494797,36.7156587,3.1846255,28.74,6.07,-4.23,0.01,92,325,7.4066619873046875,7.406653881072998
11,-0.5159575939178467,-0.6160272359848022,0.035099297761917114,36.715753,3.1845439,28.76,7.66,-5.32,0.0,91,324,9.327527046203613,9.327526092529297
12,-0.44834282994270325,-0.6184459328651428,-0.027777081355452538,36.7158771,3.1844356,28.78,7.85,-5.53,0.0,91,324,9.603219032287598,9.603219032287598
13,-0.22938360273838043,-0.6214825510978699,0.01827436126768589,36.7159767,3.184348,28.82,6.51,-4.63,0.01,91,324,7.997250080108643,7.9972333908081055
14,0.09294582158327103,-0.747369110584259,-0.1601979285478592,36.7160464,3.1842839,28.82,3.37,-3.13,-0.02,90,317,4.604434490203857,4.604372024536133
15,-0.31231510639190674,-2.059692621231079,-0.12132754921913147,36.7160604,3.1842244,29.39,-1.66,-3.61,-0.64,90,241,4.031092643737793,3.978896141052246
16,-0.4834214448928833,-2.183255195617676,-0.011717616580426693,36.7160179,3.1841458,30.87,-4.24,-6.0,-1.25,89,234,7.462170600891113,7.355038166046143
17,-0.4640849828720093,-2.16624116897583,0.03785371407866478,36.7159387,3.1840048,33.49,-5.44,-7.88,-1.6,89,235,9.712790489196777,9.578577995300293
18,-0.4358483552932739,-2.1681861877441406,-0.023898975923657417,36.7158634,3.183868,35.97,-5.52,-8.1,-1.58,88,235,9.934187889099121,9.807601928710938
19,-0.49007707834243774,-2.166165590286255,-0.010936337523162365,36.7157883,3.1837294,38.43,-5.54,-8.24,-1.57,88,235,10.057964324951172,9.93373966217041
20,-0.42181137204170227,-2.163691997528076,0.009265314787626266,36.7157008,3.1835666,41.32,-5.55,-8.25,-1.59,87,236,10.0712890625,9.944371223449707
21,-0.44891414046287537,-2.164888620376587,-0.02671290747821331,36.7156257,3.1834273,43.8,-5.55,-8.27,-1.59,87,235,10.092931747436523,9.965487480163574
22,-0.45699363946914673,-2.1645314693450928,0.03307033330202103,36.7155384,3.1832649,46.71,-5.53,-8.28,-1.6,87,235,10.098199844360352,9.969306945800781
23,-0.4395926594734192,-2.165687084197998,0.03059680014848709,36.7154757,3.1831485,48.79,-5.53,-8.29,-1.61,86,235,10.103805541992188,9.973517417907715
24,-0.47946467995643616,-2.1672463417053223,-0.022777682170271873,36.7153885,3.1829856,51.7,-5.5,-8.27,-1.61,86,235,10.074028015136719,9.943674087524414
25,-0.436128169298172,-2.1642744541168213,0.028974244371056557,36.7153012,3.1828223,54.61,-5.51,-8.29,-1.62,85,236,10.093658447265625,9.961493492126465
26,-0.4373459219932556,-2.1658737659454346,-0.026236331090331078,36.7152262,3.1826825,57.1,-5.54,-8.27,-1.63,85,235,10.088232040405273,9.954817771911621
27,-0.46461308002471924,-2.1659865379333496,0.03436889871954918,36.7151387,3.1825196,60.03,-5.51,-8.27,-1.63,84,235,10.073534965515137,9.939371109008789
28,-0.42406412959098816,-2.1662023067474365,0.015648700296878815,36.7150639,3.1823802,62.53,-5.52,-8.28,-1.63,84,235,10.091676712036133,9.958296775817871
29,-0.37277042865753174,-2.1658873558044434,-0.03486352041363716,36.7149898,3.1822419,65.02,-5.31,-7.9,-1.56,83,235,9.651052474975586,9.522933959960938
30,-0.05980166047811508,-2.167520761489868,0.033445216715335846,36.7149166,3.1821065,67.45,-3.67,-5.47,-1.01,83,235,6.673989295959473,6.596130847930908
31,-0.109718918800354,-2.1373462677001953,0.002501701470464468,36.7148769,3.1820305,68.49,-2.34,-3.79,-0.36,83,237,4.477417945861816,4.462691783905029
32,-0.11911565065383911,-2.089172124862671,0.000404038728447631,36.7148436,3.1819583,68.73,-2.0,-3.68,-0.01,82,240,4.198774337768555,4.198727607727051
33,-0.1163913831114769,-2.088205099105835,0.0014799083583056927,36.7148166,3.1818968,68.72,-1.96,-3.6,-0.03,82,240,4.100605487823486,4.10045862197876
34,0.05220596119761467,-2.179551362991333,-0.07182000577449799,36.7147909,3.181841,68.38,-1.27,-1.89,0.63,82,235,2.369676113128662,2.2828660011291504
35,0.0009361610282212496,-2.474569320678711,0.012079239822924137,36.7147749,3.1818193,66.51,-1.07,-0.85,1.5,81,218,2.034212112426758,1.3731532096862793
36,-0.029278544709086418,-2.467097282409668,-0.026083314791321754,36.7147609,3.1818064,64.23,-1.03,-0.8,1.41,81,218,1.927915334701538,1.3105000257492065
37,-0.011122400872409344,-2.469444751739502,0.011096412315964699,36.7147444,3.1817904,61.62,-1.05,-0.87,1.42,80,218,1.9792424440383911,1.3719894886016846
38,-0.06252112239599228,-2.469343423843384,-0.008011383935809135,36.71473,3.1817758,59.37,-1.07,-0.89,1.43,80,218,2.0015077590942383,1.396933674812317
39,-0.017833180725574493,-2.469256639480591,-0.02413017489016056,36.714713,3.1817586,56.76,-1.07,-0.87,1.44,80,218,1.9986014366149902,1.383599042892456
40,-0.0432792492210865,-2.4699161052703857,0.02868044190108776,36.7146984,3.1817441,54.51,-1.07,-0.87,1.44,79,218,2.003761053085327,1.3845927715301514
41,-0.021707715466618538,-2.4698305130004883,-0.020523512735962868,36.7146838,3.1817295,52.27,-1.07,-0.88,1.45,79,218,2.0142881870269775,1.3940680027008057
42,-0.01438954472541809,-2.469784736633301,0.015124303288757801,36.7146668,3.1817124,49.66,-1.06,-0.88,1.46,79,218,2.012784481048584,1.3829765319824219
43,-0.051966793835163116,-2.468886375427246,-0.0181826651096344,36.7146522,3.1816976,47.42,-1.06,-0.89,1.47,78,218,2.026709794998169,1.3914785385131836
44,-0.008391370996832848,-2.469287872314453,0.012774588540196419,36.7146376,3.1816828,45.17,-1.06,-0.88,1.47,78,218,2.0254619121551514,1.3885478973388672
45,-0.050983574241399765,-2.469843864440918,0.019171500578522682,36.7146206,3.1816657,42.54,-1.06,-0.88,1.47,78,218,2.02199125289917,1.3835194110870361
46,-0.018407093361020088,-2.470072031021118,-0.018315544351935387,36.714606,3.1816511,40.29,-1.06,-0.88,1.47,77,218,2.0205724239349365,1.3827928304672241
47,-0.015824323520064354,-2.469217538833618,0.021369390189647675,36.714589,3.1816339,37.67,-1.06,-0.88,1.47,77,218,2.01910138130188,1.3815315961837769
48,-0.05478425696492195,-2.4692840576171875,-0.01856866665184498,36.7145745,3.1816191,35.41,-1.06,-0.89,1.46,76,218,2.022474527359009,1.3895552158355713
49,-0.01925114542245865,-2.4692554473876953,0.02752094343304634,36.7145599,3.1816043,33.16,-1.06,-0.88,1.46,76,218,2.0192480087280273,1.3855130672454834
50,-0.09369658678770065,-2.589909553527832,-0.04778897762298584,36.7145424,3.1815874,30.54,-1.27,-0.76,1.45,76,211,2.082226514816284,1.485861897468567
51,-0.201141819357872,2.7957394123077393,-0.106040358543396,36.7145172,3.1815847,28.87,-2.59,0.78,0.46,75,160,2.7476208209991455,2.708164930343628
52,-0.18700025975704193,2.679800271987915,0.026199113577604294,36.7144629,3.1816155,28.8,-4.01,1.98,-0.07,75,153,4.475462436676025,4.47489070892334
53,-0.1040789857506752,2.713479518890381,0.04754413291811943,36.7144078,3.1816492,28.82,-3.94,1.72,0.07,75,155,4.307480335235596,4.3068647384643555
54,-0.20380890369415283,-2.585890054702759,0.2535730004310608,36.714352,3.1816561,28.76,-2.95,-1.73,0.03,74,211,3.4289889335632324,3.428809881210327
55,-0.5002870559692383,-2.1714184284210205,0.04710616171360016,36.7143105,3.1815949,28.76,-3.47,-5.46,0.02,74,235,6.473349094390869,6.473287582397461
56,-0.4678930342197418,-2.1547443866729736,0.025548743084073067,36.7142547,3.1814847,28.76,-4.63,-7.34,0.0,73,236,8.683140754699707,8.683140754699707
57,-0.4470888078212738,-2.1503636837005615,-0.009405623190104961,36.7141778,3.1813345,28.78,-4.93,-7.68,0.0,73,236,9.126582145690918,9.126582145690918
58,-0.2738671898841858,-2.151858329772949,0.03578801453113556,36.7141145,3.1812124,28.8,-4.29,-6.64,0.02,73,236,7.917664527893066,7.917630672454834
59,-0.30153393745422363,-2.128993272781372,0.011078961193561554,36.7140542,3.1810932,28.77,-3.46,-5.69,0.03,72,237,6.716007232666016,6.7158989906311035
60,-0.2554067373275757,-2.1039295196533203,0.036106813699007034,36.7140092,3.1809981,28.77,-3.25,-5.64,0.01,72,239,6.51738977432251,6.517380714416504
61,-0.2921047508716583,-2.0992379188537598,-0.025127915665507317,36.7139655,3.1809028,28.77,-3.23,-5.69,0.01,71,239,6.5527424812316895,6.552731990814209
62,0.01709713041782379,-2.1009860038757324,-0.0050280955620110035,36.7139182,3.1807999,28.77,-2.48,-4.32,0.02,71,239,4.990961074829102,4.99088716506958
63,0.12959825992584229,-2.101041316986084,-0.0013702308060601354,36.7138954,3.1807502,28.74,-0.82,-1.45,0.0,71,239,1.6742451190948486,1.6742345094680786
64,0.018868502229452133,-2.1008036136627197,-0.027795158326625824,36.7138917,3.1807419,28.75,0.1,0.16,0.0,70,239,0.19714860618114471,0.196993887424469
65,-0.028368890285491943,-2.057215929031372,0.17147411406040192,36.7138955,3.1807427,28.71,0.71,-0.4,-0.01,70,242,0.8231728076934814,0.8229469656944275
