timestamp,pitch,yaw,roll,lat,lon,alt,velocity_x,velocity_y,velocity_z,battery,heading,airspeed,groundspeed
0,0.027735959738492966,0.0382424034178257,-0.010379879735410213,36.7156067,3.1846299,19.68,-0.03,0.02,0.05,96,2,0.07134900242090225,0.042795579880476
1,-0.11598328500986099,0.03849382698535919,0.10120655596256256,36.7156084,3.1846319,19.64,0.47,0.45,0.0,95,2,0.6609804630279541,0.6609780192375183
2,-0.2198667675256729,0.8165791630744934,-0.019263792783021927,36.7156307,3.1846557,19.61,2.3,2.04,-0.04,95,46,3.0771031379699707,3.076826333999634
3,-0.10666212439537048,0.7319122552871704,-0.010670670308172703,36.7156664,3.184695,19.67,2.84,2.45,-0.03,95,41,3.753443956375122,3.7532529830932617
4,0.1243944838643074,0.6616542339324951,-0.04659619182348251,36.7157021,3.1847321,19.69,1.98,1.48,-0.01,94,37,2.4843828678131104,2.4843404293060303
5,-0.08996867388486862,-0.9651471972465515,-0.31055980920791626,36.7157064,3.1847229,19.69,-1.55,-2.44,-0.02,94,304,2.9001595973968506,2.9000298976898193
6,-0.13506540656089783,-2.396786689758301,0.057840585708618164,36.7156778,3.1846708,19.74,-2.35,-3.34,0.0,93,222,4.0970306396484375,4.097029209136963
7,-0.04591047018766403,-2.0221545696258545,0.14899596571922302,36.7156444,3.1846049,19.72,-1.46,-3.23,0.01,93,244,3.547731399536133,3.547692060470581
8,-0.27064016461372375,-0.8672516345977783,0.1687547266483307,36.7156458,3.1845542,19.7,2.04,-2.79,0.0,93,310,3.4611830711364746,3.461179494857788
9,-0.5113795399665833,-0.621922492980957,0.02658887766301632,36.7156979,3.1845002,19.7,5.49,-3.8,0.01,92,324,6.6826863288879395,6.682677745819092
10,-0.49553239345550537,-0.6172726154327393,-0.021339457482099533,36.7158035,3.1844088,19.72,7.62,-5.26,0.0,92,324,9.268316268920898,9.268316268920898
11,-0.5038473606109619,-0.6187686324119568,-0.01897520385682583,36.7159095,3.1843161,19.73,7.91,-5.59,0.0,91,324,9.697190284729004,9.697190284729004
12,-0.19898582994937897,-0.624737560749054,-0.0016550136497244239,36.7160272,3.1842115,19.77,6.59,-4.72,0.0,91,324,8.115654945373535,8.115654945373535
13,0.035061806440353394,-0.7232466340065002,-0.1296960860490799,36.7160984,3.1841459,19.76,3.56,-3.15,-0.02,91,318,4.762842178344727,4.762784004211426
14,-0.23296600580215454,-1.858257532119751,-0.2130524069070816,36.716118,3.1840956,20.16,-0.79,-3.25,-0.51,90,253,3.390772581100464,3.351365327835083
15,-0.48834049701690674,-2.181272029876709,0.04057041183114052,36.7160751,3.1840091,21.76,-4.17,-5.87,-1.23,90,235,7.3095784187316895,7.2042388916015625
16,-0.4494943618774414,-2.1677920818328857,0.017914483323693275,36.7160093,3.1838925,23.96,-5.35,-7.73,-1.56,89,235,9.536993026733398,9.407017707824707
17,-0.49094995856285095,-2.164872646331787,-0.02260543592274189,36.7159219,3.1837343,26.83,-5.55,-8.11,-1.57,89,235,9.961494445800781,9.836730003356934
18,-0.4617011547088623,-2.1647133827209473,0.04158464074134827,36.7158465,3.1835951,29.27,-5.53,-8.24,-1.59,88,235,10.061053276062012,9.934349060058594
19,-0.42184287309646606,-2.161712408065796,0.005982165690511465,36.7157714,3.183455,31.74,-5.52,-8.23,-1.6,88,236,10.043167114257812,9.913773536682129
20,-0.4959847033023834,-2.1678929328918457,0.009396503679454327,36.7156844,3.1832934,34.65,-5.52,-8.25,-1.6,87,235,10.062232971191406,9.933393478393555
21,-0.4571765959262848,-2.1644394397735596,0.047838445752859116,36.7156096,3.1831535,37.13,-5.51,-8.3,-1.62,87,235,10.097847938537598,9.96677303314209
22,-0.460258424282074,-2.163471221923828,-0.02748686447739601,36.7155224,3.1829901,40.04,-5.51,-8.26,-1.62,87,236,10.067702293395996,9.935429573059082
23,-0.4953444004058838,-2.165259599685669,0.02688152715563774,36.7154478,3.182851,42.55,-5.5,-8.27,-1.63,86,235,10.076163291931152,9.943427085876465
24,-0.43267083168029785,-2.1628429889678955,0.03074498288333416,36.715373,3.1827109,45.04,-5.52,-8.31,-1.64,86,236,10.118728637695312,9.983991622924805
25,-0.48096418380737305,-2.1660988330841064,-0.017037585377693176,36.7152857,3.1825479,47.97,-5.52,-8.26,-1.63,85,235,10.078028678894043,9.944674491882324
26,-0.48668205738067627,-2.1640169620513916,0.0267482902854681,36.7152111,3.1824082,50.48,-5.51,-8.3,-1.63,85,236,10.102167129516602,9.968806266784668
27,-0.43483200669288635,-2.164846658706665,-0.023967968299984932,36.7151239,3.1822448,53.4,-5.54,-8.29,-1.63,84,235,10.112081527709961,9.979049682617188
28,-0.40038883686065674,-2.1663269996643066,-0.013353422284126282,36.7150494,3.1821062,55.88,-5.34,-7.93,-1.58,84,235,9.698469161987305,9.56733226776123
29,-0.1096118688583374,-2.167637348175049,0.03282953426241875,36.7149848,3.1819864,58.06,-4.03,-6.03,-1.17,84,235,7.351232528686523,7.2567596435546875
30,-0.11328015476465225,-2.13779616355896,0.006238684989511967,36.7149358,3.1818925,59.42,-2.38,-3.84,-0.38,83,237,4.537105083465576,4.520333290100098
31,-0.11675244569778442,-2.092308759689331,0.022606804966926575,36.7149066,3.18183,59.68,-2.03,-3.65,-0.04,83,240,4.184676170349121,4.184391975402832
32,-0.12221210449934006,-2.0880215167999268,0.026684697717428207,36.7148749,3.1817584,59.68,-1.95,-3.6,-0.03,82,240,4.105287551879883,4.105172634124756
33,0.07514628022909164,-2.1328423023223877,-0.048145733773708344,36.7148522,3.1817081,59.5,-1.37,-2.25,0.39,82,237,2.665790319442749,2.63590669631958
34,0.016751712188124657,-2.4711544513702393,0.0030534458346664906,36.7148331,3.1816798,57.56,-1.09,-0.89,1.5,82,218,2.0614073276519775,1.4114990234375
35,-0.04318474978208542,-2.466151714324951,-0.02198045141994953,36.7148189,3.1816664,55.28,-1.03,-0.8,1.42,81,218,1.937864065170288,1.3108242750167847
36,-0.03345903009176254,-2.4690158367156982,0.030851129442453384,36.7148049,3.1816529,53.04,-1.04,-0.84,1.43,81,218,1.9694551229476929,1.3449127674102783
37,-0.06310717761516571,-2.4701244831085205,0.003347649471834302,36.714788,3.1816361,50.43,-1.07,-0.88,1.44,81,218,2.0051651000976562,1.3856860399246216
38,-0.009376267902553082,-2.469884157180786,0.0026810818817466497,36.7147734,3.1816215,48.18,-1.07,-0.87,1.45,80,218,2.0097856521606445,1.3853486776351929
39,-0.046838343143463135,-2.4697117805480957,0.027220837771892548,36.7147565,3.1816045,45.56,-1.05,-0.88,1.45,80,218,2.006767511367798,1.378873348236084
40,-0.029055438935756683,-2.469881296157837,-0.023601997643709183,36.7147419,3.1815899,43.32,-1.06,-0.88,1.46,79,218,2.0122172832489014,1.3824859857559204
41,-0.04854724928736687,-2.470301866531372,0.024840697646141052,36.7147273,3.1815751,41.08,-1.06,-0.88,1.47,79,218,2.0263512134552,1.3883594274520874
42,-0.05566590651869774,-2.4700498580932617,-0.013917045667767525,36.7147103,3.181558,38.45,-1.07,-0.89,1.47,79,218,2.02797269821167,1.393646478652954
43,-0.017295248806476593,-2.4693682193756104,0.02406815066933632,36.7146957,3.1815433,36.2,-1.06,-0.88,1.47,78,218,2.0194311141967773,1.3801567554473877
44,-0.05456806719303131,-2.470503807067871,0.022268643602728844,36.7146786,3.1815261,33.59,-1.05,-0.88,1.48,78,218,2.023942470550537,1.3782730102539062
45,-0.006214356981217861,-2.4700543880462646,-0.013056845404207706,36.7146641,3.1815114,31.34,-1.05,-0.87,1.48,78,218,2.021972417831421,1.3759279251098633
46,-0.02358226478099823,-2.470014810562134,0.026249960064888,36.7146472,3.1814942,28.71,-1.06,-0.88,1.47,77,218,2.0253183841705322,1.385723352432251
47,-0.04224878549575806,-2.4697866439819336,-0.022684523835778236,36.7146325,3.1814795,26.46,-1.06,-0.88,1.48,77,218,2.028294086456299,1.3860796689987183
48,-0.028065210208296776,-2.469703197479248,0.028264669701457024,36.7146179,3.1814648,24.21,-1.05,-0.87,1.48,77,218,2.0194878578186035,1.370771884918213
49,-0.05632300302386284,-2.4975500106811523,-0.06518828868865967,36.7146032,3.1814502,21.95,-1.13,-0.84,1.47,76,216,2.045487403869629,1.4161306619644165
50,-0.18867577612400055,2.815737724304199,-0.08727743476629257,36.7145759,3.1814445,19.87,-2.51,0.69,0.52,76,161,2.6618874073028564,2.6104769706726074
51,-0.23912648856639862,2.6801910400390625,-0.007008034270256758,36.7145312,3.1814688,19.73,-3.87,1.89,-0.05,75,153,4.313492298126221,4.31319522857666
52,-0.08251455426216125,2.709001064300537,0.03897889703512192,36.7144674,3.1815078,19.77,-3.95,1.79,0.06,75,155,4.345971584320068,4.345518112182617
53,-0.12592290341854095,-2.867871046066284,0.3031609058380127,36.7144182,3.1815199,19.72,-3.13,-0.87,0.03,75,195,3.2572131156921387,3.2570230960845947
54,-0.473511278629303,-2.173564910888672,0.0231022872030735,36.7143695,3.1814575,19.72,-3.43,-5.33,0.02,74,235,6.349817752838135,6.349776744842529
55,-0.501885712146759,-2.1576035022735596,0.04169797897338867,36.7143146,3.1813493,19.72,-4.6,-7.31,0.0,74,236,8.64201831817627,8.642016410827637
56,-0.4250870645046234,-2.1515579223632812,-0.029301756992936134,36.7142378,3.1811991,19.74,-4.96,-7.7,0.0,73,236,9.161086082458496,9.16108512878418
57,-0.30569982528686523,-2.1533262729644775,0.02770722284913063,36.7141741,3.1810764,19.76,-4.31,-6.67,0.01,73,236,7.948977947235107,7.94896125793457
58,-0.2351163923740387,-2.133431911468506,0.02184273675084114,36.7141215,3.1809726,19.73,-3.53,-5.72,0.02,73,237,6.7254509925842285,6.725389003753662
59,-0.29060110449790955,-2.1058120727539062,0.03432469069957733,36.7140684,3.1808612,19.72,-3.26,-5.64,0.0,72,239,6.516556739807129,6.516554832458496
60,-0.25222405791282654,-2.0996508598327637,-0.010930569842457771,36.7140245,3.1807658,19.72,-3.23,-5.66,0.0,72,239,6.520195484161377,6.520194053649902
61,-0.026198336854577065,-2.100276231765747,0.032055310904979706,36.713977,3.1806625,19.72,-2.5,-4.39,0.01,71,239,5.060309886932373,5.060283184051514
62,0.15101438760757446,-2.1009631156921387,-0.029774218797683716,36.7139536,3.1806113,19.69,-0.88,-1.56,0.0,71,239,1.7989083528518677,1.7988994121551514
63,0.048011813312768936,-2.1008875370025635,0.029263783246278763,36.7139491,3.1806011,19.72,0.06,0.06,0.0,71,239,0.09027430415153503,0.09023992717266083
64,-0.046436574310064316,-2.089003562927246,0.12423574924468994,36.7139523,3.1806023,19.67,0.64,-0.29,-0.01,70,240,0.7130659818649292,0.7129926085472107
