timestamp,pitch,yaw,roll,lat,lon,alt,velocity_x,velocity_y,velocity_z,battery,heading,airspeed,groundspeed
0,-0.014628550969064236,0.040577515959739685,-0.016521118581295013,36.7156066,3.18463,18.92,-0.02,0.02,0.04,96,2,0.06136886030435562,0.03923580050468445
1,-0.01903575100004673,0.038474928587675095,0.12128403782844543,36.7156075,3.1846324,18.91,0.2,0.56,0.0,95,2,0.6028919816017151,0.6028860807418823
2,-0.12553159892559052,1.7249597311019897,-0.04362449422478676,36.7156172,3.1846616,18.88,0.95,2.38,-0.04,95,98,2.5734310150146484,2.573045492172241
3,-0.08283058553934097,0.996641218662262,-0.005252412520349026,36.7156316,3.1847057,18.93,1.09,2.67,-0.03,95,57,2.8914852142333984,2.891240358352661
4,0.31093332171440125,1.467043399810791,0.14310882985591888,36.7156408,3.1847369,18.95,-0.11,0.35,0.0,94,84,0.3782241642475128,0.37822383642196655
5,-0.15177668631076813,-2.870633363723755,0.16740606725215912,36.7156204,3.184703,18.97,-2.16,-3.12,-0.03,94,195,3.8028976917266846,3.8027091026306152
6,-0.14091823995113373,-1.994745135307312,-0.03150640428066254,36.7155897,3.1846467,18.98,-2.32,-3.36,0.0,93,245,4.086458683013916,4.086453914642334
7,-0.007489680778235197,-1.773317575454712,0.20971035957336426,36.7155665,3.1845908,18.96,-0.72,-3.11,0.0,93,258,3.1986238956451416,3.198608636856079
8,-0.4197135865688324,-0.6534368991851807,0.10440894216299057,36.7155892,3.1845332,18.96,3.71,-3.06,0.0,93,322,4.81179666519165,4.811795234680176
9,-0.47264912724494934,-0.6150174140930176,0.016008004546165466,36.71566,3.1844701,18.96,6.54,-4.52,0.0,92,324,7.957551956176758,7.957549095153809
10,-0.529403567314148,-0.6167103052139282,0.006940810009837151,36.7157763,3.18437,18.98,7.86,-5.47,0.0,92,324,9.5857572555542,9.585756301879883
11,-0.3982049822807312,-0.617789626121521,0.024643100798130035,36.7158832,3.1842766,18.99,7.72,-5.46,-0.02,91,324,9.458263397216797,9.458234786987305
12,-0.10312522947788239,-0.6227483749389648,-0.01395624503493309,36.7159915,3.1841809,19.03,5.55,-3.96,0.03,91,324,6.828674793243408,6.828558444976807
13,0.09115039557218552,-1.0261601209640503,-0.2321004420518875,36.7160438,3.1841253,19.1,1.77,-2.89,-0.19,91,301,3.3980190753936768,3.392643928527832
14,-0.3995952606201172,-2.118366241455078,-0.1004369929432869,36.7160389,3.1840712,19.83,-2.35,-4.02,-0.78,90,238,4.72808313369751,4.661640644073486
15,-0.441301167011261,-2.160531520843506,-0.002158114453777671,36.715979,3.1839646,21.86,-4.77,-6.83,-1.43,90,236,8.459210395812988,8.336483001708984
16,-0.4896848201751709,-2.1627941131591797,-0.026226980611681938,36.7159078,3.1838372,24.23,-5.5,-8.02,-1.6,89,236,9.861496925354004,9.729242324829102
17,-0.48264941573143005,-2.164652109146118,0.01985604129731655,36.7158323,3.1836995,26.69,-5.53,-8.16,-1.58,89,235,9.987225532531738,9.860538482666016
18,-0.4298379123210907,-2.164755344390869,-0.02122546173632145,36.7157445,3.1835368,29.57,-5.52,-8.23,-1.59,88,235,10.043848991394043,9.916620254516602
19,-0.483874648809433,-2.16264271736145,-0.019624121487140656,36.7156701,3.1833978,32.05,-5.51,-8.25,-1.59,88,236,10.051925659179688,9.924299240112305
20,-0.42819011211395264,-2.165349245071411,0.023243999108672142,36.7155827,3.1832351,34.94,-5.55,-8.29,-1.62,87,235,10.111756324768066,9.98082447052002
21,-0.4293369948863983,-2.1637585163116455,-0.027079449966549873,36.7155078,3.1830954,37.43,-5.48,-8.26,-1.62,87,236,10.055498123168945,9.92341423034668
22,-0.4741038680076599,-2.1632063388824463,0.028066206723451614,36.715421,3.1829327,40.36,-5.51,-8.28,-1.62,87,236,10.081376075744629,9.949530601501465
23,-0.42448705434799194,-2.1638476848602295,0.012394575402140617,36.715346,3.1827928,42.86,-5.53,-8.3,-1.63,86,236,10.113018035888672,9.980772972106934
24,-0.45936599373817444,-2.1634654998779297,-0.032324835658073425,36.7152714,3.1826529,45.35,-5.5,-8.29,-1.63,86,236,10.084832191467285,9.951457023620605
25,-0.4606461822986603,-2.1669671535491943,0.04333038628101349,36.7151842,3.18249,48.28,-5.54,-8.3,-1.63,85,235,10.120628356933594,9.987161636352539
26,-0.42613762617111206,-2.165306806564331,0.003264418803155422,36.7151092,3.18235,50.78,-5.51,-8.29,-1.63,85,235,10.09815788269043,9.964786529541016
27,-0.48924607038497925,-2.16314959526062,0.00866022054105997,36.7150223,3.1821868,53.7,-5.51,-8.29,-1.63,84,236,10.094672203063965,9.961089134216309
28,-0.26759013533592224,-2.1671581268310547,0.02753310650587082,36.7149499,3.1820525,56.12,-4.93,-7.32,-1.48,84,235,8.954625129699707,8.831233978271484
29,-0.07478190213441849,-2.1662964820861816,-0.01801401562988758,36.7148937,3.1819479,57.97,-3.32,-5.0,-0.85,84,235,6.068922996520996,6.0081939697265625
30,-0.12278391420841217,-2.1219255924224854,0.033732570707798004,36.7148521,3.1818663,58.85,-2.23,-3.71,-0.2,83,238,4.338031768798828,4.333117961883545
31,-0.17519815266132355,-2.1015264987945557,-0.01295605767518282,36.7148235,3.1818047,58.94,-2.06,-3.66,-0.01,83,239,4.205039978027344,4.205021858215332
32,0.0016748170601204038,-2.1026318073272705,-0.01847689598798752,36.7147915,3.1817352,58.94,-1.8,-3.18,0.0,82,239,3.657615900039673,3.657604694366455
33,0.0007146670250222087,-2.2578582763671875,-0.03434154763817787,36.7147715,3.1816952,58.35,-1.23,-1.6,0.92,82,230,2.2269797325134277,2.0237784385681152
34,0.00389120914041996,-2.486203908920288,-0.007728157099336386,36.714756,3.1816766,56.25,-1.03,-0.8,1.48,82,217,1.9829721450805664,1.3169050216674805
35,-0.030956678092479706,-2.4724721908569336,0.0279508326202631,36.7147397,3.1816613,53.62,-1.03,-0.81,1.42,81,218,1.944654107093811,1.3224024772644043
36,-0.04058832302689552,-2.470163106918335,-0.025287063792347908,36.7147254,3.1816474,51.38,-1.07,-0.87,1.43,81,218,1.9934850931167603,1.3812576532363892
37,-0.00931688491255045,-2.4699668884277344,0.0016885699005797505,36.7147085,3.1816304,48.77,-1.07,-0.88,1.45,81,218,2.008298873901367,1.387884497642517
38,-0.061540503054857254,-2.4700067043304443,0.0005199528532102704,36.714694,3.1816159,46.52,-1.06,-0.89,1.45,80,218,2.0097765922546387,1.3895057439804077
39,-0.008982435800135136,-2.4697933197021484,0.007332079578191042,36.7146794,3.1816012,44.28,-1.07,-0.88,1.45,80,218,2.017502546310425,1.396241307258606
40,-0.04246201366186142,-2.4700584411621094,0.027242042124271393,36.7146624,3.181584,41.67,-1.07,-0.88,1.46,79,218,2.0253987312316895,1.394538164138794
41,-0.02230704389512539,-2.4703471660614014,-0.020731834694743156,36.7146478,3.1815694,39.42,-1.06,-0.88,1.47,79,218,2.0233986377716064,1.385977864265442
42,-0.015547455288469791,-2.469907760620117,0.017099784687161446,36.7146308,3.1815523,36.79,-1.06,-0.88,1.47,79,218,2.0204453468322754,1.3843380212783813
43,-0.051739539951086044,-2.469362735748291,-0.0195113904774189,36.7146162,3.1815375,34.55,-1.07,-0.89,1.47,78,218,2.031407594680786,1.3951301574707031
44,-0.014619352295994759,-2.469761610031128,0.02053511142730713,36.7146016,3.1815227,32.3,-1.06,-0.88,1.48,78,218,2.0255913734436035,1.382807970046997
45,-0.0627414658665657,-2.470097780227661,0.021136675029993057,36.7145846,3.1815056,29.67,-1.06,-0.88,1.47,78,218,2.0243990421295166,1.3855812549591064
46,-0.010521569289267063,-2.470353126525879,-0.008627431467175484,36.71457,3.1814909,27.43,-1.07,-0.87,1.47,77,218,2.0287363529205322,1.3901716470718384
47,-0.029470674693584442,-2.469510793685913,0.024065811187028885,36.714553,3.1814737,24.8,-1.06,-0.87,1.47,77,218,2.021721363067627,1.3779091835021973
48,-0.04453984275460243,-2.4698290824890137,-0.02481977269053459,36.7145385,3.1814591,22.55,-1.06,-0.88,1.47,77,218,2.020378589630127,1.382469654083252
49,-0.0737721398472786,-2.7658474445343018,-0.05776194855570793,36.7145225,3.1814452,20.31,-1.47,-0.6,1.38,76,201,2.1118435859680176,1.5934010744094849
50,-0.2603403627872467,2.671661615371704,-0.026457404717803,36.7144865,3.1814522,18.96,-3.21,1.46,0.06,76,153,3.5315001010894775,3.5309596061706543
51,-0.14558950066566467,2.6718530654907227,-0.00051560701103881,36.7144362,3.1814831,19.04,-4.01,2.04,-0.04,75,153,4.503527641296387,4.503332138061523
52,-0.04734870046377182,2.874020576477051,0.17725177109241486,36.7143738,3.1815187,19.01,-3.67,0.98,0.06,75,164,3.804344415664673,3.8038604259490967
53,-0.3279319703578949,-2.3262946605682373,0.14477238059043884,36.7143297,3.1815076,18.98,-2.93,-2.7,0.02,75,226,3.991929531097412,3.991847276687622
54,-0.503481924533844,-2.1469240188598633,0.02272140420973301,36.7142856,3.1814323,18.98,-3.83,-6.05,0.02,74,237,7.169122695922852,7.169093132019043
55,-0.4631407558917999,-2.154123067855835,-0.025191906839609146,36.7142151,3.1812948,18.99,-4.93,-7.65,0.0,74,236,9.114468574523926,9.114468574523926
56,-0.4106183350086212,-2.155388593673706,-0.005453473888337612,36.7141474,3.1811648,19.01,-4.89,-7.5,0.0,73,236,8.961160659790039,8.961156845092773
57,-0.2129041850566864,-2.151902437210083,-0.008065609261393547,36.7140768,3.1810296,19.01,-3.95,-6.13,0.03,73,236,7.29915189743042,7.2990875244140625
58,-0.3068675398826599,-2.124049663543701,0.020542927086353302,36.7140278,3.1809319,18.98,-3.4,-5.67,0.02,73,238,6.616150379180908,6.61611270904541
59,-0.26872140169143677,-2.1013343334198,-0.018088771030306816,36.713976,3.180821,18.98,-3.22,-5.66,0.0,72,239,6.515636444091797,6.515629768371582
60,-0.2321682721376419,-2.100233554840088,0.01805451698601246,36.7139324,3.1807258,18.98,-3.13,-5.52,0.0,72,239,6.349330425262451,6.349330425262451
61,0.08553089946508408,-2.1012909412384033,-0.013924961909651756,36.7138952,3.1806448,18.98,-2.16,-3.75,0.03,71,239,4.3379106521606445,4.337741374969482
62,0.13680537045001984,-2.100257635116577,0.027998588979244232,36.7138764,3.1806037,18.96,-0.35,-0.62,-0.02,71,239,0.7209656834602356,0.7206187844276428
63,-0.0008186742197722197,-2.1009860038757324,-0.019579647108912468,36.713876,3.1806026,18.97,0.1,0.15,0.02,71,239,0.19403767585754395,0.19171230494976044
