timestamp,pitch,yaw,roll,lat,lon,alt,velocity_x,velocity_y,velocity_z,battery,heading,airspeed,groundspeed
0,-0.007966624572873116,-0.00623365631327033,-0.02529403753578663,36.7156066,3.1846299,24.85,-0.02,0.02,-0.1,96,359,0.11337707936763763,0.036225464195013046
1,-0.07854346930980682,0.005041694268584251,0.10157324373722076,36.7156087,3.1846318,24.9,0.53,0.44,-0.06,95,0,0.6942107081413269,0.6909013390541077
2,-0.2778349816799164,0.8329778909683228,-0.05246759578585625,36.7156277,3.1846495,24.93,2.43,1.79,-0.08,95,47,3.0287530422210693,3.027449369430542
3,-0.18030667304992676,0.6400063633918762,-0.036138955503702164,36.7156776,3.1846951,24.93,3.63,2.59,-0.03,95,36,4.464749813079834,4.464627265930176
4,-0.044913534075021744,0.6223884224891663,0.015394289046525955,36.7157266,3.1847384,24.95,3.32,2.35,-0.01,94,35,4.072358131408691,4.072316646575928
5,0.15341965854167938,-0.25578877329826355,-0.32413509488105774,36.7157577,3.1847584,24.98,-0.08,-0.94,-0.03,94,345,0.9450526833534241,0.9444712996482849
6,-0.14744026958942413,-1.8480284214019775,-0.061945561319589615,36.7157386,3.1847191,24.97,-2.32,-3.21,0.05,93,254,3.966549873352051,3.9661171436309814
7,-0.1464458853006363,-2.139315366744995,0.022402092814445496,36.715707,3.1846623,24.99,-2.34,-3.35,-0.03,93,237,4.095330238342285,4.09515380859375
8,-0.05867237597703934,-1.5591851472854614,0.2180008739233017,36.7156839,3.1845986,24.96,0.03,-2.91,0.02,93,270,2.9194891452789307,2.919369697570801
9,-0.38092777132987976,-0.6513674855232239,0.10423216223716736,36.7157109,3.1845502,24.95,3.93,-3.09,0.0,92,322,5.006986618041992,5.006986141204834
10,-0.5414326190948486,-0.6252032518386841,0.003518798155710101,36.715799,3.1844727,24.96,6.96,-4.79,0.0,92,324,8.46182918548584,8.46182918548584
11,-0.49179524183273315,-0.6168343424797058,0.02703424170613289,36.7159011,3.1843847,24.98,7.89,-5.5,0.0,91,324,9.625018119812012,9.625018119812012
12,-0.36833930015563965,-0.6187463998794556,-0.014981460757553577,36.7160077,3.1842911,25.0,7.64,-5.41,-0.01,91,324,9.370458602905273,9.370447158813477
13,-0.06334780901670456,-0.6235830187797546,0.0050264871679246426,36.7161143,3.1841969,25.02,5.38,-3.84,0.05,91,324,6.617684364318848,6.617483615875244
14,0.04864000156521797,-1.086954951286316,-0.290665864944458,36.7161635,3.1841426,25.11,1.5,-2.88,-0.2,90,297,3.2594926357269287,3.2528271675109863
15,-0.3612208962440491,-2.133821487426758,-0.04826374351978302,36.716149,3.1840753,26.13,-3.02,-4.49,-0.93,90,237,5.495914936065674,5.4163641929626465
16,-0.498111367225647,-2.1604719161987305,-0.027373312041163445,36.7160938,3.1839786,27.98,-4.87,-6.96,-1.43,89,236,8.61867618560791,8.497559547424316
17,-0.44064393639564514,-2.1635499000549316,0.03275666385889053,36.7160092,3.1838267,30.78,-5.52,-8.03,-1.6,89,236,9.884930610656738,9.753344535827637
18,-0.4344528019428253,-2.163696765899658,-0.01683146506547928,36.715934,3.1836886,33.25,-5.53,-8.19,-1.57,88,236,10.013320922851562,9.888874053955078
19,-0.48199549317359924,-2.162553548812866,-0.026227496564388275,36.7158589,3.183549,35.72,-5.54,-8.23,-1.57,88,236,10.050548553466797,9.926366806030273
20,-0.4332748353481293,-2.1661136150360107,0.027340559288859367,36.7157717,3.1833871,38.59,-5.55,-8.27,-1.6,87,235,10.092718124389648,9.964008331298828
21,-0.42833593487739563,-2.1642813682556152,-0.018657498061656952,36.7156967,3.1832472,41.08,-5.51,-8.29,-1.61,87,236,10.086694717407227,9.957365989685059
22,-0.46837443113327026,-2.163701057434082,0.028953881934285164,36.7156096,3.1830842,44.0,-5.51,-8.27,-1.61,87,236,10.07142448425293,9.941264152526855
23,-0.4251182973384857,-2.1636431217193604,0.011953622102737427,36.7155349,3.1829449,46.49,-5.51,-8.29,-1.62,86,236,10.090897560119629,9.95967960357666
24,-0.4611362814903259,-2.1644206047058105,-0.029985716566443443,36.7154604,3.1828051,48.99,-5.51,-8.3,-1.62,86,235,10.097705841064453,9.965840339660645
25,-0.45521625876426697,-2.1669092178344727,0.04329904541373253,36.7153729,3.1826418,51.91,-5.53,-8.3,-1.63,85,235,10.117630958557129,9.985075950622559
26,-0.4250911474227905,-2.164076089859009,0.0017286372603848577,36.7152982,3.182502,54.41,-5.49,-8.28,-1.62,85,236,10.077616691589355,9.945121765136719
27,-0.4950076937675476,-2.1648294925689697,0.021665146574378014,36.7152112,3.1823392,57.33,-5.52,-8.31,-1.63,84,235,10.112020492553711,9.979302406311035
28,-0.4342763423919678,-2.163177490234375,0.029398707672953606,36.7151364,3.182199,59.84,-5.52,-8.29,-1.63,84,236,10.102177619934082,9.96882152557373
29,-0.25459450483322144,-2.1688477993011475,-0.01897158846259117,36.7150646,3.1820658,62.24,-4.87,-7.23,-1.44,83,235,8.84231185913086,8.722832679748535
30,-0.059484053403139114,-2.1616506576538086,0.03827090188860893,36.7150024,3.1819498,64.24,-2.98,-4.54,-0.69,83,236,5.48508882522583,5.440319538116455
31,-0.14515137672424316,-2.120852470397949,-0.010828475467860699,36.7149687,3.181883,64.87,-2.2,-3.71,-0.17,83,238,4.32523250579834,4.321628093719482
32,-0.12651486694812775,-2.1020326614379883,0.007519415579736233,36.7149356,3.1818114,64.93,-2.08,-3.67,0.0,82,239,4.221114158630371,4.221103191375732
33,-0.037107761949300766,-2.1033377647399902,-0.012859121896326542,36.7149086,3.1817527,64.92,-1.76,-3.12,0.03,82,239,3.586080312728882,3.5859148502349854
34,0.037800174206495285,-2.280578136444092,-0.03076894022524357,36.7148889,3.181714,64.25,-1.23,-1.52,1.0,82,229,2.21052885055542,1.968567967414856
35,-0.045743320137262344,-2.477454662322998,0.025058096274733543,36.7148712,3.181694,61.72,-1.02,-0.79,1.44,81,218,1.9450510740280151,1.2993158102035522
36,-0.023370690643787384,-2.471698522567749,-0.01907169818878174,36.7148573,3.1816809,59.48,-1.04,-0.82,1.42,81,218,1.9514105319976807,1.335433840751648
37,-0.016692930832505226,-2.469735860824585,0.023937596008181572,36.7148406,3.1816645,56.87,-1.06,-0.87,1.43,80,218,1.9927085638046265,1.3782578706741333
38,-0.048889681696891785,-2.4697046279907227,-0.020552407950162888,36.714826,3.1816499,54.62,-1.06,-0.88,1.44,80,218,1.9979948997497559,1.3833470344543457
39,-0.009004858322441578,-2.469249725341797,-0.005183073226362467,36.7148091,3.1816328,52.01,-1.07,-0.87,1.45,80,218,2.007486581802368,1.387193202972412
40,-0.0569581612944603,-2.469939708709717,0.01694912649691105,36.7147945,3.1816182,49.77,-1.06,-0.89,1.46,79,218,2.0181782245635986,1.3930937051773071
41,-0.008595487102866173,-2.469877004623413,-0.005865033250302076,36.7147799,3.1816035,47.52,-1.07,-0.88,1.46,79,218,2.0196163654327393,1.39031982421875
42,-0.027302123606204987,-2.4696435928344727,0.029676618054509163,36.714763,3.1815864,44.9,-1.06,-0.88,1.47,79,218,2.021651268005371,1.3871747255325317
43,-0.031824201345443726,-2.46919322013855,-0.026228705421090126,36.7147484,3.1815717,42.66,-1.07,-0.88,1.47,78,218,2.0283405780792236,1.3928920030593872
44,-0.031056074425578117,-2.469282865524292,0.02895425446331501,36.7147337,3.1815569,40.4,-1.06,-0.87,1.47,78,218,2.019745111465454,1.3800244331359863
45,-0.06351004540920258,-2.4696006774902344,-0.00031371612567454576,36.7147167,3.1815397,37.78,-1.06,-0.89,1.46,78,218,2.021038770675659,1.3870843648910522
46,-0.01158884260803461,-2.4698538780212402,0.006367658730596304,36.7147022,3.1815251,35.54,-1.06,-0.87,1.47,77,218,2.0242254734039307,1.382009744644165
47,-0.036589380353689194,-2.469576597213745,0.025955501943826675,36.7146851,3.1815078,32.91,-1.05,-0.87,1.47,77,218,2.0167717933654785,1.3741039037704468
48,-0.026343753561377525,-2.4695510864257812,-0.022945301607251167,36.7146705,3.1814931,30.66,-1.06,-0.88,1.47,76,218,2.0240626335144043,1.3880815505981445
49,-0.04778219386935234,-2.4697158336639404,0.02697874791920185,36.714656,3.1814784,28.41,-1.05,-0.88,1.47,76,218,2.0167317390441895,1.3759753704071045
50,-0.13586965203285217,-2.9853434562683105,-0.11762309819459915,36.714636,3.1814636,25.86,-1.73,-0.33,1.23,76,188,2.158341407775879,1.7709431648254395
51,-0.20781883597373962,2.675546884536743,-0.014815856702625751,36.7146023,3.1814735,24.94,-3.29,1.53,0.02,75,153,3.6358678340911865,3.6358113288879395
52,-0.19155091047286987,2.679563045501709,0.01491774246096611,36.7145415,3.1815105,25.04,-4.06,2.03,0.0,75,153,4.546335220336914,4.546327590942383
53,-0.009893610142171383,2.902583122253418,0.13928231596946716,36.7144878,3.1815395,24.99,-3.66,0.91,0.05,75,166,3.780853748321533,3.780444622039795
54,-0.36354243755340576,-2.3067760467529297,0.18432915210723877,36.7144439,3.1815264,24.97,-2.92,-2.84,0.02,74,227,4.079275608062744,4.079211235046387
55,-0.4862450063228607,-2.141289472579956,-0.02569255419075489,36.7143909,3.1814321,24.97,-4.09,-6.48,0.01,74,237,7.671360015869141,7.671342372894287
56,-0.5030378699302673,-2.1467769145965576,0.006524052005261183,36.7143293,3.1813105,24.98,-4.88,-7.67,0.0,73,237,9.098846435546875,9.098845481872559
57,-0.32452821731567383,-2.152926206588745,-0.024011854082345963,36.7142516,3.1811599,25.0,-4.73,-7.29,0.0,73,236,8.69861125946045,8.698609352111816
58,-0.26018062233924866,-2.147068738937378,0.017681188881397247,36.7141928,3.1810462,25.0,-3.89,-6.11,0.03,73,236,7.244227886199951,7.244157791137695
59,-0.2635079026222229,-2.1159069538116455,-0.011135283857584,36.7141369,3.1809329,24.98,-3.35,-5.68,0.01,72,238,6.621939182281494,6.6218953132629395
60,-0.30085334181785583,-2.1004886627197266,0.02151297777891159,36.7140927,3.1808375,24.98,-3.21,-5.66,0.01,72,239,6.513157844543457,6.513145446777344
61,-0.17672555148601532,-2.1001696586608887,-0.005825079046189785,36.7140492,3.1807424,24.98,-3.12,-5.47,0.0,71,239,6.305525302886963,6.305525302886963
62,0.12816987931728363,-2.1008520126342773,0.031445544213056564,36.714008,3.1806529,24.96,-1.8,-3.15,0.04,71,239,3.636924982070923,3.63670015335083
63,0.1280175894498825,-2.100432872772217,-0.026522425934672356,36.7139946,3.1806235,24.96,-0.31,-0.55,-0.02,71,239,0.6364947557449341,0.636138379573822
64,0.02469247207045555,-2.099381446838379,0.053143151104450226,36.7139948,3.1806233,24.94,0.16,0.1,0.04,70,239,0.19794961810112,0.19351273775100708
