timestamp,pitch,yaw,roll,lat,lon,alt,velocity_x,velocity_y,velocity_z,battery,heading,airspeed,groundspeed
0,-0.00817906018346548,-1.2847393008996733e-05,-0.023389533162117004,36.7156067,3.1846299,24.34,-0.03,0.02,-0.15,96,0,0.15945422649383545,0.03786740079522133
1,-0.042382072657346725,0.009380057454109192,0.13508497178554535,36.7156078,3.1846326,24.41,0.3,0.61,-0.07,95,0,0.6930269598960876,0.6891046166419983
2,-0.27671515941619873,1.5736669301986694,-0.1373467892408371,36.715619,3.1846586,24.46,1.46,2.74,-0.09,95,90,3.1135141849517822,3.1121227741241455
3,-0.2372921109199524,0.9573554992675781,-0.00817346852272749,36.715651,3.1847311,24.43,2.34,4.28,0.0,95,54,4.888872146606445,4.888865947723389
4,-0.11823393404483795,1.0343648195266724,0.028233271092176437,36.7156836,3.1848042,24.43,2.34,4.2,-0.01,94,59,4.817168235778809,4.81714391708374
5,0.30797144770622253,1.1256977319717407,0.0590481199324131,36.7157109,3.1848646,24.43,0.48,1.07,-0.04,94,64,1.1764286756515503,1.1756349802017212
6,0.022786099463701248,2.556359052658081,0.2290542721748352,36.7157001,3.1848474,24.46,-1.83,-2.63,0.0,93,146,3.213223457336426,3.2132155895233154
7,-0.11343719810247421,-1.9950146675109863,0.0038227750919759274,36.7156663,3.1847856,24.44,-2.2,-3.24,-0.08,93,245,3.9264469146728516,3.9256224632263184
8,-0.04770022630691528,-2.038498878479004,0.1080998107790947,36.7156402,3.1847309,24.45,-1.29,-3.13,0.04,93,243,3.39107084274292,3.390810251235962
9,-0.2687818706035614,-0.8694170713424683,0.1900235265493393,36.7156431,3.1846819,24.42,2.06,-2.75,0.0,92,310,3.441713571548462,3.4417121410369873
10,-0.49712494015693665,-0.622596800327301,-0.007438056170940399,36.7156949,3.1846284,24.42,5.44,-3.81,0.0,92,324,6.644937038421631,6.644933223724365
11,-0.4824869930744171,-0.6181790828704834,0.01088796928524971,36.7157996,3.1845374,24.43,7.58,-5.26,-0.01,91,324,9.230216026306152,9.230209350585938
12,-0.4840419292449951,-0.6205781102180481,0.0019294694066047668,36.7159232,3.1844292,24.45,7.85,-5.55,0.0,91,324,9.6249418258667,9.624940872192383
13,-0.21408942341804504,-0.6238144636154175,0.019468946382403374,36.7160233,3.1843405,24.49,6.6,-4.72,0.0,91,324,8.119611740112305,8.119611740112305
14,0.04273397475481033,-0.7199305295944214,-0.14321191608905792,36.716095,3.1842748,24.48,3.58,-3.17,-0.02,90,318,4.7925615310668945,4.792513847351074
15,-0.29907041788101196,-2.0200419425964355,-0.1819707602262497,36.7161128,3.1842153,25.01,-1.44,-3.5,-0.61,90,244,3.8404552936553955,3.790801525115967
16,-0.4938031733036041,-2.1811087131500244,0.02038511261343956,36.7160723,3.1841385,26.45,-4.14,-5.84,-1.23,89,235,7.273563861846924,7.168410301208496
17,-0.4394455552101135,-2.1651194095611572,-0.006696758791804314,36.7159945,3.1840002,29.05,-5.41,-7.85,-1.59,89,235,9.669301986694336,9.536327362060547
18,-0.48115047812461853,-2.1669762134552,-0.014552594162523746,36.7159193,3.1838638,31.52,-5.54,-8.15,-1.58,88,235,9.99323558807373,9.8670015335083
19,-0.4789526164531708,-2.1642229557037354,0.033354997634887695,36.715844,3.1837244,33.98,-5.52,-8.23,-1.58,88,236,10.042132377624512,9.917044639587402
20,-0.4355870187282562,-2.164128541946411,-0.0253138467669487,36.7157567,3.1835617,36.86,-5.53,-8.24,-1.59,88,236,10.058158874511719,9.931009292602539
21,-0.4917331039905548,-2.162682056427002,-0.025158539414405823,36.715682,3.1834228,39.33,-5.53,-8.24,-1.6,87,236,10.063780784606934,9.934418678283691
22,-0.42877376079559326,-2.163161277770996,0.01631399244070053,36.7155946,3.1832598,42.25,-5.5,-8.28,-1.62,87,236,10.078659057617188,9.947131156921387
23,-0.4615841209888458,-2.1639604568481445,-0.03167099878191948,36.7155201,3.18312,44.75,-5.51,-8.27,-1.61,86,236,10.074302673339844,9.943617820739746
24,-0.4923759996891022,-2.164597272872925,0.014472169801592827,36.7154454,3.1829806,47.24,-5.53,-8.31,-1.62,86,235,10.116720199584961,9.98458480834961
25,-0.42445629835128784,-2.1657767295837402,-0.0009196746977977455,36.7153581,3.1828175,50.16,-5.53,-8.27,-1.63,85,235,10.094985008239746,9.961690902709961
26,-0.47891321778297424,-2.1647846698760986,-0.021119996905326843,36.7152833,3.1826776,52.67,-5.5,-8.29,-1.62,85,235,10.09007453918457,9.957971572875977
27,-0.43720802664756775,-2.1633613109588623,0.025164611637592316,36.7151963,3.1825144,55.58,-5.52,-8.3,-1.64,84,236,10.10891056060791,9.974390029907227
28,-0.4343613386154175,-2.16377329826355,-0.023315615952014923,36.7151214,3.1823745,58.09,-5.52,-8.28,-1.63,84,236,10.093058586120605,9.959394454956055
29,-0.4057552218437195,-2.1654882431030273,-0.011327246204018593,36.715047,3.1822358,60.59,-5.34,-7.93,-1.57,83,235,9.69741153717041,9.56864070892334
30,-0.055844735354185104,-2.166536331176758,0.005580006167292595,36.7149733,3.1820991,63.05,-3.73,-5.59,-1.05,83,235,6.8151421546936035,6.732883453369141
31,-0.11414963006973267,-2.1393566131591797,0.02367885410785675,36.7149329,3.1820214,64.13,-2.4,-3.85,-0.4,83,237,4.557266712188721,4.539601802825928
32,-0.13262473046779633,-2.089623212814331,-0.015877224504947662,36.714899,3.1819486,64.41,-2.0,-3.67,-0.02,82,240,4.182894229888916,4.182809829711914
33,-0.11254062503576279,-2.087968349456787,0.026910381391644478,36.714872,3.1818872,64.4,-1.96,-3.61,-0.03,82,240,4.114509582519531,4.114382266998291
34,0.02794824168086052,-2.1655402183532715,-0.05993102490901947,36.7148461,3.1818306,64.1,-1.28,-1.98,0.57,82,235,2.4346086978912354,2.36488676071167
35,0.0242376197129488,-2.469449520111084,-0.0010737793054431677,36.71483,3.1818079,62.29,-1.09,-0.9,1.49,81,218,2.0627410411834717,1.4167956113815308
36,-0.05124669894576073,-2.4659059047698975,-0.02153935097157955,36.7148159,3.1817945,60.01,-1.03,-0.79,1.41,81,218,1.9271568059921265,1.3059688806533813
37,-0.01608811505138874,-2.4699866771698,-0.012669610790908337,36.7147995,3.1817789,57.41,-1.05,-0.86,1.43,80,218,1.9838171005249023,1.3659580945968628
38,-0.055600132793188095,-2.4698116779327393,0.015365405939519405,36.714785,3.1817644,55.17,-1.06,-0.88,1.44,80,218,2.0005059242248535,1.3828624486923218
39,-0.01440735999494791,-2.4699127674102783,-0.015722045674920082,36.7147705,3.1817497,52.92,-1.07,-0.88,1.44,80,218,2.008301258087158,1.3927843570709229
40,-0.019669685512781143,-2.469881057739258,0.02393367514014244,36.7147535,3.1817326,50.31,-1.07,-0.88,1.46,79,218,2.0151443481445312,1.3885540962219238
41,-0.043645840138196945,-2.4700441360473633,-0.024473752826452255,36.7147388,3.181718,48.06,-1.07,-0.88,1.46,79,218,2.023071765899658,1.3941242694854736
42,-0.010529937222599983,-2.4705398082733154,-0.00529974140226841,36.7147218,3.1817009,45.44,-1.06,-0.88,1.46,79,218,2.017190456390381,1.387067437171936
43,-0.06415717303752899,-2.4695279598236084,0.0031629614531993866,36.7147073,3.1816862,43.2,-1.06,-0.89,1.47,78,218,2.0259299278259277,1.392945408821106
44,-0.009780957363545895,-2.469851016998291,-0.003560262266546488,36.7146927,3.1816715,40.95,-1.07,-0.89,1.47,78,218,2.037341833114624,1.4008556604385376
45,-0.03440214693546295,-2.4699082374572754,0.02782292850315571,36.7146756,3.1816542,38.32,-1.06,-0.88,1.47,78,218,2.0215296745300293,1.3847463130950928
46,-0.03344862908124924,-2.470039129257202,-0.025840915739536285,36.7146611,3.1816396,36.08,-1.06,-0.88,1.47,77,218,2.0263140201568604,1.3892430067062378
47,-0.011952465400099754,-2.469770908355713,0.00658388901501894,36.7146441,3.1816225,33.46,-1.07,-0.88,1.48,77,218,2.0310168266296387,1.3893134593963623
48,-0.06289031356573105,-2.4698848724365234,-0.001077110762707889,36.7146295,3.1816077,31.2,-1.06,-0.88,1.47,76,218,2.025355815887451,1.3837718963623047
49,-0.012310224585235119,-2.469733238220215,0.007514695171266794,36.714615,3.181593,28.95,-1.07,-0.87,1.47,76,218,2.022073745727539,1.385520339012146
50,-0.075098417699337,-2.563817262649536,-0.03414493426680565,36.7145976,3.1815761,26.33,-1.23,-0.78,1.47,76,213,2.080829381942749,1.4696217775344849
51,-0.26719555258750916,2.7372887134552,-0.07486947625875473,36.7145671,3.1815746,24.48,-2.82,1.02,0.3,75,156,3.0183815956115723,3.002763032913208
52,-0.17686347663402557,2.6792259216308594,0.008588001132011414,36.7145198,3.181602,24.47,-3.97,1.96,-0.07,75,153,4.438127517700195,4.437538146972656
53,-0.12764683365821838,2.7034966945648193,0.05338732525706291,36.7144648,3.1816356,24.5,-3.97,1.79,0.06,75,154,4.36334228515625,4.36285924911499
54,-0.18135488033294678,-2.648601770401001,0.24060669541358948,36.7144084,3.1816451,24.44,-2.99,-1.52,0.03,74,208,3.361363649368286,3.3612217903137207
55,-0.4848483204841614,-2.1758475303649902,0.07238177955150604,36.7143669,3.1815867,24.44,-3.38,-5.3,0.02,74,235,6.290866374969482,6.2908220291137695
56,-0.4699289798736572,-2.1510612964630127,-0.023598894476890564,36.7143016,3.1814581,24.45,-4.71,-7.48,0.0,73,236,8.842864036560059,8.842862129211426
57,-0.45539137721061707,-2.150743246078491,0.005548577290028334,36.7142354,3.1813286,24.46,-4.95,-7.7,0.0,73,236,9.161348342895508,9.161347389221191
58,-0.26152104139328003,-2.151911973953247,0.02311556413769722,36.7141715,3.1812056,24.48,-4.32,-6.68,0.01,73,236,7.961801052093506,7.961787700653076
59,-0.3004242777824402,-2.1308891773223877,0.030031608417630196,36.7141108,3.1810858,24.45,-3.46,-5.69,0.02,72,237,6.672055244445801,6.671988010406494
60,-0.24367381632328033,-2.104722023010254,0.016813600435853004,36.7140657,3.1809905,24.44,-3.25,-5.64,0.0,72,239,6.519078254699707,6.519075393676758
61,-0.2830811142921448,-2.0996289253234863,0.020290182903409004,36.7140146,3.1808793,24.44,-3.21,-5.66,0.0,71,239,6.511341094970703,6.511337757110596
62,-0.008451651781797409,-2.1011316776275635,-0.018977876752614975,36.7139743,3.1807916,24.45,-2.54,-4.42,0.01,71,239,5.104042053222656,5.104006767272949
63,0.1307366043329239,-2.101576089859009,0.013679961673915386,36.7139504,3.1807397,24.41,-0.9,-1.59,0.0,71,239,1.8352112770080566,1.8352068662643433
64,0.016009977087378502,-2.101033926010132,-0.025162246078252792,36.7139461,3.1807298,24.43,0.09,0.14,0.0,70,239,0.17692437767982483,0.1768539398908615
65,-0.009387055411934853,-2.0843276977539062,0.15815700590610504,36.7139492,3.1807308,24.39,0.63,-0.3,-0.01,70,240,0.7093552350997925,0.7092809081077576
