timestamp,pitch,yaw,roll,lat,lon,alt,velocity_x,velocity_y,velocity_z,battery,heading,airspeed,groundspeed
0,0.005904690362513065,0.02627309039235115,0.030185330659151077,36.7156066,3.18463,17.54,-0.02,0.02,-0.02,96,1,0.04511545971035957,0.03904447332024574
1,-0.08317825198173523,0.025839870795607567,0.06851796805858612,36.7156079,3.1846324,17.59,0.35,0.54,-0.01,95,1,0.6522923707962036,0.6521644592285156
2,-0.14885543286800385,1.3674160242080688,-0.07226549088954926,36.7156207,3.1846549,17.56,1.59,2.21,-0.01,95,78,2.7336113452911377,2.733550786972046
3,-0.11258358508348465,0.9291958808898926,0.022565817460417747,36.7156516,3.1847075,17.59,2.09,2.87,-0.02,95,53,3.5583176612854004,3.558232545852661
4,0.19940081238746643,0.911198616027832,-0.03943432494997978,36.7156767,3.1847493,17.6,1.17,1.52,0.0,94,52,1.9267855882644653,1.9267853498458862
5,0.09658859670162201,-0.34390223026275635,-0.2629114091396332,36.7156715,3.1847365,17.6,-1.78,-2.59,-0.03,94,340,3.154325485229492,3.1541080474853516
6,-0.15924182534217834,-1.8693610429763794,-0.025322627276182175,36.7156426,3.1846842,17.63,-2.33,-3.3,0.0,93,252,4.046170711517334,4.04616641998291
7,-0.057189568877220154,-1.8894855976104736,0.11780114471912384,36.715611,3.1846191,17.61,-1.26,-3.15,0.01,93,251,3.3969714641571045,3.3969216346740723
8,-0.293621689081192,-0.7908562421798706,0.18135231733322144,36.7156156,3.1845696,17.6,2.26,-2.79,0.0,93,314,3.5989089012145996,3.598905324935913
9,-0.5044136643409729,-0.6116118431091309,-0.01512617152184248,36.7156703,3.184515,17.6,5.63,-3.9,0.0,92,324,6.855717658996582,6.855713367462158
10,-0.48443281650543213,-0.6135241985321045,0.010374548844993114,36.7157777,3.1844226,17.61,7.66,-5.29,0.0,92,324,9.316485404968262,9.31648063659668
11,-0.46788495779037476,-0.619215190410614,-0.027625853195786476,36.7158841,3.1843298,17.63,7.9,-5.57,0.0,91,324,9.673014640808105,9.673014640808105
12,-0.1972196251153946,-0.6213082075119019,0.022170180454850197,36.7160014,3.1842265,17.68,6.52,-4.62,0.01,91,324,8.415528297424316,8.41552734375
13,0.06039400398731232,-0.7377817630767822,-0.15652018785476685,36.7160713,3.1841623,17.67,3.43,-3.11,-0.02,91,317,4.634510040283203,4.6344380378723145
14,-0.2605699598789215,-1.8996440172195435,-0.1764899343252182,36.7160888,3.1841121,18.09,-0.93,-3.3,-0.53,90,251,3.479717493057251,3.4387047290802
15,-0.5063952207565308,-2.1814990043640137,0.01143420860171318,36.7160444,3.1840241,19.73,-4.23,-5.97,-1.24,90,235,7.430576801300049,7.325689792633057
16,-0.46491992473602295,-2.1656606197357178,0.033980343490839005,36.7159781,3.1839062,21.93,-5.37,-7.76,-1.58,89,235,9.57303237915039,9.441636085510254
17,-0.4683181047439575,-2.165823221206665,-0.023265041410923004,36.7158904,3.1837474,24.81,-5.56,-8.13,-1.57,89,235,9.981801986694336,9.856358528137207
18,-0.4802826941013336,-2.165570020675659,0.025492634624242783,36.7158151,3.1836082,27.26,-5.53,-8.21,-1.58,88,235,10.034982681274414,9.908659934997559
19,-0.4286022484302521,-2.1648571491241455,0.0292628426104784,36.71574,3.183469,29.74,-5.52,-8.24,-1.59,88,235,10.048529624938965,9.9203519821167
20,-0.4849541485309601,-2.1622188091278076,-0.018027670681476593,36.7156531,3.1833064,32.64,-5.49,-8.26,-1.6,87,236,10.057241439819336,9.928937911987305
21,-0.4857332110404968,-2.164654016494751,0.03671640157699585,36.7155783,3.183167,35.13,-5.54,-8.27,-1.6,87,235,10.087281227111816,9.958348274230957
22,-0.4443052113056183,-2.1646673679351807,-0.021434107795357704,36.715491,3.1830038,38.04,-5.5,-8.27,-1.61,87,235,10.069769859313965,9.939170837402344
23,-0.49540895223617554,-2.1647467613220215,0.005792657844722271,36.7154164,3.1828643,40.53,-5.5,-8.29,-1.62,86,235,10.082565307617188,9.95095157623291
24,-0.44801729917526245,-2.1639018058776855,0.039717212319374084,36.7153416,3.1827244,43.03,-5.51,-8.3,-1.63,86,236,10.104205131530762,9.970857620239258
25,-0.46969935297966003,-2.1662538051605225,-0.024090800434350967,36.7152546,3.1825618,45.95,-5.55,-8.31,-1.63,85,235,10.131916999816895,9.998618125915527
26,-0.4893045127391815,-2.1660940647125244,0.023383256047964096,36.7151796,3.1824215,48.46,-5.51,-8.29,-1.63,85,235,10.095724105834961,9.962164878845215
27,-0.42877814173698425,-2.1635830402374268,-0.019896158948540688,36.7150925,3.1822581,51.38,-5.52,-8.29,-1.64,84,236,10.09963607788086,9.965326309204102
28,-0.3906787931919098,-2.164731979370117,-0.022767506539821625,36.7150182,3.1821197,53.87,-5.31,-7.89,-1.57,84,235,9.642497062683105,9.513532638549805
29,-0.057831693440675735,-2.1672732830047607,0.009782856330275536,36.7149541,3.182001,56.02,-3.96,-5.91,-1.14,84,235,7.212970733642578,7.121105670928955
30,-0.11732983589172363,-2.1418235301971436,-0.0018643963849171996,36.7149057,3.1819084,57.34,-2.37,-3.81,-0.36,83,237,4.514730930328369,4.499629974365234
31,-0.11910578608512878,-2.106332540512085,0.02812553197145462,36.7148758,3.1818462,57.59,-2.1,-3.67,-0.04,83,239,4.236318588256836,4.236112117767334
32,-0.11498801410198212,-2.1033265590667725,0.021269161254167557,36.7148432,3.1817749,57.58,-2.02,-3.57,-0.03,82,239,4.106421947479248,4.106288433074951
33,0.08097068220376968,-2.151160478591919,-0.04789252206683159,36.7148198,3.1817252,57.39,-1.39,-2.19,0.42,82,236,2.630709171295166,2.5968031883239746
34,0.0164220929145813,-2.473499298095703,0.004452758003026247,36.7148007,3.1816975,55.4,-1.07,-0.86,1.5,82,218,2.0434153079986572,1.384220004081726
35,-0.04742034152150154,-2.466632843017578,-0.021534394472837448,36.7147866,3.1816843,53.12,-1.02,-0.8,1.42,81,218,1.9319225549697876,1.3093963861465454
36,-0.029954833909869194,-2.4688148498535156,0.03148665651679039,36.7147725,3.1816708,50.88,-1.04,-0.85,1.43,81,218,1.9714289903640747,1.3539886474609375
37,-0.06223645806312561,-2.4698562622070312,0.006645502522587776,36.7147557,3.1816539,48.26,-1.06,-0.88,1.44,81,218,1.9981611967086792,1.384830117225647
38,-0.011331199668347836,-2.46956205368042,0.0012073891703039408,36.7147411,3.1816394,46.02,-1.07,-0.87,1.44,80,218,2.005791425704956,1.3908053636550903
39,-0.04217834398150444,-2.469316005706787,0.02944858744740486,36.7147241,3.1816223,43.41,-1.06,-0.87,1.45,80,218,2.0063424110412598,1.3807551860809326
40,-0.037202656269073486,-2.4693715572357178,-0.021748226135969162,36.7147095,3.1816076,41.16,-1.07,-0.89,1.46,79,218,2.0234270095825195,1.3986543416976929
41,-0.0396956242620945,-2.4697861671447754,0.029421387240290642,36.714695,3.1815929,38.92,-1.05,-0.88,1.46,79,218,2.0147993564605713,1.3792345523834229
42,-0.06160822883248329,-2.4698197841644287,-0.0018133374396711588,36.714678,3.1815757,36.31,-1.07,-0.88,1.47,79,218,2.031352996826172,1.3915404081344604
43,-0.010366066358983517,-2.4689648151397705,0.018514199182391167,36.7146634,3.181561,34.05,-1.06,-0.88,1.47,78,218,2.0232386589050293,1.382031798362732
44,-0.044032156467437744,-2.469773769378662,0.027212096378207207,36.7146464,3.1815439,31.43,-1.05,-0.88,1.47,78,218,2.0196409225463867,1.3768491744995117
45,-0.019754188135266304,-2.4696075916290283,-0.022552048787474632,36.7146318,3.1815291,29.18,-1.07,-0.88,1.47,78,218,2.0268759727478027,1.3886504173278809
46,-0.050177618861198425,-2.470015287399292,0.022160906344652176,36.7146172,3.1815144,26.93,-1.05,-0.88,1.47,77,218,2.0187184810638428,1.377355933189392
47,-0.05320664495229721,-2.469282865524292,-0.012088154442608356,36.7146001,3.1814973,24.3,-1.06,-0.89,1.47,77,218,2.022033214569092,1.3868063688278198
48,-0.01462056115269661,-2.4692294597625732,0.020972251892089844,36.7145856,3.1814825,22.05,-1.06,-0.87,1.47,77,218,2.0150251388549805,1.3763519525527954
49,-0.08692282438278198,-2.585813283920288,-0.04407613351941109,36.7145681,3.1814656,19.43,-1.27,-0.77,1.46,76,211,2.0866048336029053,1.4882278442382812
50,-0.2016511708498001,2.7934374809265137,-0.10964382439851761,36.7145431,3.1814629,17.75,-2.56,0.77,0.48,76,160,2.7224087715148926,2.6792445182800293
51,-0.2302037477493286,2.6713664531707764,0.019922278821468353,36.7144984,3.1814881,17.64,-3.86,1.92,-0.05,75,153,4.318256378173828,4.317954063415527
52,-0.09420672059059143,2.7119944095611572,0.0497426874935627,36.7144351,3.1815273,17.68,-3.89,1.73,0.07,75,155,4.259919166564941,4.25933837890625
53,-0.12793272733688354,-2.793604612350464,0.3051811754703522,36.7143869,3.1815373,17.63,-3.06,-1.08,0.03,75,199,3.2487952709198,3.2485740184783936
54,-0.5012708306312561,-2.1725075244903564,0.041756607592105865,36.714338,3.1814713,17.62,-3.52,-5.49,0.02,74,235,6.5265984535217285,6.526545524597168
55,-0.47165659070014954,-2.1595916748046875,0.03130001574754715,36.7142817,3.1813612,17.62,-4.69,-7.34,0.0,74,236,8.714973449707031,8.714972496032715
56,-0.42872354388237,-2.156532049179077,-0.029091689735651016,36.714215,3.1812325,17.64,-5.01,-7.7,0.0,73,236,9.187079429626465,9.187079429626465
57,-0.27303794026374817,-2.1569976806640625,0.034613125026226044,36.7141401,3.1810894,17.66,-4.31,-6.6,0.02,73,236,7.887291431427002,7.887264728546143
58,-0.2573385536670685,-2.136204242706299,-0.0059191458858549595,36.7140876,3.1809868,17.63,-3.54,-5.71,0.03,73,237,6.7230377197265625,6.722959995269775
59,-0.25889718532562256,-2.1042821407318115,0.032508812844753265,36.7140345,3.1808754,17.63,-3.25,-5.65,0.0,72,239,6.525060176849365,6.525055885314941
60,-0.27934393286705017,-2.0998151302337646,-0.02230052277445793,36.7139907,3.18078,17.62,-3.24,-5.68,0.01,72,239,6.545778751373291,6.545770645141602
61,0.013297172263264656,-2.100227117538452,0.00893277395516634,36.7139435,3.1806773,17.62,-2.45,-4.29,0.02,71,239,4.9507598876953125,4.95070743560791
62,0.12735363841056824,-2.100559949874878,-0.006821884773671627,36.7139209,3.1806281,17.59,-0.81,-1.44,-0.01,71,239,1.656755805015564,1.6567195653915405
63,0.07108566910028458,-2.1006109714508057,0.013852276839315891,36.7139171,3.1806195,17.61,0.07,0.1,0.0,71,239,0.12961670756340027,0.1296076476573944
64,-0.03875745087862015,-2.0694494247436523,0.16858147084712982,36.7139208,3.1806206,17.57,0.69,-0.36,-0.01,70,241,0.7861912846565247,0.7859944701194763
