timestamp,pitch,yaw,roll,lat,lon,alt,velocity_x,velocity_y,velocity_z,battery,heading,airspeed,groundspeed
0,0.0008608507923781872,0.03984057903289795,0.03243620693683624,36.7156066,3.1846299,13.64,-0.02,0.03,-0.03,96,2,0.049860768020153046,0.037298791110515594
1,-0.07795366644859314,0.03420066833496094,0.047822460532188416,36.715608,3.184632,13.65,0.37,0.45,-0.01,95,1,0.5925847887992859,0.5922945141792297
2,-0.2335665076971054,1.1867989301681519,-0.07461754977703094,36.7156215,3.1846508,13.65,1.78,2.02,-0.04,95,67,2.6991422176361084,2.6988308429718018
3,-0.2702893316745758,0.8669118881225586,0.010668828152120113,36.7156639,3.1847099,13.69,3.37,3.72,0.01,95,49,5.0260539054870605,5.02603816986084
4,-0.1748640537261963,0.8286730051040649,-0.019711600616574287,36.7157124,3.1847761,13.62,3.63,3.95,0.0,94,47,5.374568462371826,5.37456750869751
5,0.1839347630739212,0.8128902316093445,0.011389887891709805,36.7157633,3.1848442,13.66,2.25,2.38,0.0,94,46,3.2850069999694824,3.2850027084350586
6,0.14842349290847778,-0.12936095893383026,-0.31279462575912476,36.7157734,3.1848524,13.69,-0.94,-1.56,0.0,93,352,1.833044171333313,1.833040714263916
7,-0.10997297614812851,-1.697209119796753,-0.05340501293540001,36.7157494,3.184808,13.66,-2.27,-3.21,0.04,93,262,3.9354727268218994,3.935250997543335
8,-0.09815637767314911,-2.0759947299957275,0.07274968177080154,36.7157144,3.1847437,13.71,-2.02,-3.19,0.02,93,241,3.7851929664611816,3.785137414932251
9,-0.0797286108136177,-1.4604873657226562,0.22284048795700073,36.7157001,3.1846918,13.66,0.35,-2.8,0.02,92,276,2.8309929370880127,2.8308937549591064
10,-0.4047161340713501,-0.6483386754989624,0.05687655881047249,36.7157406,3.1846344,13.65,4.65,-3.38,0.0,92,322,5.754601955413818,5.754602432250977
11,-0.5256181955337524,-0.6308440566062927,-0.010875534266233444,36.7158208,3.1845641,13.65,7.0,-4.87,0.0,91,323,8.538288116455078,8.538286209106445
12,-0.5144944190979004,-0.6212787628173828,0.031357541680336,36.7159229,3.1844753,13.67,7.87,-5.51,0.0,91,324,9.61881160736084,9.61881160736084
13,-0.3416227400302887,-0.6230837106704712,-0.021416405215859413,36.7160458,3.1843669,13.7,7.36,-5.25,-0.01,91,324,9.047150611877441,9.047133445739746
14,-0.051384687423706055,-0.6301891207695007,-0.0068189837038517,36.7161328,3.1842894,13.71,5.12,-3.73,0.04,90,323,6.347560405731201,6.34738302230835
15,-0.11967151612043381,-1.4198498725891113,-0.31216973066329956,36.7161796,3.1842279,13.92,0.38,-2.94,-0.34,90,278,2.9956324100494385,2.9753658771514893
16,-0.3841322958469391,-2.1369240283966064,-0.02758205682039261,36.7161585,3.1841665,14.94,-3.24,-4.69,-0.98,89,237,5.790002346038818,5.705109119415283
17,-0.5071569085121155,-2.160201072692871,-0.02825538069009781,36.7160897,3.1840454,17.25,-5.1,-7.35,-1.51,89,236,9.082560539245605,8.955473899841309
18,-0.45123937726020813,-2.1644704341888428,0.041594892740249634,36.7160159,3.1839126,19.69,-5.52,-8.03,-1.59,89,235,9.884236335754395,9.753952026367188
19,-0.42755818367004395,-2.1620566844940186,0.0034759787376970053,36.715941,3.1837747,22.14,-5.54,-8.2,-1.57,88,236,10.028584480285645,9.903560638427734
20,-0.48999664187431335,-2.166754961013794,0.013615239411592484,36.7158531,3.183612,25.01,-5.56,-8.25,-1.59,88,235,10.082560539245605,9.955199241638184
21,-0.4449649155139923,-2.1636273860931396,0.033097732812166214,36.7157782,3.1834726,27.5,-5.49,-8.23,-1.6,87,236,10.02627944946289,9.897526741027832
22,-0.4800668954849243,-2.163651704788208,-0.028593456372618675,36.7156913,3.1833101,30.39,-5.52,-8.27,-1.6,87,236,10.08094310760498,9.951562881469727
23,-0.48402056097984314,-2.1654491424560547,0.029907746240496635,36.7156165,3.1831703,32.89,-5.53,-8.3,-1.62,86,235,10.115435600280762,9.983613014221191
24,-0.428333580493927,-2.1669273376464844,0.027830252423882484,36.7155414,3.1830305,35.39,-5.51,-8.27,-1.63,86,235,10.083250045776367,9.950288772583008
25,-0.4936870336532593,-2.1630232334136963,-0.014039847068488598,36.7154547,3.1828679,38.31,-5.48,-8.28,-1.62,85,236,10.069659233093262,9.93799877166748
26,-0.47299864888191223,-2.1638400554656982,0.03206649422645569,36.7153799,3.1827278,40.81,-5.53,-8.3,-1.63,85,236,10.116059303283691,9.98287296295166
27,-0.44632014632225037,-2.1655139923095703,-0.028376195579767227,36.7152924,3.1825643,43.74,-5.52,-8.28,-1.63,84,235,10.091458320617676,9.958589553833008
28,-0.4924757480621338,-2.1667213439941406,0.009374476969242096,36.7152177,3.1824249,46.24,-5.49,-8.27,-1.62,84,235,10.071266174316406,9.93919849395752
29,-0.43962615728378296,-2.163576602935791,0.03437826409935951,36.7151432,3.1822854,48.74,-5.5,-8.31,-1.64,84,236,10.100584983825684,9.966413497924805
30,-0.20255619287490845,-2.1667933464050293,-0.024710820987820625,36.7150616,3.1821335,51.48,-4.51,-6.7,-1.34,83,235,8.199628829956055,8.089201927185059
31,-0.05538715422153473,-2.1583023071289062,0.04095765948295593,36.715012,3.1820408,53.02,-2.86,-4.39,-0.64,83,236,5.282255172729492,5.243221759796143
32,-0.1684989035129547,-2.1000237464904785,0.011850434355437756,36.7149751,3.1819651,53.61,-2.08,-3.69,-0.1,82,239,4.240475654602051,4.2391357421875
33,-0.13198192417621613,-2.0867457389831543,0.018391095101833344,36.7149478,3.1819037,53.63,-2.01,-3.69,-0.01,82,240,4.2087812423706055,4.208755970001221
34,-0.017835112288594246,-2.088186740875244,-0.0262245312333107,36.714922,3.1818453,53.61,-1.63,-2.99,0.07,82,240,3.413745403289795,3.413004159927368
35,0.030336793512105942,-2.3685338497161865,-0.06125624105334282,36.7149007,3.1818053,52.49,-1.17,-1.25,1.29,81,224,2.1538877487182617,1.7207319736480713
36,-0.05341435968875885,-2.471562385559082,0.020314743742346764,36.714886,3.18179,50.22,-1.03,-0.79,1.44,81,218,1.9462759494781494,1.3054524660110474
37,-0.05426879972219467,-2.469526529312134,-0.01733499951660633,36.7148696,3.1817746,47.61,-1.04,-0.84,1.42,81,218,1.9584076404571533,1.340500831604004
38,-0.02240721508860588,-2.4697673320770264,0.022705288603901863,36.7148553,3.1817604,45.37,-1.06,-0.86,1.43,80,218,1.9898953437805176,1.3763667345046997
39,-0.05144170671701431,-2.4695606231689453,-0.01856124959886074,36.7148407,3.1817458,43.12,-1.06,-0.88,1.44,80,218,2.005762815475464,1.3891446590423584
40,-0.012692135758697987,-2.4698619842529297,-0.01297338493168354,36.7148238,3.1817287,40.5,-1.07,-0.87,1.45,79,218,2.008671760559082,1.3879033327102661
41,-0.061914268881082535,-2.4698326587677,0.010714423842728138,36.7148092,3.1817141,38.26,-1.06,-0.88,1.45,79,218,2.0087385177612305,1.3850566148757935
42,-0.04271628335118294,-2.469691038131714,-0.024094754830002785,36.7147922,3.181697,35.65,-1.07,-0.89,1.47,79,218,2.028348684310913,1.3961371183395386
43,-0.0372183695435524,-2.4691593647003174,0.03168319910764694,36.7147776,3.1816822,33.4,-1.06,-0.88,1.46,78,218,2.0209097862243652,1.386879324913025
44,-0.06209908053278923,-2.4695053100585938,0.006210946943610907,36.7147606,3.1816651,30.78,-1.05,-0.89,1.47,78,218,2.019347906112671,1.3844088315963745
45,-0.009938826784491539,-2.4694533348083496,0.005848059430718422,36.714746,3.1816504,28.53,-1.06,-0.88,1.47,78,218,2.024848699569702,1.3878542184829712
46,-0.058475855737924576,-2.4700989723205566,-0.0013740630820393562,36.7147314,3.1816356,26.29,-1.06,-0.89,1.48,77,218,2.034787654876709,1.3951225280761719
47,-0.03177773952484131,-2.469491481781006,-0.02098778635263443,36.7147144,3.1816185,23.66,-1.07,-0.88,1.47,77,218,2.0278472900390625,1.392317533493042
48,-0.0431513674557209,-2.469670057296753,0.02852567285299301,36.7146998,3.1816038,21.41,-1.05,-0.87,1.47,77,218,2.0163111686706543,1.3733572959899902
49,-0.05811389908194542,-2.469285726547241,-0.005672592669725418,36.7146828,3.1815866,18.79,-1.06,-0.89,1.48,76,218,2.032292604446411,1.3915176391601562
50,-0.012938037514686584,-2.4693758487701416,0.014847740530967712,36.7146682,3.1815719,16.53,-1.06,-0.87,1.47,76,218,2.020678997039795,1.378340244293213
51,-0.15350845456123352,-3.0755789279937744,-0.12294354289770126,36.7146499,3.1815605,14.39,-1.84,-0.2,1.13,75,183,2.177685499191284,1.85685396194458
52,-0.20604901015758514,2.6755824089050293,-0.032907284796237946,36.7146063,3.1815779,13.65,-3.61,1.77,-0.06,75,153,4.02291202545166,4.022423267364502
53,-0.18344800174236298,2.6786305904388428,0.020386846736073494,36.7145525,3.1816109,13.74,-4.06,2.03,0.02,75,153,4.539978504180908,4.539891242980957
54,-0.006401779595762491,2.9632465839385986,0.16368503868579865,36.7144993,3.181638,13.69,-3.58,0.66,0.05,74,169,3.644611358642578,3.6442158222198486
55,-0.3730616271495819,-2.1965410709381104,0.134552463889122,36.7144499,3.1816097,13.67,-3.0,-3.79,0.01,74,234,4.844080924987793,4.84404993057251
56,-0.4703195095062256,-2.1442840099334717,-0.023807574063539505,36.7144018,3.1815191,13.67,-4.2,-6.65,0.0,73,237,7.869374752044678,7.869370460510254
57,-0.4410635232925415,-2.1498637199401855,0.028344903141260147,36.7143282,3.1813744,13.68,-4.91,-7.69,0.0,73,236,9.133150100708008,9.133147239685059
58,-0.3159661591053009,-2.152050733566284,-0.021750323474407196,36.7142622,3.1812466,13.7,-4.67,-7.2,0.0,73,236,8.585620880126953,8.585618019104004
59,-0.264822781085968,-2.1457197666168213,0.02404242381453514,36.7142045,3.1811348,13.7,-3.83,-6.05,0.03,72,237,7.162708282470703,7.162641525268555
60,-0.2552628517150879,-2.1130058765411377,-0.0073610697872936726,36.7141488,3.1810212,13.67,-3.33,-5.66,0.01,72,238,6.575997352600098,6.57598352432251
61,-0.30237215757369995,-2.0996897220611572,0.025378545746207237,36.7141048,3.1809261,13.67,-3.2,-5.64,0.01,72,239,6.493605613708496,6.493597030639648
62,-0.15568029880523682,-2.100193738937378,-0.025886058807373047,36.7140546,3.1808166,13.68,-2.96,-5.2,0.0,71,239,5.993263244628906,5.993262767791748
63,0.14679519832134247,-2.1010327339172363,0.03147275000810623,36.7140218,3.1807455,13.65,-1.63,-2.86,0.03,71,239,3.3005921840667725,3.300386428833008
64,0.06705614924430847,-2.1004691123962402,-0.0012216115137562156,36.7140099,3.1807191,13.66,-0.08,-0.17,-0.01,70,239,0.19549129903316498,0.19474604725837708
65,0.02149607427418232,-2.0986170768737793,0.0679529532790184,36.7140109,3.1807208,13.64,0.21,0.06,0.03,70,239,0.23033352196216583,0.22688455879688263
