timestamp,pitch,yaw,roll,lat,lon,alt,velocity_x,velocity_y,velocity_z,battery,heading,airspeed,groundspeed
0,-0.005068618338555098,-0.02105608396232128,-0.023476792499423027,36.7156066,3.18463,28.57,-0.02,0.02,0.06,96,358,0.07051990926265717,0.03688788041472435
1,-0.07788068801164627,-0.010920382104814053,0.11535610258579254,36.7156085,3.184632,28.45,0.49,0.48,-0.02,95,359,0.6954190731048584,0.6950114965438843
2,-0.2747364342212677,1.0211291313171387,-0.08241856843233109,36.7156266,3.1846521,28.44,2.37,2.04,-0.04,95,58,3.1328701972961426,3.132479667663574
3,-0.19179226458072662,0.7401643395423889,-0.03631157428026199,36.7156756,3.1847046,28.49,3.58,3.02,-0.05,95,42,4.697452545166016,4.697099685668945
4,-0.07346868515014648,0.7069742679595947,0.025095989927649498,36.7157241,3.1847554,28.52,3.32,2.81,-0.03,94,40,4.356137752532959,4.355961799621582
5,0.24386285245418549,0.14488917589187622,-0.22755809128284454,36.7157577,3.1847857,28.52,0.22,-0.4,0.0,94,8,0.4658098816871643,0.4658089578151703
6,-0.13396452367305756,-1.5301852226257324,-0.14194926619529724,36.715742,3.1847519,28.55,-2.2,-3.11,-0.04,93,272,3.8180150985717773,3.817765474319458
7,-0.09700730443000793,-2.1604228019714355,0.03559751436114311,36.7157054,3.1846862,28.56,-2.27,-3.31,0.0,93,236,4.016571521759033,4.016565322875977
8,-0.03894206881523132,-1.7341842651367188,0.18431918323040009,36.7156843,3.1846317,28.55,-0.4,-2.97,0.01,93,260,3.0075526237487793,3.0075273513793945
9,-0.3538574278354645,-0.6587899923324585,0.11371179670095444,36.7157043,3.1845837,28.54,3.43,-2.97,0.0,92,322,4.545199871063232,4.545199394226074
10,-0.503728449344635,-0.6120319366455078,-0.027612794190645218,36.7157716,3.184523,28.54,6.37,-4.43,0.0,92,324,7.7643022537231445,7.764298915863037
11,-0.484189510345459,-0.6150951981544495,0.023932266980409622,36.7158866,3.1844237,28.57,7.84,-5.45,0.0,91,324,9.551223754882812,9.551222801208496
12,-0.41649186611175537,-0.6186156868934631,-0.022984547540545464,36.7160107,3.1843148,28.59,7.63,-5.39,0.0,91,324,9.342207908630371,9.342205047607422
13,-0.10130200535058975,-0.6221424341201782,0.03015276789665222,36.7161037,3.1842326,28.62,5.79,-4.11,0.04,91,324,7.11402702331543,7.113891124725342
14,0.07471820712089539,-0.9438472390174866,-0.2475356161594391,36.71616,3.1841755,28.67,2.13,-2.9,-0.14,90,305,3.613410472869873,3.6106860637664795
15,-0.3435288965702057,-2.1295270919799805,-0.08006129413843155,36.7161542,3.1841115,29.54,-2.64,-4.19,-0.84,90,237,5.028400421142578,4.9574971199035645
16,-0.5010995864868164,-2.1644628047943115,-0.023464282974600792,36.7161026,3.1840205,31.28,-4.69,-6.71,-1.39,89,235,8.310626029968262,8.193531036376953
17,-0.4340856671333313,-2.162055492401123,0.03837395831942558,36.7160194,3.1838714,34.04,-5.52,-8.03,-1.61,89,236,9.885680198669434,9.753612518310547
18,-0.44571009278297424,-2.1639435291290283,-0.029554838314652443,36.7159442,3.1837337,36.51,-5.53,-8.16,-1.56,88,236,9.98961067199707,9.865798950195312
19,-0.49422764778137207,-2.164370059967041,-0.014640910550951958,36.715869,3.1835947,38.97,-5.56,-8.26,-1.57,88,236,10.084786415100098,9.960264205932617
20,-0.42174819111824036,-2.164337158203125,0.012177622877061367,36.7157815,3.1834318,41.85,-5.52,-8.26,-1.59,87,236,10.066356658935547,9.938545227050781
21,-0.446939617395401,-2.164308786392212,-0.025875935330986977,36.7157067,3.1832921,44.35,-5.52,-8.27,-1.6,87,236,10.073206901550293,9.945317268371582
22,-0.45939919352531433,-2.164520502090454,0.04174168407917023,36.7156197,3.1831297,47.25,-5.49,-8.26,-1.6,87,235,10.056307792663574,9.926763534545898
23,-0.42528265714645386,-2.163879871368408,-0.003177508944645524,36.7155451,3.1829902,49.75,-5.53,-8.31,-1.62,86,236,10.122326850891113,9.990556716918945
24,-0.49190017580986023,-2.163339138031006,0.011690759100019932,36.7154578,3.1828267,52.67,-5.5,-8.28,-1.61,86,236,10.079961776733398,9.94951057434082
25,-0.4396496117115021,-2.1661272048950195,0.03936422988772392,36.7153829,3.1826868,55.17,-5.54,-8.28,-1.62,85,235,10.10146427154541,9.969156265258789
26,-0.43421608209609985,-2.164844274520874,-0.011215300299227238,36.7153082,3.1825473,57.67,-5.51,-8.3,-1.63,85,235,10.10127067565918,9.968315124511719
27,-0.4835585355758667,-2.163768768310547,0.02785664238035679,36.7152211,3.1823841,60.59,-5.51,-8.29,-1.63,84,236,10.095540046691895,9.962512969970703
28,-0.42835181951522827,-2.163231372833252,0.0228557325899601,36.7151463,3.182244,63.1,-5.52,-8.29,-1.63,84,236,10.098760604858398,9.965744018554688
29,-0.29756438732147217,-2.1686954498291016,-0.021980661898851395,36.7150736,3.182109,65.53,-5.04,-7.46,-1.49,83,235,9.129748344421387,9.007000923156738
30,-0.05969591066241264,-2.1642627716064453,0.03569183871150017,36.715008,3.1819868,67.67,-3.17,-4.8,-0.79,83,236,5.8101067543029785,5.755904197692871
31,-0.15198619663715363,-2.1267685890197754,-0.010812913067638874,36.7149728,3.1819177,68.42,-2.24,-3.71,-0.22,83,238,4.341360569000244,4.335480213165283
32,-0.12786464393138885,-2.102137327194214,0.003598361276090145,36.7149394,3.1818462,68.52,-2.08,-3.69,0.0,82,239,4.239940166473389,4.23993444442749
33,-0.05543993040919304,-2.103219985961914,-0.001256719115190208,36.7149118,3.181786,68.52,-1.84,-3.28,-0.01,82,239,3.770620107650757,3.7706029415130615
34,0.028982972726225853,-2.29306697845459,-0.07507769763469696,36.7148883,3.1817394,67.78,-1.22,-1.47,1.04,82,228,2.1881840229034424,1.9214931726455688
35,-0.04159814864397049,-2.4848413467407227,0.024213401600718498,36.7148731,3.1817222,65.61,-1.02,-0.79,1.46,81,217,1.9546171426773071,1.2962287664413452
36,-0.025593874976038933,-2.4724738597869873,-0.017732620239257812,36.7148592,3.1817091,63.37,-1.04,-0.83,1.42,81,218,1.9527143239974976,1.3367159366607666
37,-0.013345222920179367,-2.4699771404266357,0.019331974908709526,36.7148425,3.1816928,60.75,-1.06,-0.86,1.43,80,218,1.982985496520996,1.3732130527496338
38,-0.058432258665561676,-2.4696524143218994,-0.017775774002075195,36.714828,3.1816782,58.51,-1.07,-0.88,1.43,80,218,1.9997193813323975,1.3900882005691528
39,-0.010264962911605835,-2.4692728519439697,-0.012740257196128368,36.7148111,3.1816612,55.9,-1.07,-0.87,1.45,80,218,2.009308338165283,1.3872400522232056
40,-0.054202377796173096,-2.4699654579162598,0.01940196380019188,36.7147964,3.1816465,53.65,-1.06,-0.88,1.45,79,218,2.0112383365631104,1.383556604385376
41,-0.010682377964258194,-2.4699084758758545,-0.011304864659905434,36.7147819,3.1816319,51.41,-1.07,-0.88,1.46,79,218,2.017435073852539,1.3919246196746826
42,-0.023582834750413895,-2.469660758972168,0.028180072084069252,36.7147649,3.1816148,48.79,-1.06,-0.88,1.47,79,218,2.023648977279663,1.388124942779541
43,-0.03907192125916481,-2.4691851139068604,-0.021826274693012238,36.7147502,3.1816,46.55,-1.07,-0.89,1.47,78,218,2.0313148498535156,1.398215413093567
44,-0.00818618293851614,-2.4695181846618652,-0.006597345229238272,36.7147332,3.1815828,43.92,-1.06,-0.88,1.46,78,218,2.0213217735290527,1.3874865770339966
45,-0.0632283166050911,-2.469883441925049,0.009505023248493671,36.7147187,3.1815681,41.67,-1.06,-0.89,1.47,78,218,2.026822328567505,1.3880177736282349
46,-0.00726194167509675,-2.4698519706726074,0.0038568705786019564,36.7147041,3.1815534,39.42,-1.07,-0.87,1.47,77,218,2.027681589126587,1.3890230655670166
47,-0.03875699266791344,-2.46951961517334,0.026248319074511528,36.7146871,3.1815362,36.8,-1.05,-0.87,1.47,77,218,2.0123813152313232,1.373437523841858
48,-0.03234247490763664,-2.4696638584136963,-0.024826277047395706,36.7146725,3.1815215,34.55,-1.06,-0.88,1.47,76,218,2.0185225009918213,1.3825409412384033
49,-0.00917826872318983,-2.469123125076294,0.008108947426080704,36.7146555,3.1815043,31.93,-1.06,-0.87,1.48,76,218,2.0235252380371094,1.3794268369674683
50,-0.12050408124923706,-2.8485536575317383,-0.10090448707342148,36.714639,3.181491,29.7,-1.57,-0.51,1.33,76,196,2.1283507347106934,1.6580917835235596
51,-0.2073400765657425,2.685988664627075,-0.032599009573459625,36.7146081,3.1814968,28.55,-3.1,1.35,0.11,75,153,3.3845722675323486,3.38257098197937
52,-0.19110216200351715,2.6798787117004395,0.020171377807855606,36.7145489,3.1815323,28.63,-4.07,2.03,-0.01,75,153,4.552476406097412,4.552436351776123
53,-0.02782655879855156,2.8250627517700195,0.10605647414922714,36.7144945,3.1815635,28.59,-3.76,1.23,0.06,75,161,3.9621496200561523,3.9616005420684814
54,-0.3235560953617096,-2.2747418880462646,0.17403846979141235,36.7144425,3.1815513,28.56,-2.92,-2.95,0.02,74,229,4.159064769744873,4.158993721008301
55,-0.48702386021614075,-2.1413145065307617,-0.02731768973171711,36.7143981,3.1814727,28.56,-3.9,-6.24,0.02,74,237,7.360903739929199,7.360872745513916
56,-0.45734903216362,-2.1471335887908936,0.0218807365745306,36.7143272,3.1813327,28.57,-4.89,-7.66,0.0,73,236,9.092190742492676,9.09218978881836
57,-0.3570403456687927,-2.1514103412628174,-0.026714835315942764,36.7142604,3.1812031,28.59,-4.82,-7.44,0.0,73,236,8.87289047241211,8.872888565063477
58,-0.27016064524650574,-2.149538993835449,0.02735006995499134,36.7142002,3.181087,28.59,-4.02,-6.29,0.03,73,236,7.473451137542725,7.47338342666626
59,-0.2689347267150879,-2.1193041801452637,-0.012760774232447147,36.7141429,3.1809717,28.57,-3.39,-5.68,0.02,72,238,6.625777244567871,6.625738620758057
60,-0.2979353368282318,-2.1016969680786133,0.03334153816103935,36.7140984,3.1808764,28.57,-3.22,-5.64,0.01,72,239,6.499311447143555,6.499302387237549
61,-0.204500213265419,-2.1000170707702637,-0.02529129944741726,36.7140478,3.1807659,28.57,-3.1,-5.45,0.0,71,239,6.273177623748779,6.273177623748779
62,0.09234564751386642,-2.1007611751556396,0.026668328791856766,36.7140116,3.1806871,28.56,-2.04,-3.56,0.04,71,239,4.110843181610107,4.110630035400391
63,0.13668353855609894,-2.1008949279785156,-0.029668429866433144,36.7139953,3.1806514,28.54,-0.45,-0.79,-0.02,71,239,0.9158058166503906,0.915577232837677
64,0.030131760984659195,-2.0999596118927,0.02172659896314144,36.7139945,3.1806494,28.54,0.12,0.15,0.03,70,239,0.20197220146656036,0.19890925288200378
