timestamp,pitch,yaw,roll,lat,lon,alt,velocity_x,velocity_y,velocity_z,battery,heading,airspeed,groundspeed
0,-0.014135634526610374,0.03539867699146271,0.027520816773176193,36.7156066,3.1846299,16.02,-0.01,0.03,-0.05,96,2,0.06659936904907227,0.036751389503479004
1,-0.045732464641332626,0.03847477585077286,0.07250133156776428,36.7156075,3.1846328,16.05,0.26,0.61,-0.02,95,2,0.6693826913833618,0.6688689589500427
2,-0.10016467422246933,1.678758978843689,-0.09639333933591843,36.7156194,3.1846639,16.05,1.19,2.5,-0.02,95,96,2.7720446586608887,2.771916627883911
3,-0.06925854831933975,0.9773707389831543,0.03661935403943062,36.7156373,3.1847098,16.06,1.33,2.8,-0.01,95,55,3.103534460067749,3.1035068035125732
4,0.30144479870796204,1.301208734512329,0.05037059634923935,36.7156494,3.184743,16.07,0.05,0.52,-0.03,94,74,0.5269368290901184,0.5259763598442078
5,-0.087272047996521,-3.118731737136841,0.17070387303829193,36.7156305,3.184711,16.09,-2.13,-3.05,0.05,94,181,3.7271571159362793,3.7268121242523193
6,-0.17624951899051666,-1.9246457815170288,-0.014857855625450611,36.7156002,3.1846556,16.1,-2.31,-3.34,-0.05,93,249,4.071819305419922,4.071480751037598
7,-0.048668842762708664,-1.656957745552063,0.19106480479240417,36.7155751,3.1845912,16.07,-0.29,-3.02,0.02,93,265,3.037653923034668,3.037529706954956
8,-0.3656347990036011,-0.652576744556427,0.12579499185085297,36.7155968,3.1845424,16.05,3.54,-3.02,0.0,93,322,4.657503128051758,4.657498359680176
9,-0.4996008276939392,-0.6160961389541626,-0.02132304385304451,36.7156657,3.18448,16.06,6.43,-4.46,0.0,92,324,7.833704948425293,7.833704948425293
10,-0.5456956028938293,-0.6188926100730896,0.010746602900326252,36.715763,3.1843958,16.07,7.78,-5.39,0.0,92,324,9.4767484664917,9.476747512817383
11,-0.3894546329975128,-0.6232115030288696,-0.013162444345653057,36.7158874,3.1842867,16.09,7.71,-5.47,-0.02,91,324,9.462384223937988,9.46235466003418
12,-0.08627164363861084,-0.6261709332466125,0.02399774268269539,36.7159961,3.1841903,16.13,5.6,-4.03,0.03,91,324,6.909424304962158,6.90933084487915
13,0.07703957706689835,-0.9980400204658508,-0.2643585801124573,36.7160494,3.1841342,16.19,1.9,-2.92,-0.17,91,302,3.492241859436035,3.487743377685547
14,-0.36218172311782837,-2.1181375980377197,-0.06622935086488724,36.716046,3.1840801,16.91,-2.26,-3.97,-0.77,90,238,4.637303352355957,4.571863651275635
15,-0.4853874742984772,-2.1618313789367676,-0.03347795829176903,36.7159872,3.1839749,18.91,-4.76,-6.79,-1.41,90,236,8.417339324951172,8.297651290893555
16,-0.49473902583122253,-2.1676411628723145,0.03347524255514145,36.7159162,3.1838483,21.26,-5.53,-8.0,-1.61,89,235,9.864294052124023,9.730880737304688
17,-0.4220985770225525,-2.1639161109924316,-0.012932360172271729,36.7158283,3.1836876,24.13,-5.51,-8.2,-1.59,89,236,10.01210880279541,9.885001182556152
18,-0.4890909492969513,-2.163165330886841,-0.017417535185813904,36.7157532,3.1835481,26.6,-5.53,-8.23,-1.59,88,236,10.04465389251709,9.917567253112793
19,-0.47865697741508484,-2.163972854614258,0.03350464254617691,36.7156782,3.1834089,29.07,-5.52,-8.26,-1.61,88,236,10.070716857910156,9.941099166870117
20,-0.44502440094947815,-2.164396286010742,-0.02956293523311615,36.7155912,3.1832462,31.98,-5.5,-8.26,-1.61,87,235,10.061718940734863,9.931090354919434
21,-0.49545443058013916,-2.1640264987945557,-0.007522279862314463,36.7155164,3.1831064,34.47,-5.52,-8.27,-1.61,87,236,10.086286544799805,9.95601749420166
22,-0.42509472370147705,-2.1639597415924072,0.014850614592432976,36.7154291,3.1829437,37.38,-5.5,-8.26,-1.63,87,236,10.06119441986084,9.928131103515625
23,-0.4689571261405945,-2.164442777633667,-0.02695275843143463,36.7153546,3.1828043,39.88,-5.51,-8.31,-1.64,86,235,10.110129356384277,9.976174354553223
24,-0.48753586411476135,-2.163475513458252,0.015918800607323647,36.7152798,3.1826639,42.39,-5.5,-8.3,-1.63,86,236,10.093951225280762,9.9608793258667
25,-0.42658916115760803,-2.1659374237060547,-0.0022352065425366163,36.7151925,3.1825009,45.31,-5.54,-8.28,-1.63,85,235,10.102554321289062,9.969200134277344
26,-0.47899967432022095,-2.164200782775879,-0.02294895239174366,36.7151179,3.1823612,47.8,-5.52,-8.3,-1.64,85,236,10.108184814453125,9.973735809326172
27,-0.436454713344574,-2.1641745567321777,0.028631411492824554,36.7150306,3.182198,50.73,-5.52,-8.28,-1.65,84,236,10.094332695007324,9.958244323730469
28,-0.27472150325775146,-2.1677792072296143,-0.01908828876912594,36.714958,3.1820633,53.17,-4.96,-7.38,-1.48,84,235,9.0166015625,8.894207000732422
29,-0.10391920059919357,-2.166332721710205,0.017782261595129967,36.7149014,3.1819577,55.04,-3.36,-5.04,-0.88,84,235,6.124953269958496,6.061379909515381
30,-0.1328471601009369,-2.113349437713623,-0.0064744190312922,36.7148597,3.1818755,55.95,-2.19,-3.72,-0.21,83,238,4.331170082092285,4.325913429260254
31,-0.15694960951805115,-2.086548328399658,0.03300458937883377,36.7148319,3.1818138,56.05,-1.99,-3.66,0.0,83,240,4.171194076538086,4.171189785003662
32,-0.0454091876745224,-2.086697578430176,-0.012201116420328617,36.714801,3.1817437,56.04,-1.74,-3.22,0.0,82,240,3.663936138153076,3.6639270782470703
33,0.04508749768137932,-2.244333267211914,-0.03930024057626724,36.7147813,3.181703,55.47,-1.23,-1.62,0.9,82,231,2.234534502029419,2.041287422180176
34,-0.05186871066689491,-2.4828102588653564,0.020176077261567116,36.7147635,3.181682,53.0,-1.02,-0.8,1.46,82,217,1.9540565013885498,1.2978780269622803
35,-0.01896372064948082,-2.4728569984436035,-0.012632422149181366,36.7147495,3.1816689,50.77,-1.04,-0.81,1.42,81,218,1.95009446144104,1.3285236358642578
36,-0.05972372367978096,-2.4705591201782227,0.016391068696975708,36.7147353,3.181655,48.53,-1.05,-0.87,1.44,81,218,1.9937559366226196,1.371152400970459
37,-0.04756898805499077,-2.47000789642334,-0.022705188021063805,36.7147183,3.181638,45.91,-1.07,-0.88,1.44,81,218,2.0083160400390625,1.3916852474212646
38,-0.023212401196360588,-2.4701075553894043,0.025910619646310806,36.7147038,3.1816235,43.67,-1.06,-0.87,1.45,80,218,2.0024287700653076,1.3756552934646606
39,-0.06251072138547897,-2.4696924686431885,0.004684451501816511,36.7146868,3.1816064,41.05,-1.06,-0.89,1.46,80,218,2.025554895401001,1.3940026760101318
40,-0.010544157586991787,-2.4699652194976807,-0.003001979785040021,36.7146722,3.1815917,38.81,-1.07,-0.88,1.47,79,218,2.028867721557617,1.3942540884017944
41,-0.061617571860551834,-2.4701426029205322,0.0018278983188793063,36.7146576,3.181577,36.56,-1.06,-0.88,1.47,79,218,2.021509885787964,1.3855661153793335
42,-0.032900165766477585,-2.4701154232025146,-0.021701723337173462,36.7146406,3.1815599,33.94,-1.07,-0.88,1.48,79,218,2.0352907180786133,1.3959410190582275
43,-0.044351983815431595,-2.4694595336914062,0.02558326907455921,36.714626,3.1815451,31.69,-1.05,-0.88,1.48,78,218,2.022641658782959,1.3773478269577026
44,-0.06122347712516785,-2.469714403152466,-0.005175034515559673,36.714609,3.181528,29.06,-1.06,-0.88,1.47,78,218,2.023235559463501,1.3832579851150513
45,-0.009468231350183487,-2.469670295715332,0.011009042151272297,36.7145944,3.1815133,26.82,-1.06,-0.88,1.48,78,218,2.025987148284912,1.382207989692688
46,-0.05591815710067749,-2.4701857566833496,-0.010613461956381798,36.7145798,3.1814986,24.57,-1.06,-0.89,1.48,77,218,2.0343716144561768,1.3934847116470337
47,-0.017189262434840202,-2.469886541366577,-0.01827465184032917,36.7145628,3.1814814,21.94,-1.06,-0.87,1.47,77,218,2.0183005332946777,1.3812402486801147
48,-0.05142073705792427,-2.470076084136963,0.02443348616361618,36.7145482,3.1814667,19.69,-1.05,-0.88,1.47,77,218,2.0170323848724365,1.3791545629501343
49,-0.12556426227092743,-2.909956455230713,-0.11648188531398773,36.7145289,3.1814515,17.11,-1.65,-0.43,1.29,76,193,2.146939754486084,1.7109496593475342
50,-0.21035979688167572,2.6777665615081787,-0.015258973464369774,36.7144967,3.1814591,16.06,-3.18,1.41,0.06,76,153,3.48250412940979,3.4818217754364014
51,-0.19608254730701447,2.6799733638763428,-0.02653145045042038,36.7144461,3.1814895,16.14,-4.06,2.01,-0.04,75,153,4.537392616271973,4.537186145782471
52,-0.014934241771697998,2.857945680618286,0.13537192344665527,36.714383,3.1815253,16.11,-3.74,1.09,0.05,75,163,3.901266098022461,3.9008538722991943
53,-0.345108300447464,-2.373091220855713,0.20235763490200043,36.7143383,3.1815168,16.08,-2.93,-2.51,0.02,75,224,3.865964651107788,3.865860939025879
54,-0.46203556656837463,-2.14040470123291,-0.026559926569461823,36.7142859,3.181427,16.08,-3.98,-6.33,0.01,74,237,7.483619689941406,7.483602046966553
55,-0.5100168585777283,-2.148782968521118,0.01379131618887186,36.7142256,3.1813079,16.09,-4.83,-7.65,0.0,74,236,9.049946784973145,9.049944877624512
56,-0.37455102801322937,-2.1501412391662598,0.017824573442339897,36.7141589,3.1811779,16.1,-4.87,-7.56,0.0,73,236,8.998353004455566,8.9983491897583
57,-0.26877328753471375,-2.149440050125122,0.013919316232204437,36.7140882,3.1810414,16.11,-3.98,-6.21,0.02,73,236,7.386475086212158,7.386419773101807
58,-0.24918133020401,-2.126408576965332,0.028899382799863815,36.7140388,3.1809428,16.08,-3.45,-5.68,0.02,73,238,6.6528143882751465,6.6527838706970215
59,-0.3061505854129791,-2.109917402267456,0.01977779157459736,36.713986,3.1808316,16.08,-3.27,-5.63,0.0,72,239,6.520920276641846,6.5209174156188965
60,-0.18825171887874603,-2.1081881523132324,0.011172226630151272,36.7139416,3.1807366,16.08,-3.21,-5.51,0.0,72,239,6.382269382476807,6.38226842880249
61,0.016087472438812256,-2.1091513633728027,-0.006743652280420065,36.7139031,3.1806549,16.08,-2.25,-3.85,0.03,72,239,4.465647220611572,4.46552848815918
62,0.14070847630500793,-2.109022855758667,-0.02871735952794552,36.713883,3.1806118,16.06,-0.4,-0.7,-0.02,71,239,0.8155587911605835,0.8152223825454712
63,-0.012572519481182098,-2.109520435333252,0.026099367067217827,36.7138822,3.1806098,16.07,0.11,0.14,0.02,71,239,0.18999679386615753,0.18845491111278534
