timestamp,pitch,yaw,roll,lat,lon,alt,velocity_x,velocity_y,velocity_z,battery,heading,airspeed,groundspeed
0,0.02611098624765873,0.041155219078063965,0.011020716279745102,36.7156067,3.1846299,28.3,-0.02,0.02,0.09,96,2,0.1024576872587204,0.03702245280146599
1,-0.08621693402528763,0.03321630507707596,0.08829673379659653,36.7156077,3.1846322,28.17,0.31,0.53,-0.01,95,1,0.6175862550735474,0.6174829602241516
2,-0.22199471294879913,1.4485559463500977,-0.1082591712474823,36.7156224,3.1846602,28.16,1.61,2.51,-0.05,95,82,2.9920921325683594,2.991584300994873
3,-0.12093137204647064,0.9386622309684753,0.0016752703813835979,36.7156488,3.1847108,28.21,2.16,3.31,-0.05,94,53,3.96044921875,3.96000075340271
4,0.011242404580116272,0.9666920900344849,-0.005454166326671839,36.715678,3.1847653,28.25,1.88,2.83,-0.04,94,55,3.402789354324341,3.4025356769561768
5,0.32976260781288147,1.1527464389801025,0.03285105898976326,36.7156892,3.1847855,28.26,-0.9,-1.32,-0.01,94,66,1.610355019569397,1.6103086471557617
6,-0.05141844227910042,2.918505907058716,0.1938587874174118,36.715666,3.1847436,28.3,-2.23,-3.17,-0.02,93,167,3.8772387504577637,3.8771438598632812
7,-0.12119193375110626,-1.9366189241409302,-0.01226829644292593,36.7156357,3.1846879,28.29,-2.18,-3.29,0.0,93,249,3.9537370204925537,3.9537363052368164
8,-0.05707700923085213,-1.425247311592102,0.22958776354789734,36.7156169,3.1846255,28.28,0.39,-2.84,0.0,93,278,2.874406099319458,2.874404191970825
9,-0.42733439803123474,-0.6578691601753235,0.09532278776168823,36.7156483,3.1845767,28.28,4.15,-3.18,0.0,92,322,5.232273101806641,5.232271194458008
10,-0.4757036864757538,-0.6251912713050842,0.013018081896007061,36.7157235,3.1845103,28.28,6.75,-4.7,0.0,92,324,8.232160568237305,8.232157707214355
11,-0.517518162727356,-0.6221508979797363,0.010198639705777168,36.7158414,3.1844078,28.3,7.88,-5.53,0.0,91,324,9.63007926940918,9.630077362060547
12,-0.3229430317878723,-0.6241555213928223,-0.017231211066246033,36.7159643,3.1842994,28.33,7.34,-5.23,-0.02,91,324,9.01911449432373,9.019087791442871
13,-0.06017269566655159,-0.6301496028900146,-0.0328374020755291,36.7160507,3.1842226,28.34,5.06,-3.7,0.04,91,323,6.280430793762207,6.2802815437316895
14,0.02900097332894802,-1.213636875152588,-0.2931751012802124,36.7160947,3.1841693,28.47,1.06,-2.88,-0.26,90,290,3.0875139236450195,3.0761046409606934
15,-0.40994563698768616,-2.1370768547058105,-0.020380446687340736,36.7160745,3.1840992,29.6,-3.26,-4.72,-0.99,90,237,5.829841613769531,5.744895935058594
16,-0.4547104835510254,-2.159294366836548,-0.02320166304707527,36.7160171,3.1839984,31.52,-4.95,-7.13,-1.47,89,236,8.815008163452148,8.68991470336914
17,-0.48615798354148865,-2.1659343242645264,0.03315328434109688,36.7159317,3.183845,34.35,-5.54,-8.07,-1.6,89,235,9.922837257385254,9.792885780334473
18,-0.42805448174476624,-2.163271427154541,0.011935749091207981,36.7158564,3.1837066,36.81,-5.53,-8.2,-1.58,88,236,10.022090911865234,9.896594047546387
19,-0.4477027952671051,-2.163966178894043,-0.03489649295806885,36.7157813,3.1835672,39.27,-5.53,-8.24,-1.58,88,236,10.054518699645996,9.928571701049805
20,-0.4624430239200592,-2.165592670440674,0.037445150315761566,36.7156941,3.1834049,42.15,-5.52,-8.26,-1.61,87,235,10.068389892578125,9.938225746154785
21,-0.41996270418167114,-2.163390636444092,0.013516080565750599,36.7156192,3.1832649,44.65,-5.52,-8.28,-1.61,87,236,10.084129333496094,9.953640937805176
22,-0.48672470450401306,-2.1644885540008545,0.007068696431815624,36.715532,3.183102,47.56,-5.49,-8.24,-1.61,87,235,10.041475296020508,9.911133766174316
23,-0.49174365401268005,-2.1655824184417725,0.02416113018989563,36.7154698,3.182986,49.64,-5.5,-8.28,-1.62,86,235,10.075331687927246,9.943519592285156
24,-0.4308708906173706,-2.1630284786224365,-0.02298128977417946,36.7153829,3.1828228,52.55,-5.52,-8.3,-1.64,86,236,10.111562728881836,9.977537155151367
25,-0.48275089263916016,-2.1655592918395996,0.028938433155417442,36.7152954,3.1826596,55.47,-5.52,-8.29,-1.63,85,235,10.098002433776855,9.96438980102539
26,-0.4295414686203003,-2.1633784770965576,0.024875016883015633,36.7152206,3.1825199,57.98,-5.5,-8.28,-1.63,85,236,10.083327293395996,9.949196815490723
27,-0.49112147092819214,-2.1642417907714844,-0.007100146729499102,36.7151335,3.1823569,60.9,-5.52,-8.3,-1.63,84,236,10.109228134155273,9.97594928741455
28,-0.4519555866718292,-2.163630485534668,0.0305953249335289,36.7150589,3.1822168,63.4,-5.51,-8.26,-1.63,84,236,10.07097339630127,9.93666934967041
29,-0.2008054405450821,-2.167590856552124,-0.027625471353530884,36.7149776,3.1820662,66.13,-4.49,-6.68,-1.33,83,235,8.164288520812988,8.05395221710205
30,-0.08117611706256866,-2.1578309535980225,0.03671540692448616,36.7149283,3.1819739,67.66,-2.85,-4.37,-0.64,83,236,5.265016555786133,5.225740909576416
31,-0.12156196683645248,-2.1048662662506104,-0.007798498962074518,36.714896,3.1819084,68.22,-2.12,-3.7,-0.14,83,239,4.270079612731934,4.267531394958496
32,-0.14067012071609497,-2.0863635540008545,0.024783765897154808,36.7148642,3.1818368,68.26,-2.0,-3.69,-0.01,82,240,4.2101945877075195,4.210177421569824
33,-0.012989016249775887,-2.0893499851226807,-0.03137297183275223,36.7148385,3.1817788,68.24,-1.63,-2.98,0.08,82,240,3.4045112133026123,3.4035353660583496
34,0.03780509531497955,-2.373774528503418,-0.05154891312122345,36.7148173,3.181739,67.09,-1.18,-1.23,1.3,82,224,2.1554298400878906,1.7119359970092773
35,-0.05746142193675041,-2.4705638885498047,0.010448825545608997,36.7148026,3.1817238,64.82,-1.03,-0.79,1.43,81,218,1.9430317878723145,1.304558515548706
36,-0.010414469055831432,-2.470839500427246,-0.0034135174937546253,36.7147886,3.1817107,62.58,-1.04,-0.82,1.43,81,218,1.9558602571487427,1.332135558128357
37,-0.034841086715459824,-2.4697861671447754,0.02979872189462185,36.7147719,3.1816942,59.97,-1.06,-0.87,1.44,80,218,2.0015251636505127,1.3845393657684326
38,-0.03422488644719124,-2.469594955444336,-0.023027971386909485,36.7147574,3.1816796,57.72,-1.07,-0.89,1.44,80,218,2.0114266872406006,1.3974273204803467
39,-0.012186218053102493,-2.4689395427703857,0.010571581311523914,36.7147404,3.1816625,55.11,-1.07,-0.87,1.45,80,218,2.0152950286865234,1.3908358812332153
40,-0.061722125858068466,-2.4696977138519287,0.001528422231785953,36.7147258,3.1816479,52.87,-1.06,-0.89,1.46,79,218,2.0249550342559814,1.3962417840957642
41,-0.007426024880260229,-2.4694931507110596,0.007166766561567783,36.7147112,3.1816331,50.62,-1.07,-0.88,1.46,79,218,2.021632432937622,1.3884575366973877
42,-0.04095005244016647,-2.470097780227661,0.027967754751443863,36.7146942,3.181616,48.0,-1.07,-0.88,1.47,79,218,2.024721622467041,1.3885078430175781
43,-0.018362993374466896,-2.4693284034729004,-0.02318614535033703,36.7146796,3.1816012,45.75,-1.07,-0.88,1.47,78,218,2.027338981628418,1.3898733854293823
44,-0.009120064787566662,-2.4693076610565186,0.011304441839456558,36.7146625,3.1815841,43.12,-1.06,-0.87,1.47,78,218,2.0194947719573975,1.3796230554580688
45,-0.05791715160012245,-2.469348192214966,-0.016129564493894577,36.714648,3.1815694,40.88,-1.06,-0.88,1.47,78,218,2.0203495025634766,1.3822230100631714
46,-0.015756070613861084,-2.469637870788574,0.01753174513578415,36.7146335,3.1815547,38.63,-1.07,-0.87,1.48,77,218,2.0274808406829834,1.3842655420303345
47,-0.04977347329258919,-2.4695732593536377,0.01847473531961441,36.7146164,3.1815375,36.0,-1.05,-0.88,1.47,77,218,2.0175466537475586,1.3771603107452393
48,-0.01518290862441063,-2.46966814994812,-0.019182514399290085,36.7146018,3.1815227,33.75,-1.06,-0.88,1.47,76,218,2.0196306705474854,1.3833203315734863
49,-0.05418604984879494,-2.4696714878082275,0.019635120406746864,36.7145872,3.181508,31.5,-1.05,-0.87,1.47,76,218,2.0149502754211426,1.3732320070266724
50,-0.1512453407049179,-3.0929620265960693,-0.132682204246521,36.7145663,3.1814944,29.0,-1.87,-0.17,1.12,76,182,2.193634510040283,1.883251667022705
51,-0.21067580580711365,2.6745035648345947,-0.004046883434057236,36.7145303,3.1815076,28.27,-3.43,1.64,-0.02,75,153,3.80623722076416,3.8061277866363525
52,-0.19434624910354614,2.6796271800994873,0.0036788471043109894,36.7144686,3.1815453,28.37,-4.08,2.03,0.02,75,153,4.562395095825195,4.5623087882995605
53,-0.004391332622617483,2.9764161109924316,0.17123490571975708,36.7144155,3.181572,28.32,-3.59,0.63,0.05,75,170,3.6456172466278076,3.6452627182006836
54,-0.3881036341190338,-2.1967926025390625,0.1352299153804779,36.7143657,3.1815425,28.3,-3.02,-3.86,0.01,74,234,4.908583164215088,4.9085540771484375
55,-0.47507530450820923,-2.1474204063415527,-0.01839042641222477,36.7143176,3.1814517,28.3,-4.21,-6.69,0.01,74,236,7.908646583557129,7.908634662628174
56,-0.4529181122779846,-2.1492013931274414,0.02724076621234417,36.7142441,3.1813064,28.31,-4.91,-7.71,0.0,73,236,9.145427703857422,9.145423889160156
57,-0.30491209030151367,-2.153259515762329,-0.01479288563132286,36.7141778,3.1811783,28.33,-4.67,-7.17,0.0,73,236,8.560439109802246,8.56043529510498
58,-0.2629351019859314,-2.1453468799591064,0.012634173035621643,36.7141201,3.1810668,28.32,-3.79,-5.99,0.02,73,237,7.096549987792969,7.0964884757995605
59,-0.25516143441200256,-2.1126761436462402,-0.010183623060584068,36.714065,3.1809539,28.3,-3.32,-5.67,0.01,72,238,6.577243328094482,6.577233791351318
60,-0.30785897374153137,-2.099982976913452,0.020060239359736443,36.7140209,3.1808585,28.3,-3.22,-5.65,0.01,72,239,6.508871078491211,6.5088629722595215
61,-0.15152142941951752,-2.1002509593963623,-0.0008895726059563458,36.7139775,3.1807639,28.31,-3.06,-5.35,0.0,71,239,6.174635887145996,6.174635887145996
62,0.13771289587020874,-2.1011855602264404,0.030242007225751877,36.7139385,3.1806791,28.28,-1.61,-2.82,0.03,71,239,3.2528364658355713,3.252659320831299
63,0.1179698258638382,-2.1007156372070312,-0.026587868109345436,36.7139271,3.180654,28.29,-0.22,-0.39,-0.02,71,239,0.4538332521915436,0.4533355236053467
64,0.023054584860801697,-2.0992400646209717,0.07089385390281677,36.7139278,3.1806546,28.26,0.21,0.06,0.04,70,239,0.23260624706745148,0.22898773849010468
