timestamp,pitch,yaw,roll,lat,lon,alt,velocity_x,velocity_y,velocity_z,battery,heading,airspeed,groundspeed
0,0.028338223695755005,-0.041951172053813934,0.01069450844079256,36.7156066,3.1846299,19.13,-0.02,0.02,0.05,96,357,0.06290578842163086,0.03768886253237724
1,-0.043721944093704224,-0.03630070760846138,0.12025103718042374,36.7156069,3.184633,19.11,0.08,0.69,0.0,95,357,0.702931821346283,0.702931821346283
2,-0.18698017299175262,1.7274305820465088,-0.09581787884235382,36.7156107,3.1846614,19.07,0.51,2.88,-0.02,95,98,2.933830738067627,2.9337120056152344
3,-0.12553468346595764,1.2271702289581299,0.030655084177851677,36.7156216,3.1847333,19.13,0.73,4.09,-0.04,95,70,4.161441802978516,4.161228656768799
4,0.020131299272179604,1.3742096424102783,0.020473642274737358,36.7156315,3.1847998,19.16,0.56,3.4,-0.02,94,78,3.4493296146392822,3.449268341064453
5,-0.02810347080230713,2.7261199951171875,0.31609639525413513,36.7156281,3.1848253,19.16,-1.35,-1.36,0.0,94,156,1.9240056276321411,1.9239948987960815
6,-0.1716737151145935,-2.0581276416778564,0.004548209253698587,36.7156019,3.1847805,19.2,-2.27,-3.36,-0.02,93,242,4.063595294952393,4.0635199546813965
7,-0.09207888692617416,-2.1400442123413086,0.09324413537979126,36.7155667,3.1847137,19.19,-1.89,-3.35,0.01,93,237,3.850580930709839,3.850553035736084
8,-0.1070360615849495,-1.2742961645126343,0.24790985882282257,36.7155569,3.1846604,19.17,0.87,-2.83,0.0,93,286,2.968904972076416,2.9688916206359863
9,-0.46218857169151306,-0.6600119471549988,0.08373576402664185,36.7155948,3.1846101,19.17,4.62,-3.36,0.0,92,322,5.724851608276367,5.724852085113525
10,-0.4883663058280945,-0.6272060871124268,0.027241846546530724,36.7156751,3.1845403,19.17,7.04,-4.86,-0.01,92,324,8.559728622436523,8.559720039367676
11,-0.5178804993629456,-0.623471736907959,-0.0007580559467896819,36.7157954,3.1844356,19.19,7.89,-5.57,0.0,91,324,9.661102294921875,9.661101341247559
12,-0.35032540559768677,-0.6233078837394714,0.037218183279037476,36.7159009,3.1843424,19.22,7.37,-5.25,-0.02,91,324,9.055376052856445,9.055339813232422
13,-0.02244650386273861,-0.6444090604782104,-0.07349082082509995,36.7159992,3.1842549,19.23,4.61,-3.49,0.03,91,323,5.792108058929443,5.791996479034424
14,-0.04826311767101288,-1.423693060874939,-0.28640204668045044,36.7160355,3.1842032,19.43,0.43,-2.95,-0.34,90,278,3.010791063308716,2.9908242225646973
15,-0.45236536860466003,-2.153568744659424,-0.0022883648052811623,36.716007,3.1841282,20.71,-3.61,-5.07,-1.08,90,236,6.325810432434082,6.232524871826172
16,-0.44728222489356995,-2.1637966632843018,0.008152864873409271,36.7159461,3.1840215,22.73,-5.11,-7.35,-1.52,89,236,9.085409164428711,8.95643424987793
17,-0.49089792370796204,-2.1646554470062256,-0.010709617286920547,36.7158603,3.1838663,25.59,-5.53,-8.07,-1.59,89,235,9.919472694396973,9.790997505187988
18,-0.44763675332069397,-2.164444923400879,0.03811027854681015,36.7157849,3.1837276,28.04,-5.54,-8.22,-1.59,88,235,10.05160140991211,9.924927711486816
19,-0.42399510741233826,-2.161738157272339,-0.010245002806186676,36.7157098,3.1835877,30.51,-5.53,-8.24,-1.6,88,236,10.053062438964844,9.924858093261719
20,-0.48945382237434387,-2.1680760383605957,0.02417820878326893,36.7156226,3.1834258,33.41,-5.52,-8.24,-1.6,87,235,10.057023048400879,9.92859172821045
21,-0.43956950306892395,-2.163783073425293,0.04390867426991463,36.7155478,3.1832862,35.89,-5.5,-8.29,-1.62,87,236,10.086692810058594,9.955604553222656
22,-0.47838008403778076,-2.162588119506836,-0.022444771602749825,36.7154608,3.1831231,38.8,-5.51,-8.27,-1.62,87,236,10.072399139404297,9.940985679626465
23,-0.4869808256626129,-2.1649739742279053,-0.017280934378504753,36.7153985,3.183007,40.89,-5.52,-8.29,-1.62,86,235,10.097146034240723,9.966292381286621
24,-0.4240019619464874,-2.161966323852539,0.01626262255012989,36.7153112,3.1828436,43.8,-5.5,-8.31,-1.63,86,236,10.103715896606445,9.970452308654785
25,-0.4890846312046051,-2.1655795574188232,-0.004575847648084164,36.7152239,3.1826805,46.71,-5.52,-8.25,-1.63,85,235,10.065142631530762,9.931116104125977
26,-0.4743378758430481,-2.1643524169921875,0.035121556371450424,36.7151495,3.1825412,49.22,-5.51,-8.31,-1.63,85,236,10.110733985900879,9.977452278137207
27,-0.449275940656662,-2.164970636367798,-0.03134997934103012,36.7150622,3.1823775,52.14,-5.54,-8.3,-1.63,84,235,10.118324279785156,9.985003471374512
28,-0.4486721158027649,-2.165426731109619,-0.00047581183025613427,36.7149872,3.1822379,54.64,-5.47,-8.18,-1.63,84,235,9.979056358337402,9.844340324401855
29,-0.19241715967655182,-2.167562961578369,0.029257263988256454,36.7149181,3.1821098,56.97,-4.52,-6.73,-1.35,84,235,8.221501350402832,8.109143257141113
30,-0.08897636830806732,-2.152132511138916,0.008029568940401077,36.7148624,3.1820046,58.68,-2.67,-4.18,-0.54,83,236,4.999837875366211,4.96958589553833
31,-0.11330011487007141,-2.099515438079834,0.024799689650535583,36.7148313,3.1819405,59.13,-2.1,-3.69,-0.1,83,239,4.253627300262451,4.2522807121276855
32,-0.16323235630989075,-2.0872271060943604,0.027689015492796898,36.7147995,3.1818686,59.15,-1.99,-3.69,-0.01,82,240,4.199507236480713,4.199470043182373
33,0.039632704108953476,-2.0966110229492188,-0.037019889801740646,36.7147747,3.1818126,59.1,-1.55,-2.75,0.16,82,239,3.1680197715759277,3.1636717319488525
34,-0.00809461809694767,-2.3633317947387695,-0.033967290073633194,36.7147568,3.1817803,58.03,-1.17,-1.25,1.29,82,224,2.151237964630127,1.7201521396636963
35,-0.04839705303311348,-2.4639432430267334,-0.019480139017105103,36.7147398,3.1817628,55.39,-1.03,-0.8,1.43,81,218,1.940971851348877,1.3088551759719849
36,-0.024833502247929573,-2.469109058380127,0.026949815452098846,36.7147258,3.1817495,53.15,-1.04,-0.83,1.42,81,218,1.9564567804336548,1.3373180627822876
37,-0.06335927546024323,-2.4696054458618164,0.009352382272481918,36.714709,3.1817329,50.54,-1.06,-0.88,1.44,81,218,1.998789668083191,1.3857377767562866
38,-0.006256192456930876,-2.4695396423339844,-0.0014912037877365947,36.7146944,3.1817183,48.3,-1.07,-0.87,1.45,80,218,2.0079288482666016,1.383824348449707
39,-0.059147994965314865,-2.4695847034454346,0.005324069410562515,36.7146799,3.1817037,46.05,-1.06,-0.88,1.45,80,218,2.0113017559051514,1.388745903968811
40,-0.03506960719823837,-2.4696080684661865,-0.022467797622084618,36.7146629,3.1816866,43.44,-1.07,-0.88,1.46,79,218,2.0198371410369873,1.3926293849945068
41,-0.04033685848116875,-2.469862222671509,0.029058242216706276,36.7146483,3.1816719,41.2,-1.05,-0.88,1.47,79,218,2.019727945327759,1.3806101083755493
42,-0.06129630655050278,-2.469815492630005,-0.0036690852139145136,36.7146313,3.1816547,38.57,-1.07,-0.88,1.47,79,218,2.027522325515747,1.390834093093872
43,-0.012672841548919678,-2.468813419342041,0.020073657855391502,36.7146167,3.18164,36.32,-1.07,-0.88,1.47,78,218,2.0227317810058594,1.386852741241455
44,-0.04666517674922943,-2.469768762588501,0.026429984718561172,36.7145997,3.1816228,33.7,-1.05,-0.88,1.47,78,218,2.0212512016296387,1.3784339427947998
45,-0.013071181252598763,-2.469503164291382,-0.017230909317731857,36.7145851,3.1816081,31.45,-1.06,-0.87,1.47,78,218,2.021050453186035,1.3798036575317383
46,-0.051527753472328186,-2.4702112674713135,0.021504955366253853,36.7145705,3.1815934,29.19,-1.06,-0.88,1.47,77,218,2.020303964614868,1.38509202003479
47,-0.05306306481361389,-2.469310760498047,-0.018837494775652885,36.7145535,3.1815762,26.58,-1.06,-0.88,1.47,77,218,2.0295588970184326,1.3890551328659058
48,-0.018257904797792435,-2.4694111347198486,0.02415199764072895,36.7145389,3.1815615,24.32,-1.06,-0.87,1.47,77,218,2.020291805267334,1.3762569427490234
49,-0.04457399249076843,-2.4695215225219727,-0.027587229385972023,36.7145243,3.1815468,22.07,-1.06,-0.88,1.47,76,218,2.0209884643554688,1.386812448501587
50,-0.1317509412765503,3.048055648803711,-0.12373458594083786,36.7145017,3.181535,19.66,-2.05,0.08,0.94,76,174,2.2619452476501465,2.056798219680786
51,-0.24958060681819916,2.676896810531616,-0.004008750896900892,36.7144628,3.1815524,19.18,-3.6,1.75,-0.05,75,153,4.005380153656006,4.004957675933838
52,-0.13929598033428192,2.6799893379211426,-0.015859274193644524,36.7144,3.181591,19.26,-4.05,2.02,0.04,75,153,4.530995845794678,4.530733108520508
53,-0.029971221461892128,3.0906121730804443,0.2504706084728241,36.7143479,3.181614,19.21,-3.45,0.18,0.04,75,177,3.4573826789855957,3.457059860229492
54,-0.38214796781539917,-2.2004494667053223,0.08577156811952591,36.714306,3.1815851,19.19,-3.0,-3.76,0.01,74,233,4.817925453186035,4.817885875701904
55,-0.47053733468055725,-2.153285026550293,0.03715831786394119,36.7142488,3.1814763,19.19,-4.34,-6.92,0.0,74,236,8.172682762145996,8.172679901123047
56,-0.4318893849849701,-2.150026321411133,-0.01901482418179512,36.7141852,3.1813511,19.2,-4.93,-7.73,0.0,73,236,9.173165321350098,9.173166275024414
57,-0.316866934299469,-2.15291690826416,0.032219093292951584,36.7141083,3.1812025,19.23,-4.55,-7.03,0.0,73,236,8.376185417175293,8.376185417175293
58,-0.21806098520755768,-2.143890380859375,-0.0056661581620574,36.7140523,3.1810936,19.21,-3.71,-5.87,0.03,73,237,6.955906391143799,6.955817222595215
59,-0.2693937122821808,-2.116232395172119,0.03787947818636894,36.7139973,3.1809812,19.19,-3.34,-5.65,0.0,72,238,6.572828769683838,6.572822570800781
60,-0.27256637811660767,-2.107897996902466,-0.018859142437577248,36.7139526,3.1808861,19.19,-3.3,-5.64,0.01,72,239,6.542520046234131,6.542510986328125
61,-0.16957542300224304,-2.1091513633728027,0.023297306150197983,36.7139086,3.1807924,19.2,-3.02,-5.19,0.0,71,239,6.010038375854492,6.010038375854492
62,0.14464865624904633,-2.1089820861816406,-0.02510085701942444,36.7138718,3.1807137,19.17,-1.39,-2.38,0.02,71,239,2.763571262359619,2.7634716033935547
63,0.1089840978384018,-2.109245777130127,0.024027779698371887,36.7138627,3.180694,19.18,-0.09,-0.19,-0.01,71,239,0.21917814016342163,0.21851427853107452
64,-0.006149050779640675,-2.1088833808898926,0.030435806140303612,36.7138637,3.1806955,19.16,0.19,0.06,0.04,70,239,0.2153981626033783,0.21125292778015137
