timestamp,pitch,yaw,roll,lat,lon,alt,velocity_x,velocity_y,velocity_z,battery,heading,airspeed,groundspeed
0,-0.016142869368195534,0.028929488733410835,-0.018504420295357704,36.7156067,3.18463,17.42,-0.02,0.01,-0.03,96,1,0.04361565411090851,0.031538404524326324
1,-0.08724287152290344,0.04864883795380592,0.09033165872097015,36.7156088,3.184632,17.48,0.57,0.45,0.0,95,2,0.7310002446174622,0.7309816479682922
2,-0.2849881052970886,0.7512807250022888,-0.03351913392543793,36.7156289,3.1846503,17.43,2.55,1.84,-0.01,95,43,3.1522727012634277,3.1522512435913086
3,-0.18411394953727722,0.6183352470397949,-0.02910519950091839,36.7156815,3.1846973,17.47,3.8,2.64,-0.02,95,35,4.62923526763916,4.629146099090576
4,-0.0646216943860054,0.6121452450752258,0.020664876326918602,36.7157325,3.1847415,17.48,3.51,2.44,-0.01,94,35,4.280287265777588,4.280263900756836
5,0.18563474714756012,-0.13976624608039856,-0.28846248984336853,36.7157668,3.1847647,17.47,0.16,-0.68,0.01,94,352,0.7062969207763672,0.7061302065849304
6,-0.15806877613067627,-1.7623624801635742,-0.09228641539812088,36.7157501,3.1847282,17.5,-2.25,-3.15,-0.03,93,259,3.8778645992279053,3.8777015209198
7,-0.15158653259277344,-2.182443380355835,0.020321426913142204,36.7157184,3.1846714,17.51,-2.33,-3.36,0.01,93,234,4.094640254974365,4.094620227813721
8,-0.048558153212070465,-1.639918327331543,0.20525535941123962,36.7156936,3.1846077,17.49,-0.18,-2.97,0.01,93,266,2.978983163833618,2.9789581298828125
9,-0.3677353858947754,-0.6562663912773132,0.11174327880144119,36.7157171,3.1845592,17.48,3.69,-3.05,0.0,92,322,4.797806262969971,4.7978057861328125
10,-0.5417135953903198,-0.6290340423583984,0.013412718661129475,36.7158022,3.1844831,17.49,6.82,-4.74,0.0,92,323,8.307584762573242,8.307584762573242
11,-0.4885754883289337,-0.6211545467376709,0.03300715237855911,36.7159031,3.1843955,17.5,7.87,-5.49,0.0,91,324,9.603028297424316,9.603026390075684
12,-0.3923013508319855,-0.6229588985443115,-0.023641427978873253,36.716027,3.1842865,17.53,7.52,-5.35,-0.01,91,324,9.240484237670898,9.240467071533203
13,-0.07856171578168869,-0.6259059906005859,0.014373828656971455,36.7161174,3.1842062,17.55,5.51,-3.96,0.04,91,324,6.794081211090088,6.793961524963379
14,0.05914591625332832,-1.038741111755371,-0.27237293124198914,36.7161688,3.1841506,17.62,1.71,-2.89,-0.19,90,300,3.372612953186035,3.36688494682312
15,-0.3576468229293823,-2.1312811374664307,-0.06614022701978683,36.7161573,3.1840843,18.59,-2.89,-4.38,-0.9,90,237,5.333334445953369,5.255199432373047
16,-0.491993248462677,-2.162222146987915,-0.025087254121899605,36.7161028,3.1839886,20.41,-4.82,-6.87,-1.43,89,236,8.516212463378906,8.394644737243652
17,-0.44673481583595276,-2.163346529006958,0.03678266331553459,36.7160188,3.1838384,23.21,-5.54,-8.03,-1.61,89,236,9.900264739990234,9.768174171447754
18,-0.4354875087738037,-2.1648459434509277,-0.021267123520374298,36.7159436,3.1837006,25.67,-5.54,-8.22,-1.57,88,235,10.045291900634766,9.920319557189941
19,-0.4894227385520935,-2.163433074951172,-0.017570964992046356,36.7158686,3.1835612,28.13,-5.53,-8.25,-1.58,88,236,10.060664176940918,9.934767723083496
20,-0.4268871247768402,-2.1647515296936035,0.023532971739768982,36.7157809,3.183398,31.02,-5.53,-8.25,-1.61,88,235,10.070722579956055,9.941093444824219
21,-0.42967870831489563,-2.1635758876800537,-0.03429395332932472,36.7157063,3.1832587,33.5,-5.5,-8.25,-1.61,87,236,10.050718307495117,9.92038345336914
22,-0.4718320071697235,-2.1637134552001953,0.03144056722521782,36.7156192,3.1830961,36.41,-5.52,-8.3,-1.62,87,236,10.107911109924316,9.97607421875
23,-0.42680037021636963,-2.1642682552337646,0.007392756175249815,36.7155444,3.1829564,38.92,-5.51,-8.28,-1.62,86,236,10.090123176574707,9.958664894104004
24,-0.4668436646461487,-2.166910409927368,-0.027488820254802704,36.7154697,3.1828166,41.42,-5.51,-8.27,-1.61,86,235,10.0792818069458,9.948307991027832
25,-0.45101115107536316,-2.163749933242798,0.037842851132154465,36.7153825,3.1826532,44.33,-5.5,-8.3,-1.64,85,236,10.097002029418945,9.962684631347656
26,-0.4241117537021637,-2.163374423980713,-0.012808380648493767,36.7153077,3.1825134,46.83,-5.53,-8.28,-1.64,85,236,10.099223136901855,9.964786529541016
27,-0.4896646738052368,-2.1654844284057617,0.027397800236940384,36.7152205,3.1823507,49.76,-5.51,-8.3,-1.63,84,235,10.102492332458496,9.9699068069458
28,-0.4413261413574219,-2.163410186767578,0.031545910984277725,36.715146,3.1822108,52.26,-5.51,-8.28,-1.63,84,236,10.088767051696777,9.955697059631348
29,-0.26074349880218506,-2.1685004234313965,-0.020932886749505997,36.7150736,3.1820763,54.68,-4.92,-7.3,-1.47,84,235,8.929977416992188,8.806976318359375
30,-0.060309261083602905,-2.1617071628570557,0.0376182496547699,36.7150106,3.1819589,56.72,-3.03,-4.61,-0.73,83,236,5.5699286460876465,5.521766185760498
31,-0.1462886929512024,-2.111724376678467,-0.008071096614003181,36.7149769,3.1818916,57.38,-2.17,-3.72,-0.19,83,239,4.32126522064209,4.3169755935668945
32,-0.12774203717708588,-2.0855343341827393,0.008693791925907135,36.7149447,3.1818198,57.46,-1.99,-3.67,0.0,82,240,4.183975696563721,4.183969497680664
33,-0.04195592179894447,-2.087092161178589,-0.010916654020547867,36.7149184,3.1817601,57.46,-1.71,-3.16,0.02,82,240,3.6035945415496826,3.603508710861206
34,0.03600315377116203,-2.2631547451019287,-0.034504011273384094,36.714899,3.1817206,56.83,-1.23,-1.58,0.96,82,230,2.225876569747925,2.005725145339966
35,-0.04559338092803955,-2.4865808486938477,0.024221446365118027,36.7148811,3.1817001,54.33,-1.05,-0.8,1.46,81,217,1.9736028909683228,1.3251844644546509
36,-0.023387137800455093,-2.4786345958709717,-0.01952224038541317,36.7148669,3.1816869,52.09,-1.06,-0.82,1.43,81,217,1.962755799293518,1.344382405281067
37,-0.01750843971967697,-2.4762020111083984,0.023744480684399605,36.71485,3.1816706,49.47,-1.07,-0.86,1.43,81,218,1.9910715818405151,1.3807933330535889
38,-0.04982279613614082,-2.476065158843994,-0.02066604234278202,36.7148353,3.181656,47.23,-1.07,-0.88,1.44,80,218,2.011234760284424,1.3954148292541504
39,-0.018333800137043,-2.4756739139556885,0.022384265437722206,36.7148206,3.1816414,44.99,-1.09,-0.88,1.45,80,218,2.0226593017578125,1.4030272960662842
40,-0.05769038945436478,-2.476301670074463,0.01667110249400139,36.7148034,3.1816243,42.37,-1.08,-0.89,1.45,79,218,2.0246453285217285,1.4044194221496582
41,-0.01027036365121603,-2.4761736392974854,-0.006861817557364702,36.7147886,3.1816097,40.13,-1.08,-0.88,1.46,79,218,2.0271382331848145,1.399990200996399
42,-0.027112554758787155,-2.475966453552246,0.02982073277235031,36.7147714,3.1815925,37.51,-1.08,-0.88,1.47,79,218,2.033339738845825,1.395873785018921
43,-0.03193623200058937,-2.4755895137786865,-0.02605523355305195,36.7147566,3.1815779,35.26,-1.08,-0.88,1.47,78,218,2.0364184379577637,1.4027687311172485
44,-0.009310342371463776,-2.4758236408233643,-0.0016947928816080093,36.7147394,3.1815606,32.64,-1.08,-0.87,1.47,78,218,2.03456449508667,1.3997255563735962
45,-0.06556633114814758,-2.475855827331543,-0.0014834256144240499,36.7147246,3.1815459,30.39,-1.08,-0.88,1.48,78,218,2.038191080093384,1.3991862535476685
46,-0.011013934388756752,-2.476158380508423,0.007455271668732166,36.7147098,3.1815312,28.14,-1.08,-0.87,1.48,77,218,2.0300092697143555,1.388375997543335
47,-0.03746087849140167,-2.475865125656128,0.025089770555496216,36.7146926,3.181514,25.52,-1.07,-0.87,1.47,77,218,2.0247976779937744,1.3847811222076416
48,-0.026393672451376915,-2.4761290550231934,-0.022923216223716736,36.7146779,3.1814994,23.26,-1.08,-0.88,1.47,77,218,2.0415611267089844,1.406282901763916
49,-0.012121557258069515,-2.4758284091949463,0.013400819152593613,36.7146607,3.1814822,20.63,-1.07,-0.87,1.47,76,218,2.026888370513916,1.3896121978759766
50,-0.13038226962089539,-2.9569034576416016,-0.11727587133646011,36.7146432,3.1814696,18.44,-1.69,-0.37,1.25,76,190,2.144644260406494,1.7411880493164062
51,-0.2054608315229416,2.669248104095459,-0.014189139008522034,36.7146102,3.1814789,17.48,-3.22,1.5,0.04,75,152,3.562607765197754,3.5623555183410645
52,-0.18815836310386658,2.6720638275146484,0.015175916254520416,36.7145505,3.1815158,17.57,-4.01,2.04,0.0,75,153,4.5082478523254395,4.5082478523254395
53,-0.012092292308807373,2.8927624225616455,0.1369195431470871,36.7144975,3.181545,17.52,-3.64,0.94,0.05,75,165,3.7630257606506348,3.7625954151153564
54,-0.35790154337882996,-2.212857484817505,0.14941242337226868,36.7144472,3.1815238,17.5,-2.95,-3.44,0.01,74,233,4.539036750793457,4.539007186889648
55,-0.4785446226596832,-2.141016960144043,-0.026034871116280556,36.7144006,3.1814379,17.5,-4.07,-6.45,0.01,74,237,7.633823394775391,7.633810520172119
56,-0.5045334696769714,-2.147191047668457,0.009719728492200375,36.7143394,3.1813171,17.51,-4.87,-7.67,0.0,73,236,9.086748123168945,9.086748123168945
57,-0.33071964979171753,-2.152740001678467,-0.025862546637654305,36.714262,3.1811668,17.53,-4.76,-7.32,0.0,73,236,8.74210262298584,8.74209976196289
58,-0.2683556377887726,-2.148146390914917,0.018036391586065292,36.7142028,3.1810529,17.53,-3.91,-6.13,0.02,73,236,7.278970718383789,7.278909206390381
59,-0.2597610056400299,-2.122032880783081,-0.013409115374088287,36.7141461,3.1809386,17.5,-3.38,-5.65,0.01,72,238,6.588615894317627,6.588598251342773
60,-0.30251622200012207,-2.108856678009033,0.020467331632971764,36.7141014,3.1808438,17.5,-3.27,-5.64,0.0,72,239,6.520776748657227,6.520772933959961
61,-0.18110284209251404,-2.108700752258301,-0.0059222010895609856,36.7140571,3.1807492,17.5,-3.2,-5.48,0.0,71,239,6.352937698364258,6.352937698364258
62,0.12313373386859894,-2.1096503734588623,0.03079037554562092,36.714015,3.1806594,17.49,-1.85,-3.18,0.04,71,239,3.68766188621521,3.6874446868896484
63,0.1283668875694275,-2.1092140674591064,-0.026537766680121422,36.714001,3.1806295,17.48,-0.33,-0.57,-0.02,71,239,0.6684324145317078,0.6680176854133606
64,0.02571525052189827,-2.108120918273926,0.051776986569166183,36.714001,3.180629,17.47,0.15,0.11,0.04,70,239,0.19954584538936615,0.19495521485805511
