timestamp,pitch,yaw,roll,lat,lon,alt,velocity_x,velocity_y,velocity_z,battery,heading,airspeed,groundspeed
0,-0.025247158482670784,-0.05399756878614426,-0.004723574034869671,36.7156066,3.1846299,27.03,-0.02,0.03,0.1,96,356,0.11730438470840454,0.04465847834944725
1,-0.05316784232854843,-0.04340488091111183,0.10008111596107483,36.7156082,3.1846323,26.94,0.43,0.54,0.0,95,357,0.699179470539093,0.6991782784461975
2,-0.2850188612937927,1.2764558792114258,-0.09670216590166092,36.7156238,3.1846547,26.9,2.07,2.34,-0.03,95,73,3.1328206062316895,3.1326029300689697
3,-0.2806110680103302,0.8602263927459717,-0.020313644781708717,36.7156699,3.1847191,26.96,3.47,3.89,-0.07,95,49,5.219466686248779,5.218901634216309
4,-0.14978009462356567,0.8303364515304565,0.02677936665713787,36.7157188,3.1847862,27.02,3.57,3.95,-0.05,94,47,5.334502696990967,5.334216117858887
5,0.2355434149503708,0.7979498505592346,-0.0028774843085557222,36.7157654,3.1848489,27.07,1.69,1.75,0.0,94,45,2.43778920173645,2.4377832412719727
6,0.08519896864891052,-0.4640890061855316,-0.31215226650238037,36.7157671,3.1848445,27.07,-1.44,-2.16,-0.03,93,333,2.6042251586914062,2.6040172576904297
7,-0.16052809357643127,-1.9994298219680786,0.0003592810535337776,36.7157398,3.1847953,27.12,-2.32,-3.22,0.0,93,245,3.975473165512085,3.9754726886749268
8,-0.08291036635637283,-2.0183613300323486,0.07167372852563858,36.715706,3.184731,27.1,-1.75,-3.18,0.01,93,244,3.636375665664673,3.6363375186920166
9,-0.15923796594142914,-1.1474616527557373,0.2564008831977844,36.7156991,3.1846805,27.08,1.14,-2.72,0.0,92,294,2.9604907035827637,2.9604740142822266
10,-0.49614670872688293,-0.6260771751403809,0.04282312095165253,36.715751,3.1846205,27.08,5.26,-3.69,0.01,92,324,6.430657863616943,6.430647850036621
11,-0.4837365448474884,-0.6242411732673645,0.01826556958258152,36.7158374,3.1845451,27.09,7.31,-5.07,0.0,91,324,8.897716522216797,8.897713661193848
12,-0.48933228850364685,-0.6204349994659424,-0.03091319650411606,36.7159418,3.1844542,27.11,7.87,-5.55,0.0,91,324,9.64012622833252,9.640125274658203
13,-0.29505592584609985,-0.6235964298248291,0.02676912024617195,36.7160626,3.1843473,27.14,7.05,-5.03,-0.01,91,324,8.66478443145752,8.664775848388672
14,0.008611294440925121,-0.6540599465370178,-0.10042321681976318,36.716143,3.1842755,27.14,4.45,-3.41,0.03,90,322,5.616917133331299,5.6168107986450195
15,-0.1984955221414566,-1.755699634552002,-0.24388180673122406,36.7161763,3.184216,27.48,-0.5,-3.14,-0.47,90,259,3.216926097869873,3.1823983192443848
16,-0.4654320180416107,-2.1599535942077637,-0.025534437969326973,36.7161453,3.1841473,28.71,-3.71,-5.2,-1.1,89,236,6.488542079925537,6.393903732299805
17,-0.4942852854728699,-2.1621851921081543,0.03792954981327057,36.7160839,3.184039,30.77,-5.17,-7.43,-1.52,89,236,9.184288024902344,9.056635856628418
18,-0.4614012837409973,-2.164405584335327,-0.03075714223086834,36.7159975,3.183883,33.62,-5.56,-8.1,-1.58,88,235,9.957175254821777,9.830218315124512
19,-0.49588191509246826,-2.1643905639648438,0.004589209798723459,36.715922,3.1837446,36.07,-5.54,-8.21,-1.58,88,235,10.038185119628906,9.91243839263916
20,-0.4207562506198883,-2.1632580757141113,0.0016202961560338736,36.7158343,3.1835815,38.95,-5.51,-8.24,-1.6,87,236,10.046086311340332,9.917559623718262
21,-0.4604567885398865,-2.162799835205078,-0.03265497460961342,36.7157597,3.1834422,41.44,-5.51,-8.25,-1.6,87,236,10.050636291503906,9.922136306762695
22,-0.48874664306640625,-2.1650376319885254,0.027184389531612396,36.7156852,3.183303,43.92,-5.52,-8.28,-1.61,87,235,10.084940910339355,9.954581260681152
23,-0.43016043305397034,-2.1649246215820312,-0.010681833140552044,36.7155978,3.18314,46.84,-5.52,-8.29,-1.62,86,235,10.098217964172363,9.966702461242676
24,-0.4780692160129547,-2.1628096103668213,-0.026569433510303497,36.715523,3.183,49.34,-5.49,-8.28,-1.62,86,236,10.071503639221191,9.940011024475098
25,-0.4396730959415436,-2.1665735244750977,0.039431821554899216,36.7154358,3.1828372,52.25,-5.53,-8.28,-1.63,85,235,10.093546867370605,9.959776878356934
26,-0.4338003396987915,-2.165510654449463,-0.0120204146951437,36.7153611,3.1826975,54.75,-5.53,-8.31,-1.63,85,235,10.122312545776367,9.988787651062012
27,-0.4900134205818176,-2.164111852645874,-0.014091882854700089,36.7152866,3.1825575,57.26,-5.5,-8.31,-1.62,84,236,10.103703498840332,9.971463203430176
28,-0.4388122856616974,-2.165045738220215,0.02882579155266285,36.7151993,3.1823947,60.18,-5.52,-8.27,-1.63,84,235,10.082300186157227,9.948410034179688
29,-0.39270666241645813,-2.167118787765503,-0.026931973174214363,36.7151241,3.1822545,62.68,-5.46,-8.18,-1.62,83,235,9.97671127319336,9.842787742614746
30,-0.13981013000011444,-2.1673309803009033,0.033938661217689514,36.7150464,3.1821097,65.31,-4.15,-6.21,-1.22,83,235,7.573719501495361,7.474395751953125
31,-0.05199325829744339,-2.1501851081848145,-0.008443811908364296,36.7150015,3.1820246,66.63,-2.64,-4.1,-0.51,83,236,4.9071574211120605,4.879608154296875
32,-0.1251966506242752,-2.093996047973633,0.03520459309220314,36.7149661,3.1819507,67.06,-2.05,-3.66,-0.06,82,240,4.201841354370117,4.201410293579102
33,-0.14796294271945953,-2.0879480838775635,-0.024068599566817284,36.7149388,3.1818892,67.06,-2.0,-3.68,-0.01,82,240,4.197500705718994,4.197458267211914
34,0.02953239344060421,-2.0997684001922607,0.007107652723789215,36.7149144,3.181834,67.0,-1.5,-2.66,0.19,82,239,3.068721294403076,3.062573194503784
35,-0.01632208377122879,-2.426362991333008,-0.04142904654145241,36.7148942,3.1817998,65.48,-1.13,-1.06,1.44,81,220,2.1273512840270996,1.559942364692688
36,-0.00651926826685667,-2.4626739025115967,0.007578397169709206,36.7148799,3.1817857,63.19,-1.03,-0.79,1.43,81,218,1.9370558261871338,1.3061695098876953
37,-0.05269547551870346,-2.4687085151672363,0.026816099882125854,36.7148635,3.1817701,60.57,-1.04,-0.84,1.43,80,218,1.9663773775100708,1.3481018543243408
38,-0.02112429402768612,-2.4695193767547607,-0.020798148587346077,36.7148491,3.1817558,58.34,-1.06,-0.87,1.44,80,218,1.9968420267105103,1.3770456314086914
39,-0.0553760826587677,-2.469668388366699,0.01849806308746338,36.7148345,3.1817412,56.09,-1.06,-0.89,1.45,80,218,2.0123987197875977,1.3921619653701782
40,-0.05288774147629738,-2.4697017669677734,-0.017778610810637474,36.7148175,3.1817242,53.48,-1.08,-0.89,1.45,79,218,2.022730588912964,1.4035873413085938
41,-0.02606041170656681,-2.469322443008423,0.02605566754937172,36.714803,3.1817095,51.24,-1.06,-0.88,1.46,79,218,2.014240026473999,1.3831912279129028
42,-0.06190279498696327,-2.4701359272003174,0.008824539370834827,36.714786,3.1816923,48.62,-1.06,-0.88,1.47,79,218,2.0268008708953857,1.3883018493652344
43,-0.011865510605275631,-2.4689178466796875,0.010123194195330143,36.7147714,3.1816777,46.37,-1.07,-0.88,1.47,78,218,2.028201103210449,1.3924757242202759
44,-0.061501793563365936,-2.4694690704345703,0.0010899719782173634,36.7147568,3.1816629,44.12,-1.07,-0.9,1.47,78,218,2.032707691192627,1.3991272449493408
45,-0.02478819154202938,-2.4696075916290283,-0.028768453747034073,36.7147398,3.1816457,41.5,-1.07,-0.87,1.48,78,218,2.0294902324676514,1.3859550952911377
46,-0.04622843116521835,-2.469968318939209,0.027355188503861427,36.7147252,3.181631,39.25,-1.06,-0.89,1.48,77,218,2.0291872024536133,1.3862147331237793
47,-0.0572303868830204,-2.469224691390991,-0.01920308917760849,36.7147082,3.1816139,36.63,-1.07,-0.88,1.47,77,218,2.0298104286193848,1.3903870582580566
48,-0.01890583336353302,-2.4691522121429443,0.022283803671598434,36.7146937,3.1815991,34.38,-1.06,-0.88,1.48,76,218,2.0277976989746094,1.3859379291534424
49,-0.059474922716617584,-2.4699509143829346,0.018949465826153755,36.7146766,3.1815819,31.75,-1.07,-0.88,1.47,76,218,2.0261268615722656,1.3886479139328003
50,-0.02193141169846058,-2.4823505878448486,-0.03321697190403938,36.7146619,3.1815672,29.49,-1.1,-0.86,1.47,76,217,2.0317599773406982,1.402001142501831
51,-0.19513607025146484,3.0091118812561035,-0.10159417241811752,36.7146411,3.1815588,27.51,-2.13,0.18,0.87,75,172,2.3110897541046143,2.1377553939819336
52,-0.21398387849330902,2.678819179534912,-0.02961830608546734,36.7145926,3.1815826,27.11,-3.82,1.87,-0.05,75,153,4.257460594177246,4.257150650024414
53,-0.140677347779274,2.6814215183258057,0.05188672989606857,36.714538,3.1816162,27.17,-4.03,1.99,0.05,75,153,4.504659175872803,4.504359722137451
54,-0.030080001801252365,3.1402511596679688,0.20184366405010223,36.7144864,3.1816376,27.11,-3.39,0.01,0.04,74,179,3.3914480209350586,3.3911867141723633
55,-0.3968493938446045,-2.185887336730957,0.09804727882146835,36.7144378,3.1815933,27.1,-3.15,-4.52,0.01,74,234,5.513545513153076,5.51352071762085
56,-0.4822945296764374,-2.1553478240966797,-0.02579536847770214,36.7143867,3.1814942,27.1,-4.4,-7.01,0.0,73,236,8.282710075378418,8.282705307006836
57,-0.4368196427822113,-2.14994740486145,0.026545297354459763,36.7143114,3.1813461,27.12,-4.94,-7.73,0.0,73,236,9.184810638427734,9.184810638427734
58,-0.2966598570346832,-2.1521265506744385,-0.028005922213196754,36.7142462,3.1812202,27.14,-4.52,-6.94,0.0,73,236,8.286185264587402,8.286184310913086
59,-0.24775397777557373,-2.136183738708496,0.04510831460356712,36.7141825,3.1810959,27.11,-3.56,-5.74,0.02,72,237,6.760890007019043,6.760828018188477
60,-0.26000505685806274,-2.1086833477020264,-0.013209667056798935,36.7141364,3.181,27.1,-3.29,-5.65,0.0,72,239,6.54443883895874,6.544435501098633
61,-0.3014618456363678,-2.100114345550537,0.023749031126499176,36.7140926,3.1809049,27.1,-3.22,-5.67,0.0,71,239,6.532510280609131,6.532505035400391
62,-0.10283836722373962,-2.1003353595733643,-0.024244941771030426,36.7140434,3.1807977,27.11,-2.79,-4.87,0.0,71,239,5.619027614593506,5.619024276733398
63,0.15894488990306854,-2.100776195526123,0.0292066503316164,36.7140146,3.1807351,27.07,-1.26,-2.22,0.01,71,239,2.5632214546203613,2.5631492137908936
64,0.09534952044487,-2.100522756576538,-0.02604825235903263,36.7140068,3.1807175,27.09,-0.06,-0.13,-0.01,70,239,0.15412557125091553,0.15330514311790466
65,0.011419455520808697,-2.098633050918579,0.11522471904754639,36.7140085,3.180719,27.05,0.37,-0.06,0.02,70,239,0.37837567925453186,0.3778197169303894
