timestamp,pitch,yaw,roll,lat,lon,alt,velocity_x,velocity_y,velocity_z,battery,heading,airspeed,groundspeed
0,0.030396511778235435,0.0023653630632907152,0.0035872566513717175,36.7156066,3.1846299,29.21,-0.03,0.02,-0.01,96,0,0.04217255860567093,0.04000671207904816
1,-0.09315896034240723,0.0007053029839880764,0.10908474773168564,36.7156078,3.1846324,29.08,0.34,0.59,-0.04,95,0,0.6831788420677185,0.6818622946739197
2,-0.20720842480659485,1.4485365152359009,-0.12704253196716309,36.7156204,3.1846565,29.13,1.61,2.51,-0.1,95,82,2.995473861694336,2.9938015937805176
3,-0.13685084879398346,0.9315311908721924,0.001096114283427596,36.7156536,3.1847198,29.14,2.35,3.62,-0.03,94,53,4.324936866760254,4.324773788452148
4,-0.011913244612514973,0.9646058082580566,-0.00693860650062561,36.7156853,3.1847793,29.15,2.07,3.13,-0.02,94,55,3.758899450302124,3.758817672729492
5,0.3564303517341614,1.0986921787261963,0.020694036036729813,36.7157,3.1848057,29.19,-0.73,-1.05,-0.03,94,62,1.2866780757904053,1.2863249778747559
6,-0.05151282995939255,2.8359739780426025,0.19779297709465027,36.715678,3.1847658,29.16,-2.19,-3.13,0.04,93,162,3.8275554180145264,3.8272793292999268
7,-0.13055621087551117,-1.9045581817626953,0.03556511923670769,36.7156427,3.1847011,29.2,-2.12,-3.25,0.0,93,246,3.9557347297668457,3.9555625915527344
8,-0.017029516398906708,-1.5528194904327393,0.22117064893245697,36.7156262,3.1846481,29.16,0.08,-2.89,0.01,93,271,2.8918216228485107,2.8917765617370605
9,-0.41699180006980896,-0.6599737405776978,0.10219735652208328,36.7156531,3.1846,29.16,3.87,-3.08,0.0,92,322,4.950905799865723,4.950901031494141
10,-0.5019900798797607,-0.6252720952033997,-0.015204048715531826,36.7157406,3.1845227,29.16,6.92,-4.77,0.0,92,324,8.413198471069336,8.41319465637207
11,-0.5260444283485413,-0.6158996224403381,-0.003185755806043744,36.7158422,3.1844352,29.18,7.88,-5.49,0.0,91,324,9.605950355529785,9.605949401855469
12,-0.34425580501556396,-0.6194620728492737,-0.013167168013751507,36.715966,3.1843266,29.21,7.5,-5.3,-0.02,91,324,9.192479133605957,9.1924409866333
13,-0.07786137610673904,-0.6229715347290039,-0.026292046532034874,36.7160561,3.1842471,29.23,5.4,-3.87,0.04,91,324,6.651865482330322,6.65170955657959
14,0.08101480454206467,-1.0800048112869263,-0.25496193766593933,36.7161057,3.1841924,29.31,1.53,-2.88,-0.2,90,298,3.2735049724578857,3.2667908668518066
15,-0.41091474890708923,-2.1302998065948486,-0.04031919687986374,36.7160918,3.1841257,30.32,-2.98,-4.47,-0.92,90,237,5.459295272827148,5.380173683166504
16,-0.44079965353012085,-2.160269021987915,-0.008950694464147091,36.7160367,3.1840289,32.17,-4.82,-6.94,-1.44,89,236,8.575695991516113,8.453157424926758
17,-0.49267685413360596,-2.164276361465454,0.007214196026325226,36.7159525,3.1838775,34.97,-5.54,-8.04,-1.59,89,236,9.902000427246094,9.772207260131836
18,-0.4420336186885834,-2.163973569869995,0.03297911956906319,36.7158774,3.1837399,37.42,-5.54,-8.2,-1.58,88,236,10.031760215759277,9.905911445617676
19,-0.4286388158798218,-2.162964344024658,-0.016978271305561066,36.7158022,3.1836001,39.88,-5.55,-8.26,-1.59,88,236,10.088253021240234,9.960723876953125
20,-0.480403333902359,-2.166595458984375,0.030088456347584724,36.7157144,3.1834372,42.78,-5.52,-8.25,-1.6,87,235,10.059144973754883,9.93014144897461
21,-0.4331306517124176,-2.1625139713287354,0.027832405641674995,36.71564,3.1832982,45.26,-5.48,-8.25,-1.61,87,236,10.047160148620605,9.916133880615234
22,-0.48256680369377136,-2.163560390472412,-0.024132300168275833,36.7155529,3.1831351,48.17,-5.53,-8.28,-1.62,86,236,10.095942497253418,9.964974403381348
23,-0.47205138206481934,-2.164896011352539,0.039413221180438995,36.7154778,3.1829952,50.68,-5.5,-8.27,-1.62,86,235,10.073382377624512,9.940661430358887
24,-0.42685574293136597,-2.1644070148468018,0.012657038867473602,36.7154034,3.1828559,53.17,-5.5,-8.29,-1.63,86,235,10.085859298706055,9.952407836914062
25,-0.49217385053634644,-2.1654744148254395,-0.0033642274793237448,36.7153161,3.1826927,56.09,-5.53,-8.31,-1.63,85,235,10.11953353881836,9.986726760864258
26,-0.45808145403862,-2.1638731956481934,0.03856177628040314,36.7152412,3.1825525,58.6,-5.5,-8.27,-1.63,85,236,10.076934814453125,9.943462371826172
27,-0.4595238268375397,-2.1646175384521484,-0.03030349127948284,36.7151542,3.1823895,61.52,-5.52,-8.27,-1.62,84,235,10.084956169128418,9.952420234680176
28,-0.48858916759490967,-2.163461923599243,0.004826189950108528,36.7150796,3.18225,64.01,-5.52,-8.31,-1.64,84,236,10.11727237701416,9.983031272888184
29,-0.25620943307876587,-2.1683897972106934,0.031322695314884186,36.7150075,3.1821162,66.43,-4.9,-7.23,-1.45,83,235,8.863842964172363,8.743249893188477
30,-0.09190566092729568,-2.1619837284088135,0.00044767995132133365,36.7149451,3.1819999,68.44,-2.98,-4.56,-0.7,83,236,5.499660491943359,5.454566478729248
31,-0.12035057693719864,-2.1204872131347656,0.02459203079342842,36.7149117,3.1819332,69.07,-2.21,-3.7,-0.18,83,238,4.322484016418457,4.318650722503662
32,-0.1788853406906128,-2.1020350456237793,0.02592158131301403,36.7148783,3.1818613,69.15,-2.07,-3.69,0.0,82,239,4.2372941970825195,4.237288475036621
33,0.009632103145122528,-2.103529930114746,-0.01513232197612524,36.7148511,3.1818022,69.14,-1.76,-3.1,0.03,82,239,3.57155442237854,3.571420669555664
34,0.029997920617461205,-2.339043140411377,-0.02018250711262226,36.7148287,3.1817596,68.2,-1.2,-1.33,1.2,82,225,2.160835027694702,1.7954612970352173
35,-0.0404227077960968,-2.477872610092163,-0.02564876154065132,36.7148138,3.1817436,65.96,-1.03,-0.8,1.45,81,218,1.961203694343567,1.3099437952041626
36,-0.036440517753362656,-2.4721505641937256,0.03335178270936012,36.7147998,3.1817304,63.72,-1.03,-0.83,1.42,81,218,1.9508094787597656,1.3282647132873535
37,-0.06367632001638412,-2.4700064659118652,0.0006265055271796882,36.7147831,3.181714,61.11,-1.06,-0.88,1.44,80,218,1.998177170753479,1.3814736604690552
38,-0.008337070234119892,-2.469578266143799,0.008940295316278934,36.7147686,3.1816994,58.86,-1.07,-0.87,1.44,80,218,2.0052356719970703,1.3861205577850342
39,-0.04954163730144501,-2.469355821609497,0.02776413969695568,36.7147516,3.1816824,56.24,-1.06,-0.88,1.45,80,218,2.006199598312378,1.384447693824768
40,-0.028648385778069496,-2.4694983959198,-0.022329900413751602,36.714737,3.1816678,54.0,-1.06,-0.88,1.45,79,218,2.008622407913208,1.3826565742492676
41,-0.050942592322826385,-2.470015525817871,0.02483007311820984,36.7147225,3.1816531,51.76,-1.06,-0.88,1.47,79,218,2.0251033306121826,1.3907850980758667
42,-0.05672502517700195,-2.4696714878082275,-0.0138323362916708,36.7147054,3.1816358,49.13,-1.07,-0.88,1.47,79,218,2.025233030319214,1.3923758268356323
43,-0.01986881159245968,-2.4688849449157715,0.02655014954507351,36.7146908,3.1816211,46.89,-1.05,-0.88,1.47,78,218,2.016603469848633,1.3781026601791382
44,-0.05769655853509903,-2.4698092937469482,0.019182998687028885,36.7146738,3.1816041,44.27,-1.05,-0.88,1.47,78,218,2.0224766731262207,1.3784284591674805
45,-0.0037671993486583233,-2.4694833755493164,-0.0064147477969527245,36.7146593,3.1815893,42.02,-1.06,-0.88,1.48,78,218,2.025546073913574,1.3811365365982056
46,-0.05755973979830742,-2.47015643119812,0.010330495424568653,36.7146447,3.1815745,39.77,-1.06,-0.89,1.47,77,218,2.0286974906921387,1.3905059099197388
47,-0.04106604680418968,-2.469351291656494,-0.023045770823955536,36.7146277,3.1815574,37.15,-1.07,-0.88,1.47,77,218,2.0301878452301025,1.3904398679733276
48,-0.03082890249788761,-2.4696550369262695,0.02938801236450672,36.714613,3.1815427,34.9,-1.06,-0.88,1.48,76,218,2.0236711502075195,1.37956964969635
49,-0.061700522899627686,-2.469682455062866,0.00378816737793386,36.714596,3.1815255,32.26,-1.06,-0.88,1.47,76,218,2.0198779106140137,1.3800134658813477
50,-0.08211404085159302,-2.985274314880371,-0.09830718487501144,36.7145787,3.1815132,30.08,-1.72,-0.33,1.24,76,188,2.1482458114624023,1.7541183233261108
51,-0.2586323320865631,2.6704812049865723,-0.03772702440619469,36.7145452,3.181523,29.15,-3.27,1.51,0.02,75,153,3.6051130294799805,3.6050071716308594
52,-0.14936022460460663,2.67175555229187,-0.02776547521352768,36.7144851,3.1815603,29.25,-4.0,2.04,0.0,75,153,4.499463081359863,4.499461650848389
53,-0.04846162348985672,2.903317451477051,0.18847860395908356,36.7144322,3.1815891,29.2,-3.62,0.85,0.05,75,166,3.72674560546875,3.7263190746307373
54,-0.39693257212638855,-2.217451333999634,0.09657477587461472,36.7143821,3.1815661,29.18,-3.0,-3.54,0.02,74,232,4.648386001586914,4.648336410522461
55,-0.4786601662635803,-2.146620512008667,0.03379536792635918,36.7143348,3.1814793,29.18,-4.13,-6.5,0.01,74,237,7.703305721282959,7.7032976150512695
56,-0.4370908737182617,-2.1529488563537598,-0.017107434570789337,36.7142724,3.1813579,29.19,-4.91,-7.64,0.0,73,236,9.090879440307617,9.090879440307617
57,-0.3592580258846283,-2.1567575931549072,0.025267140939831734,36.7141944,3.1812082,29.21,-4.76,-7.29,0.0,73,236,8.712011337280273,8.71200942993164
58,-0.20186252892017365,-2.15002703666687,0.014462375082075596,36.7141352,3.1810947,29.21,-3.92,-6.1,0.03,73,236,7.2619733810424805,7.261908531188965
59,-0.28091728687286377,-2.1165623664855957,0.04053207114338875,36.7140787,3.1809807,29.18,-3.35,-5.66,0.01,72,238,6.58173942565918,6.581723690032959
60,-0.2601286768913269,-2.100100040435791,-0.009050031192600727,36.7140346,3.1808858,29.18,-3.22,-5.63,0.0,72,239,6.494174957275391,6.494169235229492
61,-0.22997142374515533,-2.100404977798462,0.007840163074433804,36.7139911,3.1807909,29.18,-3.11,-5.47,0.0,71,239,6.295502185821533,6.295502185821533
62,0.1339903175830841,-2.101184368133545,-0.030319033190608025,36.7139501,3.1807017,29.16,-1.77,-3.11,0.03,71,239,3.5861330032348633,3.5859222412109375
63,0.11453691869974136,-2.1008358001708984,0.026846731081604958,36.713937,3.1806728,29.17,-0.29,-0.53,-0.02,71,239,0.6088758111000061,0.6084995269775391
64,-0.027654560282826424,-2.1016311645507812,0.03051479160785675,36.7139371,3.1806728,29.15,0.16,0.1,0.04,70,239,0.1976306438446045,0.19315363466739655
