timestamp,pitch,yaw,roll,lat,lon,alt,velocity_x,velocity_y,velocity_z,battery,heading,airspeed,groundspeed
0,0.026822885498404503,0.035806845873594284,0.011465546675026417,36.7156066,3.1846299,23.0,-0.02,0.02,-0.12,96,2,0.13174143433570862,0.038159653544425964
1,-0.10905828326940536,0.037595976144075394,0.0887434333562851,36.7156081,3.1846323,23.02,0.41,0.55,-0.05,95,2,0.6882063150405884,0.6863303184509277
2,-0.24910733103752136,1.249149203300476,-0.1269514411687851,36.715623,3.1846546,23.07,2.0,2.39,-0.09,95,71,3.124730110168457,3.1231870651245117
3,-0.23725974559783936,0.902128279209137,-0.003216299694031477,36.7156676,3.1847208,23.08,3.43,4.01,0.0,95,51,5.287242412567139,5.2872395515441895
4,-0.19675275683403015,0.8624372482299805,-0.024279965087771416,36.7157161,3.1847912,23.01,3.54,4.12,0.0,94,49,5.443594932556152,5.443592071533203
5,0.24116025865077972,0.8413901925086975,-0.028223108500242233,36.7157639,3.1848594,23.03,1.91,2.14,0.0,94,48,2.8750786781311035,2.875077962875366
6,0.13666516542434692,-0.16112037003040314,-0.2641318142414093,36.7157689,3.1848616,23.06,-1.26,-1.93,0.0,93,350,2.3120381832122803,2.3120315074920654
7,-0.10279272496700287,-1.731099247932434,-0.07117894291877747,36.7157427,3.1848141,23.01,-2.29,-3.21,0.01,93,260,3.9569642543792725,3.9569311141967773
8,-0.03623504564166069,-2.046720504760742,0.06791418790817261,36.7157083,3.1847497,23.08,-1.89,-3.15,0.03,93,242,3.680116891860962,3.679964542388916
9,-0.15395991504192352,-1.3202980756759644,0.26169443130493164,36.7156978,3.1846987,23.02,0.75,-2.75,0.02,92,284,2.854686975479126,2.8546154499053955
10,-0.4507685899734497,-0.6376354098320007,0.005414639133960009,36.7157443,3.1846403,23.02,4.96,-3.55,0.0,92,323,6.102167129516602,6.102163791656494
11,-0.5384743213653564,-0.6274184584617615,0.024413522332906723,36.7158277,3.1845674,23.03,7.15,-4.99,0.0,91,324,8.723677635192871,8.723674774169922
12,-0.473710298538208,-0.6212547421455383,-0.02442089095711708,36.7159484,3.1844619,23.05,7.87,-5.57,0.0,91,324,9.61284065246582,9.612838745117188
13,-0.3527861535549164,-0.6229667663574219,-0.0021120221354067326,36.7160529,3.1843694,23.08,7.21,-5.14,-0.01,91,324,8.863823890686035,8.863814353942871
14,0.023278366774320602,-0.6406150460243225,-0.049486588686704636,36.7161368,3.1842947,23.09,4.77,-3.56,0.05,90,323,5.9608845710754395,5.9606499671936035
15,-0.1688651591539383,-1.5862683057785034,-0.2456265687942505,36.7161766,3.1842348,23.36,-0.07,-3.02,-0.4,90,269,3.05484938621521,3.0282328128814697
16,-0.4098261594772339,-2.147331953048706,-0.06245965138077736,36.7161506,3.1841704,24.48,-3.49,-4.94,-1.03,89,236,6.144950866699219,6.056347370147705
17,-0.5131133794784546,-2.158616542816162,0.0049578179605305195,36.7160909,3.1840653,26.46,-5.04,-7.27,-1.49,89,236,8.981098175048828,8.855209350585938
18,-0.42482998967170715,-2.165578842163086,-0.003379519097507,36.7160052,3.1839108,29.31,-5.53,-8.05,-1.58,88,235,9.90687084197998,9.778606414794922
19,-0.47738319635391235,-2.163935422897339,-0.021051809191703796,36.7159302,3.1837724,31.77,-5.56,-8.22,-1.56,88,236,10.054625511169434,9.931640625
20,-0.4281803071498871,-2.1637375354766846,0.03119836561381817,36.7158422,3.1836093,34.64,-5.54,-8.23,-1.59,88,236,10.058350563049316,9.930700302124023
21,-0.43046966195106506,-2.164778709411621,-0.01726887933909893,36.7157673,3.1834702,37.12,-5.52,-8.23,-1.6,87,235,10.050102233886719,9.921896934509277
22,-0.49555596709251404,-2.163670063018799,-0.0024835325311869383,36.715693,3.1833312,39.62,-5.5,-8.28,-1.59,87,236,10.075750350952148,9.948253631591797
23,-0.4197697043418884,-2.1644887924194336,0.008644324727356434,36.7156056,3.1831681,42.52,-5.53,-8.29,-1.61,86,235,10.09694766998291,9.966243743896484
24,-0.4631214737892151,-2.1660561561584473,-0.029063306748867035,36.7155309,3.1830284,45.02,-5.5,-8.28,-1.61,86,235,10.074897766113281,9.944198608398438
25,-0.45397496223449707,-2.163823127746582,0.038032419979572296,36.7154439,3.1828654,47.94,-5.51,-8.31,-1.62,85,236,10.110002517700195,9.978900909423828
26,-0.4284813106060028,-2.164422035217285,-0.013826829381287098,36.7153689,3.1827252,50.44,-5.53,-8.28,-1.63,85,235,10.10128116607666,9.968192100524902
27,-0.47799766063690186,-2.1647403240203857,0.02644403837621212,36.7152816,3.182562,53.36,-5.49,-8.27,-1.63,84,235,10.072148323059082,9.938828468322754
28,-0.4312709867954254,-2.1649057865142822,0.02671561762690544,36.715207,3.1824227,55.87,-5.52,-8.29,-1.63,84,235,10.097060203552246,9.96439266204834
29,-0.42241108417510986,-2.1659398078918457,-0.02735220268368721,36.7151324,3.182283,58.37,-5.49,-8.23,-1.61,84,235,10.034687995910645,9.90306282043457
30,-0.167643740773201,-2.1676340103149414,0.03376875817775726,36.7150522,3.182134,61.05,-4.34,-6.46,-1.28,83,235,7.897077560424805,7.791012763977051
31,-0.05789132043719292,-2.1547794342041016,-0.01050975825637579,36.715005,3.1820452,62.49,-2.73,-4.23,-0.58,83,236,5.071284770965576,5.037723064422607
32,-0.11569130420684814,-2.096595525741577,0.026498589664697647,36.7149691,3.1819709,62.99,-2.07,-3.69,-0.08,82,239,4.235273838043213,4.2344841957092285
33,-0.17332033812999725,-2.0872013568878174,-0.014111991040408611,36.7149419,3.1819093,62.99,-2.0,-3.72,-0.02,82,240,4.2277512550354,4.227692127227783
34,0.031511541455984116,-2.092430353164673,0.010062302462756634,36.7149166,3.1818522,62.96,-1.58,-2.83,0.11,82,240,3.24996280670166,3.247748374938965
35,-0.0007835933938622475,-2.3993771076202393,-0.016444599255919456,36.7148958,3.181815,61.64,-1.15,-1.14,1.37,81,222,2.1307260990142822,1.6282614469528198
36,-0.011815655045211315,-2.466017961502075,-0.014251729473471642,36.7148814,3.1818006,59.35,-1.03,-0.79,1.42,81,218,1.936279296875,1.3065379858016968
37,-0.019562361761927605,-2.46856689453125,0.0253660436719656,36.714865,3.181785,56.74,-1.04,-0.84,1.42,80,218,1.9594405889511108,1.3463892936706543
38,-0.05045701190829277,-2.469672918319702,-0.02058381214737892,36.7148507,3.1817706,54.5,-1.06,-0.88,1.42,80,218,1.9869422912597656,1.382703185081482
39,-0.016729271039366722,-2.4693915843963623,0.021924477070569992,36.7148361,3.181756,52.26,-1.07,-0.87,1.44,80,218,1.9983519315719604,1.3847044706344604
40,-0.052509572356939316,-2.4698312282562256,0.020296551287174225,36.714819,3.181739,49.65,-1.06,-0.87,1.45,79,218,2.0034260749816895,1.3803950548171997
41,-0.011547526344656944,-2.469954252243042,-0.010133723728358746,36.7148045,3.1817244,47.4,-1.07,-0.88,1.45,79,218,2.011641263961792,1.3917713165283203
42,-0.023373212665319443,-2.469790458679199,0.027081158012151718,36.7147875,3.1817073,44.78,-1.06,-0.88,1.46,79,218,2.01196026802063,1.3837889432907104
43,-0.03982902690768242,-2.4690468311309814,-0.020919889211654663,36.7147729,3.1816926,42.54,-1.07,-0.89,1.47,78,218,2.030211925506592,1.398585557937622
44,-0.01888170652091503,-2.4694669246673584,0.02434735745191574,36.7147584,3.1816778,40.29,-1.06,-0.89,1.47,78,218,2.0226917266845703,1.3889453411102295
45,-0.06069716438651085,-2.4697721004486084,0.009504240937530994,36.7147413,3.1816606,37.67,-1.07,-0.88,1.47,78,218,2.0245373249053955,1.3916571140289307
46,-0.011508813127875328,-2.4701197147369385,-0.005554619245231152,36.7147267,3.181646,35.43,-1.06,-0.87,1.47,77,218,2.0232255458831787,1.3807685375213623
47,-0.027506759390234947,-2.4692769050598145,0.028226535767316818,36.7147097,3.1816288,32.8,-1.05,-0.88,1.47,77,218,2.019298791885376,1.378161072731018
48,-0.044182877987623215,-2.4691755771636963,-0.024736827239394188,36.7146952,3.181614,30.54,-1.06,-0.89,1.47,76,218,2.0243241786956787,1.390874981880188
49,-0.02872985042631626,-2.4694063663482666,0.030861401930451393,36.7146806,3.1815992,28.3,-1.06,-0.88,1.47,76,218,2.0220487117767334,1.3814560174942017
50,-0.06932912021875381,-2.4715659618377686,-0.002775330562144518,36.7146635,3.1815821,25.67,-1.07,-0.87,1.47,76,218,2.024038553237915,1.3862981796264648
51,-0.11856025457382202,3.1009724140167236,-0.11603948473930359,36.7146441,3.181572,23.58,-1.98,0.0,1.01,75,177,2.2249534130096436,1.9824110269546509
52,-0.2182367742061615,2.6776177883148193,0.025402527302503586,36.7145981,3.1815927,23.03,-3.71,1.82,-0.06,75,153,4.140859127044678,4.140347003936768
53,-0.1544695645570755,2.6790454387664795,-0.021882949396967888,36.7145436,3.1816261,23.11,-4.05,2.03,0.04,75,153,4.533046245574951,4.532819747924805
54,-0.01994631253182888,-3.071258306503296,0.2620254158973694,36.7144834,3.1816511,23.05,-3.31,-0.2,0.04,74,184,3.3198885917663574,3.3195903301239014
55,-0.4400748908519745,-2.1963388919830322,0.09948813170194626,36.7144423,3.1816149,23.04,-3.06,-4.18,0.02,74,234,5.190821647644043,5.190779209136963
56,-0.46591541171073914,-2.1489901542663574,0.026297327131032944,36.714393,3.1815194,23.04,-4.3,-6.82,0.0,73,236,8.067655563354492,8.067654609680176
57,-0.4834957718849182,-2.1503329277038574,-0.008700312115252018,36.7143186,3.1813733,23.06,-4.94,-7.71,0.0,73,236,9.167754173278809,9.167754173278809
58,-0.3211582899093628,-2.152475357055664,0.03133244812488556,36.7142527,3.1812461,23.08,-4.6,-7.09,0.0,73,236,8.457398414611816,8.457398414611816
59,-0.22873777151107788,-2.144104242324829,-0.009723021648824215,36.7141958,3.181136,23.07,-3.75,-5.92,0.03,72,237,7.011185169219971,7.0110907554626465
60,-0.2574131488800049,-2.110304832458496,0.03784046322107315,36.7141411,3.1810235,23.05,-3.29,-5.64,0.01,72,239,6.5384697914123535,6.538452625274658
61,-0.2949378788471222,-2.0997397899627686,-0.02185630612075329,36.7140974,3.1809287,23.05,-3.22,-5.68,0.01,71,239,6.532236576080322,6.532217502593994
62,-0.09170213341712952,-2.099937915802002,0.004724972881376743,36.7140474,3.1808197,23.05,-2.9,-5.07,0.0,71,239,5.848167419433594,5.848164081573486
63,0.13428866863250732,-2.1007354259490967,-0.007454574573785067,36.7140165,3.1807525,23.02,-1.45,-2.53,0.03,71,239,2.924349069595337,2.924175500869751
64,0.08983214944601059,-2.10064697265625,-0.027767259627580643,36.7140067,3.1807307,23.04,-0.01,-0.05,-0.01,70,239,0.054249685257673264,0.05318257957696915
65,-0.023924551904201508,-2.101820230484009,0.10299256443977356,36.7140082,3.1807329,23.0,0.28,0.0,0.03,70,239,0.2841794192790985,0.28253427147865295
