timestamp,pitch,yaw,roll,lat,lon,alt,velocity_x,velocity_y,velocity_z,battery,heading,airspeed,groundspeed
0,0.01217674557119608,-0.02215772680938244,0.02664993144571781,36.7156064,3.1846302,10.9,0.0,0.0,-0.45,98,358,0.4530618190765381,0.0063665444031357765
1,-0.10564306378364563,-0.022188879549503326,0.03632517158985138,36.7156082,3.1846317,11.18,0.52,0.33,-0.09,97,358,0.6321339011192322,0.6247396469116211
2,-0.20473723113536835,0.5971432328224182,-0.0336008258163929,36.7156314,3.18465,11.25,2.53,1.58,0.01,97,34,2.99025821685791,2.9902031421661377
3,-0.14490127563476562,0.5702047944068909,0.028176143765449524,36.7156722,3.1846817,11.15,3.27,2.04,0.05,97,32,3.8626174926757812,3.8622405529022217
4,0.07694598287343979,0.5295263528823853,-0.057234905660152435,36.7157154,3.1847146,11.05,2.71,1.56,0.04,96,30,3.1288037300109863,3.12850022315979
5,-0.0295959934592247,-0.912608802318573,-0.3301399350166321,36.7157327,3.1847144,11.02,-1.01,-1.96,-0.01,96,307,2.208834409713745,2.208808183670044
6,-0.18512111902236938,-2.361084222793579,0.04160982370376587,36.7157069,3.1846656,10.98,-2.38,-3.35,0.01,95,224,4.111672878265381,4.111630439758301
7,-0.06777433305978775,-2.094038248062134,0.06777575612068176,36.715671,3.1845985,11.03,-1.85,-3.25,0.02,95,240,3.7410192489624023,3.7409541606903076
8,-0.18422375619411469,-1.1101266145706177,0.2724350392818451,36.7156641,3.1845471,10.98,1.27,-2.76,0.0,95,296,3.044166088104248,3.0441508293151855
9,-0.4584536552429199,-0.6412810683250427,0.02012014202773571,36.7157073,3.184496,10.99,4.97,-3.52,0.0,94,323,6.097548484802246,6.09754753112793
10,-0.4883420765399933,-0.618118941783905,0.024221964180469513,36.7158074,3.1844095,11.0,7.43,-5.1,0.0,94,324,9.017329216003418,9.017324447631836
11,-0.4822434186935425,-0.6168045401573181,-0.036229487508535385,36.7159126,3.1843185,11.02,7.93,-5.56,0.0,93,324,9.692620277404785,9.692619323730469
12,-0.2794463038444519,-0.6215870976448059,0.03230554610490799,36.7160337,3.1842116,11.06,7.0,-4.97,0.0,93,324,8.594078063964844,8.594074249267578
13,0.03562822565436363,-0.6592023372650146,-0.11067817360162735,36.7161131,3.184141,11.05,4.32,-3.37,0.03,93,322,5.488638401031494,5.488525390625
14,-0.1339481920003891,-1.5409388542175293,-0.24851924180984497,36.7161446,3.1840905,11.3,0.06,-2.99,-0.38,92,271,3.0186164379119873,2.9939653873443604
15,-0.47878655791282654,-2.163989782333374,-0.01920897513628006,36.7161119,3.1840128,12.67,-3.79,-5.3,-1.11,92,236,6.618235111236572,6.523153305053711
16,-0.4813718795776367,-2.1663734912872314,0.04273026064038277,36.7160494,3.1839031,14.74,-5.19,-7.45,-1.53,91,235,9.211883544921875,9.08339786529541
17,-0.4671587347984314,-2.1671030521392822,-0.025421857833862305,36.7159628,3.1837469,17.6,-5.53,-8.06,-1.58,91,235,9.909189224243164,9.78226375579834
18,-0.4945707619190216,-2.1650967597961426,0.007251962553709745,36.7158875,3.1836083,20.05,-5.56,-8.22,-1.57,90,235,10.054410934448242,9.929909706115723
19,-0.4344712495803833,-2.16501784324646,0.028602296486496925,36.7158122,3.183469,22.52,-5.54,-8.24,-1.59,90,235,10.061176300048828,9.934502601623535
20,-0.4773690104484558,-2.166156053543091,-0.02826816774904728,36.7157248,3.1833069,25.42,-5.54,-8.27,-1.59,89,235,10.085395812988281,9.958537101745605
21,-0.47648152709007263,-2.166013240814209,0.03264177218079567,36.7156499,3.1831671,27.9,-5.52,-8.29,-1.6,89,235,10.095989227294922,9.967164993286133
22,-0.43391674757003784,-2.165350914001465,-0.020594092085957527,36.7155625,3.1830043,30.79,-5.53,-8.24,-1.62,89,235,10.066125869750977,9.934004783630371
23,-0.48823651671409607,-2.1670005321502686,-0.001088880468159914,36.7154875,3.1828649,33.3,-5.5,-8.27,-1.62,88,235,10.0730619430542,9.941049575805664
24,-0.46824055910110474,-2.1655850410461426,0.04418189823627472,36.7154129,3.1827253,35.8,-5.51,-8.3,-1.63,88,235,10.09821891784668,9.965707778930664
25,-0.4526304006576538,-2.1662180423736572,-0.027204755693674088,36.7153255,3.1825621,38.72,-5.54,-8.29,-1.62,87,235,10.10616683959961,9.974177360534668
26,-0.4927713871002197,-2.165046453475952,-0.007002506870776415,36.7152506,3.1824226,41.22,-5.52,-8.25,-1.62,87,235,10.069684982299805,9.937581062316895
27,-0.4326799511909485,-2.1653900146484375,0.0017234275583177805,36.7151634,3.1822599,44.14,-5.53,-8.31,-1.63,86,235,10.120044708251953,9.987696647644043
28,-0.43184348940849304,-2.1643776893615723,-0.034790024161338806,36.7150886,3.18212,46.64,-5.48,-8.17,-1.6,86,236,9.97433090209961,9.843587875366211
29,-0.1946917027235031,-2.1696720123291016,0.02757551521062851,36.7150198,3.1819933,48.93,-4.43,-6.57,-1.31,85,235,8.039019584655762,7.931373596191406
30,-0.07705830782651901,-2.1508536338806152,-0.006222946103662252,36.7149654,3.1818909,50.56,-2.59,-4.06,-0.51,85,236,4.849691867828369,4.822417736053467
31,-0.1359933614730835,-2.097978115081787,0.039158646017313004,36.7149351,3.1818277,50.95,-2.07,-3.68,-0.09,85,239,4.225447654724121,4.224348068237305
32,-0.1678016036748886,-2.087749481201172,0.005458050407469273,36.7149034,3.1817561,50.96,-2.01,-3.7,-0.02,84,240,4.214311599731445,4.2142181396484375
33,0.05515395104885101,-2.1015305519104004,-0.01327208336442709,36.7148789,3.181701,50.9,-1.5,-2.65,0.2,84,239,3.054872512817383,3.048062562942505
34,-0.010325757786631584,-2.384667158126831,-0.046756770461797714,36.7148614,3.1816702,49.72,-1.16,-1.19,1.34,84,223,2.140543222427368,1.667847990989685
35,-0.011059819720685482,-2.46274471282959,-0.018014822155237198,36.7148444,3.1816531,47.06,-1.03,-0.8,1.42,83,218,1.9337226152420044,1.308243751525879
36,-0.04731985926628113,-2.468883752822876,0.0294819176197052,36.7148304,3.1816398,44.82,-1.04,-0.83,1.42,83,218,1.9562102556228638,1.3395617008209229
37,-0.05641689524054527,-2.4693148136138916,-0.012035444378852844,36.7148136,3.1816231,42.2,-1.06,-0.87,1.43,82,218,1.9892264604568481,1.3775209188461304
38,-0.01339997909963131,-2.4698922634124756,0.017683198675513268,36.7147991,3.1816086,39.96,-1.07,-0.87,1.44,82,218,2.002182722091675,1.3866572380065918
39,-0.054909657686948776,-2.4696714878082275,0.02573770098388195,36.7147821,3.1815915,37.35,-1.06,-0.88,1.45,82,218,2.007632255554199,1.3849587440490723
40,-0.016887569800019264,-2.469644546508789,-0.015044603496789932,36.7147676,3.1815768,35.11,-1.07,-0.88,1.46,81,218,2.022922992706299,1.39362633228302
41,-0.055554624646902084,-2.469600200653076,0.017417000606656075,36.714753,3.1815621,32.87,-1.07,-0.88,1.47,81,218,2.023005247116089,1.3883087635040283
42,-0.04763183742761612,-2.469459295272827,-0.021046709269285202,36.7147359,3.181545,30.24,-1.06,-0.89,1.47,81,218,2.0274336338043213,1.3938530683517456
43,-0.02185409888625145,-2.4695160388946533,0.027300981804728508,36.7147214,3.1815303,28.0,-1.06,-0.87,1.47,80,218,2.020012378692627,1.3821157217025757
44,-0.0601453073322773,-2.4691672325134277,0.0069302343763411045,36.7147044,3.1815131,25.37,-1.06,-0.89,1.47,80,218,2.0273313522338867,1.3914473056793213
45,-0.008241171017289162,-2.4696497917175293,-0.006883113645017147,36.7146898,3.1814984,23.12,-1.06,-0.88,1.47,80,218,2.0233287811279297,1.3883317708969116
46,-0.061317723244428635,-2.4696719646453857,0.004725829232484102,36.7146752,3.1814836,20.87,-1.06,-0.88,1.47,79,218,2.021731376647949,1.3867151737213135
47,-0.033063601702451706,-2.46978497505188,-0.024449218064546585,36.7146581,3.1814664,18.25,-1.07,-0.88,1.47,79,218,2.027130365371704,1.3920178413391113
48,-0.04333348572254181,-2.469266653060913,0.026306860148906708,36.7146436,3.1814518,16.0,-1.05,-0.87,1.48,78,218,2.0180182456970215,1.3711689710617065
49,-0.08051134645938873,-2.4836058616638184,-0.026808708906173706,36.7146265,3.1814346,13.38,-1.1,-0.86,1.48,78,217,2.0406594276428223,1.404915452003479
50,-0.14600424468517303,2.9888644218444824,-0.10203975439071655,36.7146055,3.1814264,11.39,-2.16,0.21,0.85,78,171,2.336907386779785,2.1755211353302
51,-0.2487425059080124,2.6772005558013916,-0.011814944446086884,36.714565,3.1814455,11.0,-3.67,1.8,-0.06,77,153,4.096485614776611,4.095959186553955
52,-0.11473000794649124,2.6822428703308105,0.001600195188075304,36.7145017,3.1814845,11.08,-4.02,1.99,0.05,77,153,4.492912769317627,4.4926018714904785
53,-0.053760066628456116,-3.126688241958618,0.26465049386024475,36.7144504,3.1815052,11.02,-3.37,-0.06,0.04,77,180,3.3752219676971436,3.374950885772705
54,-0.45337432622909546,-2.1908369064331055,0.0640721321105957,36.7144018,3.1814598,11.01,-3.19,-4.63,0.01,76,234,5.627079963684082,5.627048492431641
55,-0.49082472920417786,-2.156525135040283,0.038522522896528244,36.7143503,3.1813592,11.01,-4.42,-7.04,0.0,76,236,8.315549850463867,8.31554889678955
56,-0.46600085496902466,-2.1517863273620605,-0.029158757999539375,36.7142749,3.181211,11.03,-4.95,-7.7,0.0,75,236,9.166318893432617,9.1663179397583
57,-0.3300090730190277,-2.153273820877075,0.027982400730252266,36.7142096,3.1810852,11.05,-4.49,-6.93,0.0,75,236,8.264579772949219,8.26457691192627
58,-0.22448788583278656,-2.1404614448547363,-0.0002984312304761261,36.7141544,3.1809778,11.03,-3.65,-5.83,0.03,75,237,6.8870625495910645,6.886967658996582
59,-0.279035359621048,-2.1085524559020996,0.041455820202827454,36.7141002,3.1808655,11.02,-3.28,-5.65,0.01,74,239,6.536973476409912,6.5369648933410645
60,-0.266660213470459,-2.1006035804748535,-0.018297942355275154,36.7140565,3.1807706,11.02,-3.23,-5.67,0.01,74,239,6.532571315765381,6.532560348510742
61,-0.07755178213119507,-2.1000447273254395,0.032722603529691696,36.7140073,3.1806633,11.02,-2.76,-4.83,0.0,73,239,5.567634582519531,5.567629814147949
62,0.1493864506483078,-2.100372791290283,-0.025593210011720657,36.713979,3.1806019,10.99,-1.24,-2.16,0.01,73,239,2.4945836067199707,2.4945216178894043
63,0.08853258192539215,-2.100390672683716,0.026429198682308197,36.7139714,3.180585,11.0,-0.04,-0.1,-0.01,73,239,0.11532357335090637,0.11449307948350906
64,-0.04094326123595238,-2.104546308517456,0.10318196564912796,36.7139735,3.1805868,10.96,0.4,-0.1,0.01,72,239,0.4220985472202301,0.42177614569664
