timestamp,pitch,yaw,roll,lat,lon,alt,velocity_x,velocity_y,velocity_z,battery,heading,airspeed,groundspeed
0,-0.024381430819630623,0.026681290939450264,0.011671729385852814,36.7156066,3.18463,16.27,-0.01,0.02,-0.05,96,1,0.0646762102842331,0.030492547899484634
1,-0.04693549871444702,0.04679412767291069,0.10581397265195847,36.7156078,3.1846331,16.35,0.3,0.68,-0.01,95,2,0.7517804503440857,0.7516388893127441
2,-0.24421332776546478,1.6223304271697998,-0.10277927666902542,36.7156192,3.1846618,16.31,1.43,2.96,0.0,95,92,3.294675827026367,3.2946696281433105
3,-0.2297181785106659,1.0111961364746094,0.02866615168750286,36.715649,3.1847374,16.33,2.14,4.39,-0.02,95,57,4.889369964599609,4.889327526092529
4,-0.05710328742861748,1.0789352655410767,-0.004068130161613226,36.7156787,3.1848111,16.33,2.05,4.08,0.0,94,61,4.572587966918945,4.572582244873047
5,0.36094772815704346,1.3763470649719238,0.15310552716255188,36.7156988,3.1848623,16.32,-0.09,0.26,0.02,94,78,0.28407299518585205,0.28330183029174805
6,-0.10567924380302429,2.9779129028320312,0.18133386969566345,36.7156824,3.1848353,16.34,-2.05,-2.91,-0.03,93,170,3.5652315616607666,3.5650277137756348
7,-0.10356801003217697,-1.9453420639038086,-0.04309369996190071,36.7156476,3.1847711,16.34,-2.24,-3.25,0.0,93,248,3.952253580093384,3.9522438049316406
8,-0.03693610057234764,-1.8255658149719238,0.1928396224975586,36.7156245,3.184717,16.33,-0.79,-3.03,0.01,93,255,3.1353161334991455,3.1352922916412354
9,-0.3441764712333679,-0.6966822743415833,0.09112867712974548,36.7156367,3.1846691,16.32,2.84,-2.87,0.0,92,320,4.039722919464111,4.039722442626953
10,-0.47472867369651794,-0.6108177304267883,0.030439957976341248,36.7157113,3.1845998,16.32,6.32,-4.4,0.0,92,325,7.712342262268066,7.712340831756592
11,-0.49173763394355774,-0.6151758432388306,-0.02899344265460968,36.7158083,3.1845161,16.33,7.74,-5.37,0.0,91,324,9.427931785583496,9.427928924560547
12,-0.43054255843162537,-0.61878901720047,0.03012653812766075,36.7159322,3.1844079,16.36,7.77,-5.48,-0.01,91,324,9.51639461517334,9.516388893127441
13,-0.14493979513645172,-0.6221399307250977,-0.013874003663659096,36.7160294,3.1843221,16.4,6.22,-4.44,0.01,91,324,7.65120792388916,7.65118408203125
14,0.06129764765501022,-0.8110100030899048,-0.14924345910549164,36.7160936,3.1842611,16.4,2.86,-3.01,-0.07,90,313,4.15687370300293,4.156163215637207
15,-0.38229143619537354,-2.1056125164031982,-0.13762037456035614,36.716099,3.1842004,17.11,-2.1,-3.85,-0.73,90,239,4.449965953826904,4.388092517852783
16,-0.46452245116233826,-2.177544593811035,0.051914215087890625,36.7160522,3.1841164,18.7,-4.46,-6.32,-1.32,89,235,7.857497215270996,7.744182109832764
17,-0.4743625819683075,-2.164578676223755,-0.0376017801463604,36.7159711,3.1839716,21.39,-5.48,-7.96,-1.61,89,235,9.803413391113281,9.670039176940918
18,-0.48439326882362366,-2.1644580364227295,0.025261888280510902,36.715896,3.1838344,23.87,-5.5,-8.16,-1.58,88,235,9.974027633666992,9.84800910949707
19,-0.4276207685470581,-2.1637585163116455,0.02240440808236599,36.715821,3.1836953,26.33,-5.55,-8.25,-1.58,88,236,10.072599411010742,9.947270393371582
20,-0.4836108684539795,-2.1622347831726074,-0.01973971724510193,36.7157335,3.1835324,29.21,-5.53,-8.26,-1.59,88,236,10.07130241394043,9.9434175491333
21,-0.4814329147338867,-2.164572238922119,0.0417640246450901,36.7156587,3.1833932,31.7,-5.53,-8.26,-1.6,87,235,10.080801963806152,9.951963424682617
22,-0.44871264696121216,-2.1645069122314453,-0.027223821729421616,36.7155714,3.1832304,34.61,-5.51,-8.28,-1.61,87,235,10.087427139282227,9.957754135131836
23,-0.48897412419319153,-2.164564371109009,0.010878375731408596,36.7154965,3.1830905,37.1,-5.51,-8.29,-1.62,86,235,10.085687637329102,9.954458236694336
24,-0.4435082972049713,-2.164698839187622,0.03455008193850517,36.7154219,3.1829507,39.6,-5.49,-8.26,-1.63,86,235,10.062179565429688,9.9284086227417
25,-0.47885841131210327,-2.1632704734802246,-0.029157835990190506,36.7153351,3.1827882,42.52,-5.5,-8.31,-1.62,85,236,10.109587669372559,9.978005409240723
26,-0.4804489314556122,-2.1635184288024902,0.018854383379220963,36.7152601,3.1826479,45.02,-5.55,-8.3,-1.63,85,236,10.123923301696777,9.990998268127441
27,-0.43130502104759216,-2.165574312210083,-0.020493650808930397,36.7151725,3.1824845,47.95,-5.5,-8.27,-1.63,84,235,10.069526672363281,9.935182571411133
28,-0.48907989263534546,-2.165367841720581,-0.010311420075595379,36.715098,3.1823452,50.45,-5.49,-8.29,-1.63,84,235,10.08126163482666,9.948040962219238
29,-0.27551648020744324,-2.1679446697235107,0.01129900012165308,36.7150129,3.1821865,53.31,-5.04,-7.48,-1.49,83,235,9.14585018157959,9.023134231567383
30,-0.08078458160161972,-2.1659603118896484,-0.020161746069788933,36.7149546,3.1820781,55.23,-3.42,-5.15,-0.91,83,235,6.2608466148376465,6.19354772567749
31,-0.11218564957380295,-2.134556293487549,0.0429135262966156,36.7149171,3.1820054,56.13,-2.29,-3.74,-0.3,83,237,4.398606300354004,4.388360977172852
32,-0.1789836883544922,-2.1027538776397705,0.005705215502530336,36.7148833,3.1819336,56.31,-2.08,-3.66,0.0,82,239,4.221407890319824,4.221399784088135
33,-0.03677044436335564,-2.102999687194824,0.005134050268679857,36.7148553,3.1818727,56.3,-1.96,-3.47,-0.03,82,239,3.992558240890503,3.9924161434173584
34,0.029858063906431198,-2.231372356414795,-0.02668410912156105,36.7148303,3.1818211,55.81,-1.24,-1.68,0.81,82,232,2.2509260177612305,2.097464084625244
35,-0.007737835869193077,-2.484807014465332,-0.034396249800920486,36.7148147,3.1818016,53.78,-1.04,-0.82,1.48,81,217,1.9979463815689087,1.3330953121185303
36,-0.0424429215490818,-2.4707891941070557,0.030573111027479172,36.7148007,3.1817886,51.52,-1.03,-0.82,1.41,81,218,1.9358627796173096,1.321772575378418
37,-0.06257688254117966,-2.470235824584961,-0.007922804914414883,36.7147841,3.1817724,48.91,-1.05,-0.87,1.43,81,218,1.9835790395736694,1.3708240985870361
38,-0.01361900195479393,-2.469866991043091,0.014852750115096569,36.7147697,3.181758,46.66,-1.07,-0.88,1.43,80,218,2.000453233718872,1.3923572301864624
39,-0.05403897911310196,-2.4698164463043213,0.02369651198387146,36.7147527,3.1817409,44.05,-1.07,-0.88,1.44,80,218,2.0042505264282227,1.385637879371643
40,-0.025310752913355827,-2.4702529907226562,-0.022256720811128616,36.7147381,3.1817263,41.81,-1.07,-0.88,1.45,79,218,2.0159220695495605,1.391893982887268
41,-0.05132307484745979,-2.4704129695892334,0.024609452113509178,36.7147235,3.1817116,39.56,-1.06,-0.88,1.46,79,218,2.010681390762329,1.3801685571670532
42,-0.05775482952594757,-2.470036745071411,-0.014629433862864971,36.7147065,3.1816945,36.95,-1.06,-0.88,1.46,79,218,2.021522045135498,1.3891077041625977
43,-0.017548203468322754,-2.4693620204925537,0.022539401426911354,36.7146919,3.1816798,34.7,-1.06,-0.88,1.47,78,218,2.017010450363159,1.3785083293914795
44,-0.05671662837266922,-2.469593048095703,-0.017612941563129425,36.7146773,3.1816651,32.45,-1.05,-0.88,1.47,78,218,2.0174179077148438,1.379589319229126
45,-0.014869827777147293,-2.4701087474823,-0.014209936372935772,36.7146603,3.1816479,29.82,-1.07,-0.88,1.46,78,218,2.0229101181030273,1.3911471366882324
46,-0.05700388923287392,-2.470508575439453,0.019765151664614677,36.7146457,3.1816332,27.59,-1.06,-0.88,1.47,77,218,2.0240936279296875,1.3826775550842285
47,-0.04559212550520897,-2.469470977783203,-0.025962287560105324,36.7146287,3.181616,24.96,-1.06,-0.88,1.47,77,218,2.021714210510254,1.381941556930542
48,-0.018523428589105606,-2.4697086811065674,0.025758879259228706,36.7146141,3.1816014,22.7,-1.06,-0.88,1.47,77,218,2.015951156616211,1.378753423690796
49,-0.03936316445469856,-2.4697909355163574,-0.02233945019543171,36.7145995,3.1815866,20.46,-1.05,-0.88,1.47,76,218,2.0190181732177734,1.3794455528259277
50,-0.04930075258016586,-2.6943793296813965,-0.09026151895523071,36.7145816,3.1815701,17.84,-1.4,-0.67,1.42,76,205,2.1146273612976074,1.5588150024414062
51,-0.2661295533180237,2.7347278594970703,-0.06055278703570366,36.7145541,3.1815708,16.37,-2.82,1.04,0.29,75,156,3.024109363555908,3.0100109577178955
52,-0.18833427131175995,2.6801230907440186,-0.030467601493000984,36.7144973,3.181604,16.39,-4.05,2.02,-0.05,75,153,4.53493070602417,4.534570693969727
53,-0.061210375279188156,2.7516627311706543,0.12475897371768951,36.7144425,3.1816371,16.38,-3.86,1.54,0.06,75,157,4.16213321685791,4.161598205566406
54,-0.32808375358581543,-2.439269542694092,0.21086154878139496,36.7143886,3.1816361,16.34,-2.92,-2.27,0.03,74,220,3.7120039463043213,3.7118825912475586
55,-0.44667935371398926,-2.1522037982940674,0.032502006739377975,36.7143459,3.1815671,16.34,-3.65,-5.81,0.02,74,236,6.866979598999023,6.866948127746582
56,-0.48757660388946533,-2.149904251098633,-0.027905207127332687,36.7142882,3.1814528,16.35,-4.72,-7.48,0.0,73,236,8.85349178314209,8.85348892211914
57,-0.3798803389072418,-2.1516361236572266,0.021935122087597847,36.7142108,3.181302,16.36,-4.9,-7.57,0.0,73,236,9.022167205810547,9.02216625213623
58,-0.26172754168510437,-2.151003837585449,-0.017983021214604378,36.7141487,3.1811825,16.38,-4.18,-6.49,0.02,73,236,7.728779315948486,7.728732585906982
59,-0.2486349195241928,-2.1238081455230713,0.03529613837599754,36.7140899,3.1810651,16.35,-3.42,-5.69,0.02,72,238,6.643640995025635,6.643580913543701
60,-0.2906416952610016,-2.1028740406036377,-0.021983427926898003,36.7140452,3.1809699,16.35,-3.24,-5.64,0.01,72,239,6.508858680725098,6.508846282958984
61,-0.26108717918395996,-2.1001954078674316,0.03401647135615349,36.7140015,3.1808747,16.35,-3.22,-5.66,0.0,71,239,6.519001483917236,6.518993854522705
62,0.0033014488872140646,-2.100600481033325,-0.009146817959845066,36.7139557,3.1807749,16.34,-2.29,-4.02,0.03,71,239,4.633830547332764,4.6337056159973145
63,0.17542694509029388,-2.1008872985839844,0.011833814904093742,36.7139357,3.1807313,16.32,-0.65,-1.13,-0.01,71,239,1.3094146251678467,1.3093311786651611
64,-0.011962383054196835,-2.100839138031006,0.027160093188285828,36.7139335,3.1807261,16.33,0.1,0.15,0.01,70,239,0.18937833607196808,0.18864013254642487
