timestamp,pitch,yaw,roll,lat,lon,alt,velocity_x,velocity_y,velocity_z,battery,heading,airspeed,groundspeed
0,-0.021495671942830086,-0.034001439809799194,-0.006547183264046907,36.7156065,3.18463,29.13,-0.01,0.02,0.01,96,358,0.03155336529016495,0.025143392384052277
1,-0.019367190077900887,-0.025382690131664276,0.10793996602296829,36.7156078,3.1846328,29.0,0.29,0.59,-0.05,95,358,0.6681856513023376,0.6662127375602722
2,-0.2432326376438141,1.595477819442749,-0.1055145412683487,36.715618,3.1846577,29.05,1.32,2.55,-0.08,95,91,2.8821840286254883,2.8807878494262695
3,-0.21686474978923798,0.9273840188980103,0.019596852362155914,36.7156465,3.1847244,29.07,2.1,3.96,-0.03,94,53,4.495581150054932,4.495455741882324
4,-0.051684893667697906,1.045640468597412,0.012437216006219387,36.7156756,3.1847912,29.07,2.03,3.78,-0.02,94,59,4.297239780426025,4.29718017578125
5,0.3514258563518524,1.3285629749298096,0.14766442775726318,36.7156953,3.1848377,29.09,-0.12,0.13,-0.05,94,76,0.19010455906391144,0.18283838033676147
6,-0.07440564781427383,2.9030635356903076,0.17820914089679718,36.7156787,3.1848094,29.11,-2.04,-2.9,0.04,93,166,3.5513486862182617,3.5510976314544678
7,-0.13566471636295319,-1.9494472742080688,-0.005848537664860487,36.7156493,3.1847556,29.11,-2.25,-3.26,-0.07,93,248,3.971895217895508,3.971212863922119
8,-0.04729330167174339,-1.8239576816558838,0.18725328147411346,36.7156213,3.1846919,29.1,-0.78,-3.06,0.03,93,255,3.159712791442871,3.15954852104187
9,-0.33004796504974365,-0.695221483707428,0.09068530797958374,36.7156342,3.1846435,29.07,2.88,-2.87,0.0,92,320,4.071259498596191,4.071258544921875
10,-0.48340851068496704,-0.6169933676719666,0.04392659664154053,36.7157089,3.1845736,29.08,6.35,-4.45,0.0,92,324,7.7598876953125,7.7598876953125
11,-0.4878248870372772,-0.616627037525177,-0.027511024847626686,36.7158059,3.1844896,29.09,7.76,-5.37,0.0,91,324,9.445648193359375,9.445646286010742
12,-0.48473256826400757,-0.6201128959655762,-0.01400266494601965,36.7159123,3.1843964,29.11,7.83,-5.56,0.0,91,324,9.608546257019043,9.608542442321777
13,-0.13173918426036835,-0.6246973872184753,-0.014618922956287861,36.7160258,3.1842956,29.15,6.11,-4.37,0.01,91,324,7.522001266479492,7.521975994110107
14,0.054304350167512894,-0.8346256017684937,-0.1553059071302414,36.7160881,3.1842355,29.16,2.71,-2.98,-0.09,90,312,4.0413312911987305,4.040141582489014
15,-0.37750670313835144,-2.1119773387908936,-0.13111211359500885,36.7160914,3.1841734,29.9,-2.19,-3.91,-0.76,90,239,4.553948402404785,4.4897966384887695
16,-0.47206369042396545,-2.1723122596740723,0.04120189696550369,36.7160441,3.184088,31.54,-4.5,-6.38,-1.33,89,235,7.9336724281311035,7.819886684417725
17,-0.4410402774810791,-2.165604829788208,-0.008194572292268276,36.7159748,3.1839652,33.83,-5.46,-7.87,-1.6,89,235,9.719115257263184,9.586464881896973
18,-0.4828934669494629,-2.165639877319336,0.028682081028819084,36.7158869,3.1838056,36.7,-5.51,-8.17,-1.58,88,235,9.985482215881348,9.858305931091309
19,-0.43286868929862976,-2.163991928100586,0.027841588482260704,36.7158118,3.1836662,39.15,-5.51,-8.24,-1.6,88,236,10.048599243164062,9.919928550720215
20,-0.451917827129364,-2.162726402282715,-0.03164618834853172,36.7157373,3.1835274,41.64,-5.51,-8.26,-1.6,88,236,10.060554504394531,9.932381629943848
21,-0.47513315081596375,-2.1646077632904053,0.04352809861302376,36.7156498,3.1833644,44.53,-5.53,-8.28,-1.61,87,235,10.088748931884766,9.958468437194824
22,-0.422406941652298,-2.1645588874816895,-0.003982743714004755,36.715575,3.1832245,47.02,-5.52,-8.25,-1.62,87,235,10.061894416809082,9.929320335388184
23,-0.4946693480014801,-2.1647045612335205,0.017073623836040497,36.7154879,3.183062,49.94,-5.49,-8.26,-1.62,86,235,10.05938720703125,9.926765441894531
24,-0.44157034158706665,-2.166198968887329,0.03632455691695213,36.7154132,3.1829223,52.43,-5.52,-8.29,-1.64,86,235,10.105749130249023,9.971446990966797
25,-0.4804939031600952,-2.1652307510375977,-0.019503451883792877,36.715326,3.1827593,55.36,-5.5,-8.27,-1.63,85,235,10.074831008911133,9.941575050354004
26,-0.4812565743923187,-2.163419723510742,0.032789196819067,36.7152515,3.1826194,57.87,-5.51,-8.31,-1.63,85,236,10.109407424926758,9.976683616638184
27,-0.4264813959598541,-2.163933277130127,0.011650837026536465,36.7151767,3.1824794,60.37,-5.54,-8.31,-1.63,84,236,10.128313064575195,9.995072364807129
28,-0.4901334345340729,-2.1636712551116943,-0.002058146521449089,36.7150893,3.1823161,63.28,-5.52,-8.27,-1.64,84,236,10.085566520690918,9.950907707214355
29,-0.3263096213340759,-2.166588068008423,0.03138316050171852,36.7150158,3.1821794,65.75,-5.17,-7.67,-1.53,83,235,9.378863334655762,9.25198745727539
30,-0.09248512983322144,-2.165645122528076,-0.011249201372265816,36.7149469,3.1820515,68.03,-3.38,-5.1,-0.89,83,235,6.1854166984558105,6.120626449584961
31,-0.10657381266355515,-2.125145673751831,0.03718767687678337,36.7149101,3.1819794,68.9,-2.25,-3.73,-0.29,83,238,4.377320289611816,4.367490768432617
32,-0.1713745892047882,-2.087106466293335,0.023620789870619774,36.7148772,3.1819071,69.07,-1.98,-3.66,-0.01,82,240,4.173462867736816,4.173404693603516
33,-0.03636786714196205,-2.0880658626556396,-0.008909902535378933,36.7148504,3.1818466,69.06,-1.88,-3.44,-0.02,82,240,3.923321008682251,3.9232165813446045
34,0.023186830803751945,-2.1795122623443604,-0.03948357328772545,36.7148292,3.1818009,68.72,-1.26,-1.89,0.65,82,235,2.375157594680786,2.2843902111053467
35,-0.029938234016299248,-2.4861342906951904,-0.029722850769758224,36.7148109,3.1817768,66.46,-1.03,-0.81,1.49,81,217,1.9928126335144043,1.3221687078475952
36,-0.026597578078508377,-2.47111439704895,0.027627969160676003,36.7147969,3.1817636,64.2,-1.03,-0.8,1.42,81,218,1.9368683099746704,1.3078337907791138
37,-0.047869980335235596,-2.46987247467041,-0.024023596197366714,36.7147828,3.1817499,61.97,-1.06,-0.86,1.44,80,218,1.9905202388763428,1.3690869808197021
38,-0.008870212361216545,-2.4695584774017334,-0.003041749121621251,36.7147658,3.1817331,59.35,-1.07,-0.87,1.45,80,218,2.0107102394104004,1.3895262479782104
39,-0.05933903902769089,-2.469451665878296,0.009833280928432941,36.7147512,3.1817185,57.1,-1.07,-0.88,1.45,80,218,2.0125296115875244,1.3900498151779175
40,-0.04592178016901016,-2.469442129135132,-0.023801852017641068,36.7147343,3.1817014,54.48,-1.06,-0.88,1.46,79,218,2.0116384029388428,1.3828164339065552
41,-0.03214550390839577,-2.469573736190796,0.027854610234498978,36.7147198,3.1816867,52.25,-1.06,-0.88,1.47,79,218,2.0224719047546387,1.3834561109542847
42,-0.06345844268798828,-2.470146894454956,0.00773837324231863,36.7147027,3.1816696,49.62,-1.07,-0.89,1.47,79,218,2.0287349224090576,1.3939783573150635
43,-0.005826631560921669,-2.4690887928009033,0.0028769385535269976,36.7146881,3.1816548,47.37,-1.07,-0.88,1.47,78,218,2.0255486965179443,1.3879438638687134
44,-0.057684268802404404,-2.469458818435669,0.0075014871545135975,36.7146734,3.18164,45.13,-1.06,-0.88,1.48,78,218,2.0277645587921143,1.3834753036499023
45,-0.036818474531173706,-2.469566583633423,-0.02954322099685669,36.7146565,3.1816229,42.51,-1.06,-0.87,1.48,78,218,2.024503707885742,1.3770135641098022
46,-0.03760046139359474,-2.469883441925049,0.028542714193463326,36.714642,3.1816083,40.25,-1.06,-0.87,1.47,77,218,2.020129919052124,1.3766264915466309
47,-0.06619029492139816,-2.4694628715515137,0.0007589413435198367,36.7146249,3.181591,37.63,-1.06,-0.89,1.48,77,218,2.0326294898986816,1.3916161060333252
48,-0.007341658230870962,-2.4694721698760986,-0.003240068443119526,36.7146103,3.1815762,35.38,-1.06,-0.87,1.48,76,218,2.0237016677856445,1.378567099571228
49,-0.06219029799103737,-2.4693877696990967,0.0016258035320788622,36.7145957,3.1815616,33.12,-1.05,-0.88,1.47,76,218,2.018833637237549,1.3760603666305542
50,-0.07983256876468658,-2.7292251586914062,-0.11013893783092499,36.7145776,3.1815453,30.51,-1.44,-0.63,1.41,76,203,2.119696855545044,1.5815411806106567
51,-0.24085210263729095,2.717515468597412,-0.02442113123834133,36.7145492,3.1815474,29.13,-2.89,1.1,0.24,75,155,3.1069161891937256,3.0968852043151855
52,-0.21280412375926971,2.6803441047668457,-0.010301338508725166,36.714492,3.181581,29.16,-4.06,2.01,-0.04,75,153,4.537503242492676,4.537245750427246
53,-0.039503313601017,2.7690882682800293,0.10356840491294861,36.7144373,3.1816134,29.14,-3.86,1.47,0.06,75,158,4.136875152587891,4.136415004730225
54,-0.26039573550224304,-2.5981152057647705,0.2483288198709488,36.7143904,3.1816156,29.1,-2.97,-1.72,0.02,74,211,3.441777229309082,3.4416489601135254
55,-0.4611389636993408,-2.1498098373413086,-0.011662689968943596,36.7143405,3.1815386,29.1,-3.71,-5.89,0.02,74,236,6.969601154327393,6.969568729400635
56,-0.5138615965843201,-2.149754047393799,0.004457737319171429,36.7142822,3.1814235,29.1,-4.73,-7.53,0.0,73,236,8.898171424865723,8.898170471191406
57,-0.36894017457962036,-2.151315212249756,-0.021635843440890312,36.7142048,3.1812723,29.12,-4.88,-7.56,0.0,73,236,8.999625205993652,8.99962043762207
58,-0.2943103313446045,-2.1511006355285645,0.003296255599707365,36.7141431,3.1811536,29.13,-4.13,-6.43,0.02,73,236,7.648321628570557,7.648287296295166
59,-0.25282710790634155,-2.1275291442871094,0.030939534306526184,36.7140926,3.1810534,29.11,-3.45,-5.7,0.02,72,238,6.673761367797852,6.6737141609191895
60,-0.2987178564071655,-2.1028497219085693,0.026130951941013336,36.7140401,3.1809417,29.1,-3.23,-5.65,0.0,72,239,6.509671211242676,6.509668827056885
61,-0.2235858142375946,-2.099705457687378,-0.005262293387204409,36.7139964,3.1808462,29.1,-3.21,-5.63,0.0,71,239,6.483008861541748,6.483007907867432
62,0.034654781222343445,-2.100710391998291,0.027942543849349022,36.7139513,3.1807483,29.1,-2.24,-3.9,0.03,71,239,4.504083633422852,4.503979206085205
63,0.14774009585380554,-2.1009585857391357,-0.029582716524600983,36.7139323,3.1807069,29.08,-0.62,-1.08,-0.01,71,239,1.2506986856460571,1.2505483627319336
64,0.03158630430698395,-2.1005666255950928,0.009696416556835175,36.7139303,3.1807018,29.09,0.1,0.15,0.02,70,239,0.1847222000360489,0.18345005810260773
