timestamp,pitch,yaw,roll,lat,lon,alt,velocity_x,velocity_y,velocity_z,battery,heading,airspeed,groundspeed
0,-0.022576667368412018,-0.048748698085546494,0.01805894263088703,36.7156066,3.18463,24.38,-0.01,0.02,-0.14,96,357,0.15049877762794495,0.03057458996772766
1,-0.037565141916275024,-0.0526592917740345,0.06671535968780518,36.7156079,3.1846319,24.46,0.34,0.44,-0.08,95,356,0.5665459036827087,0.5606006383895874
2,-0.10864876210689545,1.3185615539550781,-0.06782502681016922,36.7156235,3.1846553,24.48,1.63,1.97,-0.03,95,73,2.3381853103637695,2.33786940574646
3,-0.10668036341667175,0.8228937387466431,0.020395055413246155,36.7156486,3.1846928,24.48,1.92,2.32,-0.01,95,47,3.016529083251953,3.016470193862915
4,0.284798800945282,0.742654025554657,-0.06546017527580261,36.7156694,3.1847219,24.47,0.65,0.57,-0.01,94,42,0.8757748007774353,0.8756684064865112
5,-0.04592416435480118,-0.9567502737045288,-0.20389758050441742,36.715656,3.184693,24.49,-2.03,-2.99,0.03,94,305,3.6271209716796875,3.6269521713256836
6,-0.16588246822357178,-2.389577865600586,0.017242619767785072,36.7156256,3.1846376,24.5,-2.31,-3.34,-0.06,93,223,4.071170330047607,4.070621490478516
7,-0.009681202471256256,-1.7860673666000366,0.16812697052955627,36.7155983,3.1845728,24.48,-0.58,-3.03,0.03,93,257,3.0929555892944336,3.0927584171295166
8,-0.375032514333725,-0.6700544953346252,0.1400584727525711,36.7156155,3.1845243,24.47,3.27,-2.95,0.0,93,321,4.410459041595459,4.410458087921143
9,-0.48343226313591003,-0.6118516325950623,-0.02416728064417839,36.7156816,3.1844638,24.47,6.26,-4.37,0.0,92,324,7.640452861785889,7.640451908111572
10,-0.5433810353279114,-0.6171703934669495,0.001837201532907784,36.7157778,3.1843801,24.49,7.73,-5.38,0.0,92,324,9.419512748718262,9.419512748718262
11,-0.40021976828575134,-0.6210471391677856,-0.008289825171232224,36.7159017,3.1842712,24.51,7.78,-5.52,0.0,91,324,9.542963027954102,9.542960166931152
12,-0.12058133631944656,-0.6259819865226746,0.026571832597255707,36.7160127,3.1841726,24.55,5.83,-4.18,0.04,91,324,7.181216716766357,7.181100845336914
13,0.10250335186719894,-0.9351108074188232,-0.23705850541591644,36.7160699,3.1841148,24.59,2.2,-2.92,-0.13,91,306,3.670896530151367,3.668412208557129
14,-0.36006081104278564,-2.103231906890869,-0.08403842896223068,36.7160704,3.1840623,25.25,-2.02,-3.81,-0.72,90,239,4.383012771606445,4.322518348693848
15,-0.47699400782585144,-2.1653389930725098,-0.03585854917764664,36.7160142,3.1839605,27.18,-4.67,-6.66,-1.37,90,235,8.258672714233398,8.142837524414062
16,-0.4958645701408386,-2.164947748184204,0.022282902151346207,36.7159436,3.1838346,29.51,-5.48,-7.93,-1.6,89,235,9.779722213745117,9.646711349487305
17,-0.4257059395313263,-2.1638927459716797,-0.002388998167589307,36.7158559,3.1836746,32.39,-5.54,-8.18,-1.57,89,236,10.007171630859375,9.881979942321777
18,-0.48850399255752563,-2.1640961170196533,-0.020420465618371964,36.7157809,3.1835355,34.85,-5.55,-8.24,-1.57,88,236,10.065099716186523,9.940569877624512
19,-0.4743533134460449,-2.165738105773926,0.03569634631276131,36.7157057,3.183396,37.32,-5.53,-8.26,-1.59,88,235,10.073771476745605,9.946015357971191
20,-0.4412410855293274,-2.1631181240081787,-0.03190070390701294,36.7156187,3.1832331,40.23,-5.5,-8.27,-1.6,87,236,10.065483093261719,9.936382293701172
21,-0.4988327920436859,-2.1644530296325684,-0.008317171595990658,36.715544,3.1830939,42.72,-5.54,-8.29,-1.6,87,235,10.10525131225586,9.976908683776855
22,-0.42119666934013367,-2.1640615463256836,0.013486254028975964,36.7154565,3.1829306,45.63,-5.5,-8.27,-1.62,87,236,10.072430610656738,9.940196990966797
23,-0.4665539264678955,-2.164613962173462,-0.025287622585892677,36.7153818,3.182791,48.13,-5.5,-8.28,-1.62,86,235,10.079994201660156,9.94784927368164
24,-0.4907477796077728,-2.163046360015869,0.01434303168207407,36.7153075,3.1826513,50.64,-5.51,-8.31,-1.62,86,236,10.10935115814209,9.977922439575195
25,-0.4251575469970703,-2.1661875247955322,-0.004619492217898369,36.7152201,3.182488,53.56,-5.55,-8.3,-1.62,85,235,10.121962547302246,9.990002632141113
26,-0.47342801094055176,-2.165224075317383,-0.0160139799118042,36.715145,3.182348,56.05,-5.51,-8.28,-1.63,85,235,10.081062316894531,9.94769287109375
27,-0.4389333724975586,-2.164055824279785,0.03175049647688866,36.7150581,3.1821854,58.98,-5.5,-8.3,-1.63,84,236,10.099199295043945,9.965734481811523
28,-0.29447731375694275,-2.1663942337036133,-0.023852910846471786,36.7149854,3.1820496,61.43,-5.06,-7.51,-1.49,84,235,9.187042236328125,9.065056800842285
29,-0.05346815660595894,-2.1645474433898926,0.03314179182052612,36.7149191,3.1819265,63.58,-3.2,-4.82,-0.8,83,235,5.845227241516113,5.78928804397583
30,-0.132366344332695,-2.117478847503662,-0.008288189768791199,36.7148841,3.1818573,64.34,-2.19,-3.7,-0.23,83,238,4.316270351409912,4.3096513748168945
31,-0.1505691260099411,-2.087517261505127,0.037042152136564255,36.7148562,3.1817959,64.46,-2.0,-3.68,-0.01,83,240,4.192949295043945,4.192933559417725
32,-0.057025037705898285,-2.0865538120269775,-0.009766352362930775,36.7148251,3.1817251,64.45,-1.8,-3.31,-0.01,82,240,3.7699899673461914,3.7699668407440186
33,0.057282011955976486,-2.2197656631469727,-0.03970477730035782,36.7148048,3.1816825,63.97,-1.23,-1.71,0.81,82,232,2.2610666751861572,2.110750436782837
34,-0.04169989004731178,-2.4860265254974365,0.021684110164642334,36.7147869,3.1816604,61.57,-1.02,-0.79,1.46,82,217,1.9593533277511597,1.2976534366607666
35,-0.023417886346578598,-2.4728639125823975,-0.019642723724246025,36.7147729,3.1816474,59.33,-1.04,-0.81,1.42,81,218,1.9465875625610352,1.326340913772583
36,-0.05339725315570831,-2.4706594944000244,0.026700466871261597,36.7147586,3.1816335,57.09,-1.05,-0.86,1.44,81,218,1.982864260673523,1.3622002601623535
37,-0.05538783594965935,-2.469949960708618,-0.0180013719946146,36.7147417,3.1816166,54.46,-1.07,-0.88,1.44,80,218,2.0028772354125977,1.3919364213943481
38,-0.020110925659537315,-2.4701242446899414,0.025358665734529495,36.7147272,3.1816021,52.22,-1.07,-0.88,1.44,80,218,2.0077273845672607,1.3897981643676758
39,-0.06096074357628822,-2.4697766304016113,0.014980936422944069,36.7147102,3.1815849,49.61,-1.06,-0.88,1.46,80,218,2.017277717590332,1.3865669965744019
40,-0.01451956108212471,-2.469862699508667,-0.012764173559844494,36.7146956,3.1815703,47.36,-1.08,-0.89,1.46,79,218,2.0276522636413574,1.4004788398742676
41,-0.05926842987537384,-2.470283269882202,0.015071434900164604,36.714681,3.1815556,45.12,-1.06,-0.88,1.46,79,218,2.0188748836517334,1.3849271535873413
42,-0.04687868431210518,-2.470057249069214,-0.019331149756908417,36.714664,3.1815385,42.5,-1.07,-0.88,1.47,79,218,2.0308573246002197,1.3910046815872192
43,-0.030751753598451614,-2.469670534133911,0.02792930230498314,36.7146494,3.1815238,40.25,-1.05,-0.88,1.47,78,218,2.0208568572998047,1.3778449296951294
44,-0.061823055148124695,-2.4700183868408203,0.010954471305012703,36.7146324,3.1815066,37.62,-1.06,-0.88,1.47,78,218,2.0228354930877686,1.3850209712982178
45,-0.009848639369010925,-2.4697928428649902,-0.0012041069567203522,36.7146179,3.1814919,35.38,-1.06,-0.88,1.47,78,218,2.0295300483703613,1.3890650272369385
46,-0.06143368035554886,-2.4703562259674072,0.0011662645265460014,36.7146032,3.1814771,33.13,-1.05,-0.88,1.47,77,218,2.0227677822113037,1.3804348707199097
47,-0.03102007694542408,-2.4698476791381836,-0.0224318690598011,36.7145862,3.1814601,30.5,-1.06,-0.88,1.47,77,218,2.0228114128112793,1.3879660367965698
48,-0.03466644883155823,-2.4699084758758545,0.029766200110316277,36.7145716,3.1814453,28.25,-1.05,-0.88,1.47,77,218,2.019336223602295,1.3772143125534058
49,-0.06882510334253311,-2.6862480640411377,-0.10154552757740021,36.7145561,3.1814312,26.01,-1.39,-0.68,1.43,76,206,2.112196445465088,1.5530409812927246
50,-0.21020467579364777,2.686363458633423,-0.04131437838077545,36.7145222,3.1814349,24.47,-3.09,1.32,0.12,76,153,3.3692269325256348,3.3670859336853027
51,-0.20837627351284027,2.679595708847046,-0.007245279382914305,36.7144722,3.1814648,24.54,-4.04,2.0,-0.05,75,153,4.519753456115723,4.519418239593506
52,-0.028975743800401688,2.81980037689209,0.10242132842540741,36.7144086,3.1815018,24.53,-3.76,1.23,0.06,75,161,3.968271255493164,3.9677462577819824
53,-0.30942726135253906,-2.445042133331299,0.24461284279823303,36.7143633,3.1814974,24.49,-2.91,-2.23,0.03,75,219,3.6718227863311768,3.67169189453125
54,-0.492748498916626,-2.1405560970306396,-0.024342700839042664,36.7143123,3.1814121,24.49,-3.89,-6.2,0.02,74,237,7.324462413787842,7.324434280395508
55,-0.4900102913379669,-2.1476523876190186,0.02470332942903042,36.7142525,3.1812937,24.5,-4.79,-7.58,0.0,74,236,8.972721099853516,8.9727201461792
56,-0.3680945038795471,-2.151630401611328,-0.003032900393009186,36.7141857,3.181164,24.51,-4.9,-7.57,0.0,73,236,9.02332878112793,9.023327827453613
57,-0.2676386535167694,-2.1491475105285645,0.03514773026108742,36.7141145,3.1810266,24.52,-4.03,-6.31,0.03,73,236,7.497559547424316,7.497498989105225
58,-0.24726378917694092,-2.1240711212158203,0.011520761996507645,36.7140648,3.180927,24.5,-3.45,-5.7,0.02,73,238,6.667470932006836,6.667418003082275
59,-0.2852917015552521,-2.1017725467681885,0.037520721554756165,36.7140126,3.1808156,24.49,-3.22,-5.64,0.0,72,239,6.504082679748535,6.504075050354004
60,-0.20769913494586945,-2.1001548767089844,-0.011902373284101486,36.713969,3.1807206,24.49,-3.19,-5.59,0.0,72,239,6.437017917633057,6.437017440795898
61,0.09576717019081116,-2.1004018783569336,0.026477089151740074,36.7139253,3.1806258,24.48,-2.05,-3.58,0.03,71,239,4.134671688079834,4.134485721588135
62,0.12264634668827057,-2.100262403488159,-0.026056719943881035,36.7139089,3.1805897,24.47,-0.45,-0.81,-0.02,71,239,0.9362450838088989,0.9360001683235168
63,0.013906673528254032,-2.100764751434326,0.025827141478657722,36.7139078,3.180587,24.48,0.12,0.16,0.01,71,239,0.20507365465164185,0.20442235469818115
