timestamp,pitch,yaw,roll,lat,lon,alt,velocity_x,velocity_y,velocity_z,battery,heading,airspeed,groundspeed
0,-0.013906879350543022,0.03563171625137329,-0.015452486462891102,36.7156066,3.18463,21.17,-0.01,0.01,-0.01,96,2,0.033550798892974854,0.02702542208135128
1,-0.05769699811935425,0.053336113691329956,0.11622597277164459,36.7156083,3.1846326,21.11,0.41,0.58,-0.02,95,3,0.7167073488235474,0.7160824537277222
2,-0.2666337788105011,1.3296536207199097,-0.0893469899892807,36.7156232,3.184657,21.16,1.88,2.5,-0.09,95,76,3.133148193359375,3.131610631942749
3,-0.20506630837917328,0.9435858130455017,-0.03310288488864899,36.7156616,3.1847201,21.15,2.8,3.63,-0.02,95,54,4.593383312225342,4.593321800231934
4,-0.03940337896347046,0.9072385430335999,0.02307896874845028,36.7156995,3.1847805,21.16,2.59,3.31,-0.01,94,51,4.207644462585449,4.207627773284912
5,0.32549023628234863,0.6017777919769287,-0.10150619596242905,36.7157232,3.1848158,21.19,-0.18,-0.44,-0.03,94,34,0.4889947772026062,0.48763927817344666
6,-0.04020964354276657,-0.970686674118042,-0.1983359456062317,36.7157051,3.1847816,21.18,-2.11,-3.06,0.05,93,304,3.7248153686523438,3.7243428230285645
7,-0.08601108193397522,-2.4191014766693115,0.06319001317024231,36.7156699,3.1847175,21.21,-2.21,-3.29,-0.02,93,221,3.965034008026123,3.9649789333343506
8,-0.037563808262348175,-1.7642723321914673,0.17306996881961823,36.7156493,3.1846635,21.17,-0.46,-2.97,0.03,93,258,3.0068583488464355,3.0066604614257812
9,-0.34003689885139465,-0.6595655679702759,0.11049957573413849,36.7156681,3.1846158,21.16,3.29,-2.93,0.0,92,322,4.410648345947266,4.410646438598633
10,-0.5009306073188782,-0.6107575297355652,-0.019120005890727043,36.7157338,3.1845557,21.16,6.27,-4.35,0.0,92,325,7.6357102394104,7.635709762573242
11,-0.4822304844856262,-0.6176207661628723,0.02887166105210781,36.7158476,3.1844575,21.18,7.81,-5.42,0.0,91,324,9.513374328613281,9.513371467590332
12,-0.4296512007713318,-0.6200980544090271,-0.013200768269598484,36.7159716,3.1843491,21.2,7.66,-5.41,-0.01,91,324,9.384747505187988,9.384737968444824
13,-0.11509773135185242,-0.6215353012084961,0.02356977015733719,36.7160655,3.1842664,21.23,5.9,-4.18,0.02,91,324,7.2367939949035645,7.2367401123046875
14,0.0730738490819931,-0.9080958366394043,-0.23844705522060394,36.7161237,3.1842083,21.27,2.31,-2.94,-0.13,90,307,3.749418258666992,3.7469775676727295
15,-0.33606812357902527,-2.128990888595581,-0.08632022887468338,36.7161204,3.1841447,22.1,-2.52,-4.09,-0.82,90,238,4.877954006195068,4.807759761810303
16,-0.5045522451400757,-2.1669862270355225,-0.019155703485012054,36.7160701,3.1840554,23.82,-4.65,-6.58,-1.37,89,235,8.179920196533203,8.063868522644043
17,-0.4341556429862976,-2.1624197959899902,0.027115968987345695,36.7159872,3.1839077,26.56,-5.51,-8.01,-1.61,89,236,9.863801002502441,9.730489730834961
18,-0.44744399189949036,-2.165386199951172,-0.025046324357390404,36.7159119,3.1837702,29.02,-5.54,-8.18,-1.58,88,235,10.008541107177734,9.882598876953125
19,-0.49247506260871887,-2.1633684635162354,-0.010271517559885979,36.7158369,3.1836311,31.49,-5.54,-8.26,-1.58,88,236,10.07966423034668,9.954899787902832
20,-0.422598659992218,-2.164339303970337,0.011436129920184612,36.7157494,3.1834681,34.37,-5.52,-8.25,-1.6,88,236,10.059510231018066,9.930994987487793
21,-0.4449996054172516,-2.164794683456421,-0.027433453127741814,36.7156744,3.1833285,36.84,-5.52,-8.25,-1.61,87,235,10.06687068939209,9.93586254119873
22,-0.46337562799453735,-2.1632144451141357,0.039287641644477844,36.7155875,3.183166,39.76,-5.48,-8.26,-1.62,87,236,10.048884391784668,9.916622161865234
23,-0.45480650663375854,-2.1640491485595703,0.03459613025188446,36.7155255,3.18305,41.85,-5.52,-8.3,-1.62,86,236,10.109009742736816,9.977718353271484
24,-0.46796074509620667,-2.1648545265197754,-0.025200696662068367,36.7154379,3.1828864,44.76,-5.51,-8.3,-1.63,86,235,10.10175609588623,9.969223022460938
25,-0.44704267382621765,-2.164581537246704,0.03995108604431152,36.7153508,3.1827233,47.67,-5.51,-8.24,-1.64,85,235,10.056694030761719,9.92195987701416
26,-0.4328412115573883,-2.1649060249328613,-0.011965020559728146,36.7152762,3.1825839,50.18,-5.53,-8.3,-1.63,85,235,10.112826347351074,9.97955322265625
27,-0.48192650079727173,-2.164689302444458,0.025364192202687263,36.7151888,3.1824203,53.11,-5.51,-8.3,-1.63,84,235,10.101323127746582,9.967704772949219
28,-0.4353330433368683,-2.1651499271392822,0.034393444657325745,36.7151142,3.1822807,55.61,-5.51,-8.28,-1.63,84,235,10.091789245605469,9.957772254943848
29,-0.30076301097869873,-2.1674914360046387,-0.02273975871503353,36.7150413,3.182145,58.06,-5.08,-7.55,-1.5,84,235,9.227849006652832,9.10486125946045
30,-0.06786786764860153,-2.165112018585205,0.03761085495352745,36.7149746,3.1820209,60.24,-3.24,-4.88,-0.82,83,235,5.922192573547363,5.86476993560791
31,-0.1408674269914627,-2.129079818725586,-0.009784195572137833,36.7149387,3.1819511,61.02,-2.26,-3.71,-0.25,83,238,4.353454113006592,4.346192359924316
32,-0.12333860248327255,-2.101722478866577,0.016963234171271324,36.7149053,3.1818793,61.15,-2.06,-3.66,0.0,82,239,4.206972122192383,4.206968307495117
33,-0.061250247061252594,-2.103191614151001,-0.01403069868683815,36.7148777,3.181819,61.14,-1.87,-3.33,-0.01,82,239,3.8265936374664307,3.826573133468628
34,0.05133351683616638,-2.2186625003814697,-0.02614893950521946,36.7148567,3.1817759,60.7,-1.26,-1.74,0.76,82,232,2.2865073680877686,2.1557912826538086
35,-0.048970043659210205,-2.4860222339630127,0.01652943715453148,36.7148385,3.1817535,58.34,-1.03,-0.81,1.47,81,217,1.9767078161239624,1.3144515752792358
36,-0.012538217939436436,-2.4719035625457764,-0.007994530722498894,36.7148245,3.1817405,56.09,-1.04,-0.82,1.42,81,218,1.946103572845459,1.3264728784561157
37,-0.028001494705677032,-2.4700896739959717,0.029157407581806183,36.7148079,3.1817242,53.48,-1.05,-0.86,1.44,81,218,1.9912933111190796,1.3685308694839478
38,-0.039349641650915146,-2.469496726989746,-0.028221001848578453,36.7147934,3.1817096,51.23,-1.07,-0.88,1.45,80,218,2.009434223175049,1.3898565769195557
39,-0.00861248467117548,-2.4691078662872314,0.008613315410912037,36.7147765,3.1816926,48.62,-1.08,-0.87,1.45,80,218,2.0132384300231934,1.3924682140350342
40,-0.06255665421485901,-2.469778299331665,0.0016824692720547318,36.7147619,3.181678,46.38,-1.07,-0.88,1.46,79,218,2.0182406902313232,1.3871122598648071
41,-0.008796983398497105,-2.469560146331787,0.008534354157745838,36.7147473,3.1816633,44.13,-1.07,-0.87,1.46,79,218,2.019934892654419,1.3865022659301758
42,-0.04677380993962288,-2.4700028896331787,0.026247594505548477,36.7147303,3.1816462,41.5,-1.06,-0.88,1.46,79,218,2.020810842514038,1.3898451328277588
43,-0.015747832134366035,-2.4691426753997803,-0.01757396198809147,36.7147157,3.1816314,39.26,-1.07,-0.89,1.47,78,218,2.031755208969116,1.400040864944458
44,-0.010408700443804264,-2.469278573989868,0.01795014552772045,36.7146986,3.1816142,36.64,-1.06,-0.88,1.48,78,218,2.026341438293457,1.3838657140731812
45,-0.05276253819465637,-2.4692766666412354,-0.020799601450562477,36.7146841,3.1815995,34.39,-1.06,-0.88,1.47,78,218,2.0233476161956787,1.3855146169662476
46,-0.017110850661993027,-2.4695606231689453,0.024642465636134148,36.7146695,3.1815848,32.14,-1.06,-0.88,1.47,77,218,2.0239779949188232,1.3850129842758179
47,-0.06423743814229965,-2.4695820808410645,0.013491393998265266,36.7146525,3.1815676,29.52,-1.06,-0.88,1.48,77,218,2.028879165649414,1.3853687047958374
48,-0.010400474071502686,-2.4696617126464844,-0.011435629799962044,36.7146379,3.1815528,27.27,-1.06,-0.87,1.47,77,218,2.023104429244995,1.3798972368240356
49,-0.06266617029905319,-2.4695191383361816,0.004683013539761305,36.7146233,3.1815382,25.01,-1.06,-0.88,1.47,76,218,2.0239462852478027,1.3860632181167603
50,-0.09101088345050812,-2.812985420227051,-0.11738952249288559,36.7146046,3.1815222,22.41,-1.53,-0.54,1.36,76,198,2.1269338130950928,1.6297988891601562
51,-0.23387940227985382,2.6872637271881104,-0.014013033360242844,36.7145746,3.1815271,21.18,-3.01,1.28,0.16,75,153,3.278357982635498,3.2744500637054443
52,-0.19502714276313782,2.673053503036499,-0.013083105906844139,36.7145167,3.1815621,21.24,-4.01,2.03,-0.03,75,153,4.500448226928711,4.500343322753906
53,-0.02287624217569828,2.8128721714019775,0.13349083065986633,36.714463,3.1815936,21.21,-3.74,1.26,0.06,75,161,3.9552078247070312,3.954747438430786
54,-0.3668305575847626,-2.291194200515747,0.1843917816877365,36.7144112,3.1815826,21.18,-2.91,-2.88,0.02,74,228,4.101658821105957,4.101598739624023
55,-0.45166024565696716,-2.142106294631958,-0.010995048098266125,36.7143669,3.1815051,21.18,-3.88,-6.16,0.01,74,237,7.282932281494141,7.2829132080078125
56,-0.5081217885017395,-2.146881341934204,-0.024237962439656258,36.7143072,3.1813872,21.18,-4.8,-7.59,0.0,73,237,8.989426612854004,8.989426612854004
57,-0.341039776802063,-2.1514687538146973,0.0018687467090785503,36.7142296,3.1812362,21.2,-4.83,-7.45,0.0,73,236,8.881697654724121,8.881692886352539
58,-0.26409921050071716,-2.1501872539520264,-0.016069136559963226,36.7141691,3.1811198,21.21,-4.06,-6.32,0.02,73,236,7.523397922515869,7.523350238800049
59,-0.24515219032764435,-2.1241044998168945,0.013465738855302334,36.7141113,3.181004,21.18,-3.42,-5.68,0.01,72,238,6.6435627937316895,6.643537521362305
60,-0.3057526648044586,-2.109294891357422,-0.009757495485246181,36.7140661,3.1809086,21.18,-3.29,-5.62,0.0,72,239,6.520597457885742,6.520592212677002
61,-0.21557867527008057,-2.1085681915283203,0.029568903148174286,36.7140216,3.1808136,21.18,-3.24,-5.56,0.0,71,239,6.437386512756348,6.4373860359191895
62,0.04697924107313156,-2.1089837551116943,0.006620222702622414,36.7139773,3.1807192,21.17,-2.1,-3.61,0.03,71,239,4.184652805328369,4.184495449066162
63,0.16704106330871582,-2.1090688705444336,-0.0006957462173886597,36.7139603,3.1806826,21.16,-0.49,-0.84,-0.02,71,239,0.9833287000656128,0.9831024408340454
64,0.0010058068437501788,-2.1090385913848877,0.044268690049648285,36.7139592,3.1806799,21.16,0.11,0.14,0.03,70,239,0.19362297654151917,0.1906367987394333
