timestamp,pitch,yaw,roll,lat,lon,alt,velocity_x,velocity_y,velocity_z,battery,heading,airspeed,groundspeed
0,0.028169341385364532,0.03507879748940468,-0.011662022210657597,36.7156067,3.1846299,24.26,-0.03,0.02,-0.16,96,2,0.16593769192695618,0.04194315895438194
1,-0.06252695620059967,0.03340214490890503,0.13214516639709473,36.7156075,3.1846327,24.33,0.2,0.62,-0.07,95,1,0.6663241386413574,0.6622543931007385
2,-0.23757097125053406,1.651026725769043,-0.1270388960838318,36.7156159,3.1846584,24.37,1.03,2.73,-0.08,95,94,2.9288218021392822,2.9274604320526123
3,-0.19130852818489075,1.0264911651611328,0.004323787521570921,36.7156381,3.1847316,24.35,1.64,4.4,0.0,95,58,4.700010776519775,4.700000762939453
4,-0.1354319453239441,1.161405086517334,0.016024840995669365,36.7156617,3.1848064,24.35,1.72,4.26,0.0,94,66,4.6061296463012695,4.606123447418213
5,0.2970505356788635,1.4171751737594604,0.09406440705060959,36.7156799,3.1848657,24.35,0.07,0.89,-0.04,94,81,0.9003408551216125,0.8992247581481934
6,-0.09303846210241318,3.128237009048462,0.2302260845899582,36.7156659,3.184846,24.37,-1.95,-2.75,0.0,93,179,3.3741097450256348,3.37410831451416
7,-0.1461641490459442,-1.9814488887786865,0.01037162821739912,36.7156318,3.1847832,24.36,-2.25,-3.28,-0.06,93,246,3.9799344539642334,3.9793241024017334
8,-0.028121422976255417,-1.8993115425109863,0.10650760680437088,36.7156067,3.1847281,24.35,-1.11,-3.12,0.04,93,251,3.315762758255005,3.315502643585205
9,-0.3147147595882416,-0.7678650617599487,0.17518149316310883,36.7156137,3.1846792,24.32,2.41,-2.78,0.0,92,316,3.688924789428711,3.688924551010132
10,-0.521449089050293,-0.6063362956047058,-0.002093520015478134,36.7156826,3.1846128,24.33,6.09,-4.23,0.01,92,325,7.418752670288086,7.418746471405029
11,-0.5086460113525391,-0.6157711148262024,0.034802958369255066,36.7157771,3.1845315,24.34,7.66,-5.29,0.0,91,324,9.312736511230469,9.31273365020752
12,-0.4440658688545227,-0.6173646450042725,-0.01660189777612686,36.7158833,3.1844392,24.36,7.9,-5.57,0.0,91,324,9.674070358276367,9.674070358276367
13,-0.21640080213546753,-0.6210426092147827,0.02341121807694435,36.7160003,3.1843362,24.39,6.48,-4.6,0.0,91,324,7.950424671173096,7.9504241943359375
14,0.07667079567909241,-0.7502047419548035,-0.16602343320846558,36.7160692,3.1842726,24.39,3.33,-3.1,-0.04,90,317,4.554584503173828,4.554346561431885
15,-0.29938364028930664,-2.0667591094970703,-0.12078115344047546,36.7160825,3.1842124,24.99,-1.68,-3.61,-0.66,90,241,4.0412774085998535,3.986713171005249
16,-0.4853057265281677,-2.1810669898986816,-0.013144728727638721,36.71604,3.1841332,26.49,-4.27,-6.02,-1.26,89,235,7.493573188781738,7.385773658752441
17,-0.45140036940574646,-2.164794921875,0.044093675911426544,36.7159607,3.1839925,29.11,-5.44,-7.89,-1.61,89,235,9.72436809539795,9.589692115783691
18,-0.4470933675765991,-2.1661133766174316,-0.024973776191473007,36.7158856,3.1838561,31.59,-5.53,-8.13,-1.58,88,235,9.964944839477539,9.83800983428955
19,-0.4949755370616913,-2.164618492126465,-0.010324729606509209,36.7158104,3.1837171,34.05,-5.54,-8.25,-1.58,88,235,10.072158813476562,9.946772575378418
20,-0.42409369349479675,-2.164766550064087,0.011131319217383862,36.715723,3.1835542,36.93,-5.52,-8.25,-1.6,88,235,10.06215763092041,9.93340015411377
21,-0.44946470856666565,-2.1639444828033447,-0.026636898517608643,36.7156482,3.1834146,39.41,-5.52,-8.26,-1.61,87,236,10.075343132019043,9.94547176361084
22,-0.4581194818019867,-2.1638920307159424,0.03562485799193382,36.7155611,3.1832522,42.32,-5.52,-8.27,-1.62,87,236,10.08376693725586,9.952293395996094
23,-0.4461449980735779,-2.1647701263427734,0.03946975991129875,36.7154987,3.1831358,44.4,-5.51,-8.29,-1.62,86,235,10.094596862792969,9.962653160095215
24,-0.4755432605743408,-2.162710189819336,-0.029321659356355667,36.7154117,3.1829725,47.32,-5.51,-8.28,-1.62,86,236,10.084568977355957,9.95261001586914
25,-0.43987172842025757,-2.165684700012207,0.03730219230055809,36.7153243,3.1828094,50.23,-5.54,-8.29,-1.64,85,235,10.111200332641602,9.977011680603027
26,-0.43026667833328247,-2.1648378372192383,-0.012533190660178661,36.7152494,3.1826695,52.73,-5.5,-8.27,-1.64,85,235,10.072531700134277,9.937220573425293
27,-0.4820784032344818,-2.1654489040374756,0.03845663368701935,36.7151624,3.1825067,55.66,-5.51,-8.3,-1.64,84,235,10.102224349975586,9.967724800109863
28,-0.431008517742157,-2.1622767448425293,0.016965238377451897,36.7150879,3.1823667,58.16,-5.52,-8.29,-1.64,84,236,10.106171607971191,9.971952438354492
29,-0.3630363345146179,-2.166945457458496,-0.031532514840364456,36.7150137,3.1822285,60.65,-5.33,-7.88,-1.57,83,235,9.6525239944458,9.523972511291504
30,-0.07852863520383835,-2.1671395301818848,0.031004156917333603,36.7149412,3.1820942,63.06,-3.63,-5.42,-1.0,83,235,6.604355335235596,6.526805400848389
31,-0.10987725108861923,-2.141239881515503,-0.009353768080472946,36.7149017,3.1820184,64.08,-2.36,-3.8,-0.36,83,237,4.496249198913574,4.481752395629883
32,-0.12116384506225586,-2.103752851486206,0.01210194081068039,36.7148673,3.181946,64.32,-2.08,-3.66,-0.01,82,239,4.21486759185791,4.214842796325684
33,-0.115723617374897,-2.1035590171813965,-0.008276131004095078,36.7148393,3.1818848,64.31,-2.0,-3.55,-0.02,82,239,4.080188751220703,4.080089569091797
34,0.07329506427049637,-2.1543161869049072,-0.0167269017547369,36.7148162,3.1818358,64.1,-1.36,-2.14,0.45,82,236,2.579561471939087,2.5398669242858887
35,-0.011992517858743668,-2.4756500720977783,0.009752928279340267,36.7147972,3.1818087,62.08,-1.07,-0.88,1.5,81,218,2.0463719367980957,1.3895848989486694
36,-0.01932358369231224,-2.467527389526367,-0.02150532603263855,36.7147831,3.1817955,59.81,-1.04,-0.81,1.42,81,218,1.9465614557266235,1.321962833404541
37,-0.018422476947307587,-2.4694950580596924,0.022560708224773407,36.7147667,3.1817796,57.2,-1.05,-0.86,1.44,80,218,1.9839767217636108,1.3629095554351807
38,-0.05202724412083626,-2.46954345703125,-0.020965026691555977,36.7147522,3.1817651,54.95,-1.06,-0.88,1.44,80,218,2.006624460220337,1.3893250226974487
39,-0.018777189776301384,-2.4692542552948,0.021311987191438675,36.7147377,3.1817505,52.71,-1.07,-0.88,1.45,80,218,2.012855052947998,1.3911062479019165
40,-0.05826027691364288,-2.4698548316955566,0.016708513721823692,36.7147207,3.1817334,50.09,-1.06,-0.88,1.46,79,218,2.0136630535125732,1.3867498636245728
41,-0.011251893825829029,-2.469755172729492,-0.009839926846325397,36.7147061,3.1817187,47.85,-1.08,-0.89,1.46,79,218,2.028402328491211,1.4025629758834839
42,-0.02454308234155178,-2.469602584838867,0.02377232536673546,36.7146891,3.1817015,45.23,-1.06,-0.88,1.47,79,218,2.0210273265838623,1.3848952054977417
43,-0.038653235882520676,-2.4692018032073975,-0.025865551084280014,36.7146745,3.1816868,42.99,-1.07,-0.88,1.48,78,218,2.0343873500823975,1.3937908411026
44,-0.009616908617317677,-2.469515323638916,-0.004124172031879425,36.7146575,3.1816696,40.37,-1.07,-0.87,1.48,78,218,2.0332107543945312,1.3902597427368164
45,-0.06303931027650833,-2.4698147773742676,0.005740846041589975,36.7146428,3.1816549,38.11,-1.06,-0.89,1.48,78,218,2.031630516052246,1.3898611068725586
46,-0.007731213700026274,-2.4699389934539795,0.00463717058300972,36.7146283,3.1816402,35.86,-1.07,-0.87,1.48,77,218,2.0296630859375,1.3884837627410889
47,-0.04005543142557144,-2.469532012939453,0.02459605783224106,36.7146113,3.181623,33.24,-1.06,-0.87,1.47,77,218,2.020338296890259,1.377671480178833
48,-0.03263620287179947,-2.4694552421569824,-0.026471855118870735,36.7145967,3.1816083,30.98,-1.07,-0.88,1.47,76,218,2.0263278484344482,1.3911951780319214
49,-0.042348649352788925,-2.469508647918701,0.02483299933373928,36.7145821,3.1815935,28.73,-1.06,-0.87,1.47,76,218,2.0195159912109375,1.3805005550384521
50,-0.09766637533903122,-2.5970969200134277,-0.07320227473974228,36.7145646,3.1815767,26.11,-1.29,-0.75,1.46,76,211,2.0923664569854736,1.498360276222229
51,-0.1974199116230011,2.788321018218994,-0.07724303007125854,36.7145391,3.1815744,24.46,-2.59,0.8,0.45,75,159,2.7592554092407227,2.721388339996338
52,-0.21533489227294922,2.6802492141723633,0.018841572105884552,36.7144846,3.1816052,24.4,-4.02,1.97,-0.06,75,153,4.477578639984131,4.477132797241211
53,-0.07362143695354462,2.7180662155151367,0.04831153526902199,36.7144298,3.1816387,24.4,-3.95,1.74,0.06,75,155,4.320328235626221,4.319762706756592
54,-0.21779146790504456,-2.5749664306640625,0.27169790863990784,36.7143742,3.1816448,24.35,-2.96,-1.75,0.03,74,212,3.4476776123046875,3.447526693344116
55,-0.4840601086616516,-2.169633626937866,0.01839512214064598,36.7143322,3.1815832,24.35,-3.48,-5.45,0.02,74,235,6.478931427001953,6.478878974914551
56,-0.5035455226898193,-2.153993606567383,0.033757515251636505,36.7142764,3.1814729,24.36,-4.61,-7.36,0.0,73,236,8.69346809387207,8.693465232849121
57,-0.42319488525390625,-2.1512837409973145,-0.031030546873807907,36.7141997,3.181323,24.37,-4.95,-7.68,0.0,73,236,9.14626407623291,9.146263122558594
58,-0.30200958251953125,-2.1521124839782715,0.02134363353252411,36.7141364,3.181201,24.38,-4.29,-6.64,0.01,73,236,7.909578323364258,7.909569263458252
59,-0.2747306823730469,-2.1286540031433105,-0.009161720052361488,36.7140762,3.1810819,24.35,-3.46,-5.69,0.02,72,238,6.663269519805908,6.663222789764404
60,-0.286210834980011,-2.104564666748047,0.03221606835722923,36.7140311,3.1809865,24.35,-3.23,-5.63,0.0,72,239,6.49411153793335,6.494110584259033
61,-0.25575897097587585,-2.1000287532806396,-0.014658546075224876,36.7139874,3.1808913,24.35,-3.22,-5.66,0.0,71,239,6.524871349334717,6.524869441986084
62,-0.005287036299705505,-2.1008143424987793,0.02798042818903923,36.7139404,3.1807889,24.35,-2.46,-4.3,0.01,71,239,4.96296501159668,4.962926387786865
63,0.1457935869693756,-2.1009035110473633,-0.02870076335966587,36.7139179,3.1807398,24.32,-0.83,-1.46,-0.01,71,239,1.6823540925979614,1.6823103427886963
64,0.04549980163574219,-2.100691318511963,-0.002471825573593378,36.7139141,3.1807311,24.34,0.1,0.15,0.0,70,239,0.18933294713497162,0.1891992688179016
65,-0.05126740038394928,-2.05667781829834,0.13995105028152466,36.7139178,3.1807315,24.3,0.73,-0.37,-0.01,70,242,0.8282468318939209,0.8280724883079529
