timestamp,pitch,yaw,roll,lat,lon,alt,velocity_x,velocity_y,velocity_z,battery,heading,airspeed,groundspeed
0,-0.021008556708693504,0.011340065859258175,0.01904504932463169,36.7156066,3.1846299,15.24,-0.02,0.03,-0.05,96,0,0.06583943217992783,0.039460547268390656
1,-0.07255008071660995,0.009101511910557747,0.03477713465690613,36.7156085,3.1846314,15.27,0.49,0.31,-0.02,95,0,0.5924530029296875,0.591912567615509
2,-0.22175969183444977,0.5972915291786194,0.00816481001675129,36.715626,3.1846437,15.26,2.26,1.28,-0.02,95,34,2.6061980724334717,2.606090784072876
3,-0.16918790340423584,0.5048139691352844,-0.007383217103779316,36.715673,3.1846768,15.28,3.37,1.87,-0.01,95,28,3.8601298332214355,3.86010479927063
4,0.0647631287574768,0.4825984835624695,-0.014107096008956432,36.7157182,3.1847074,15.28,2.92,1.48,0.0,94,27,3.2783219814300537,3.2783188819885254
5,-0.036252763122320175,-0.8790141344070435,-0.3184286653995514,36.7157397,3.1847089,15.31,-0.77,-1.81,-0.01,94,309,1.9772204160690308,1.9771894216537476
6,-0.17104627192020416,-2.342313766479492,-0.0022892486304044724,36.7157153,3.1846614,15.27,-2.38,-3.35,0.04,93,225,4.114193916320801,4.1139936447143555
7,-0.06652461737394333,-2.0887532234191895,0.08339035511016846,36.7156832,3.1846034,15.32,-2.17,-3.32,0.0,93,240,3.9726476669311523,3.9726474285125732
8,-0.20938411355018616,-1.2033108472824097,0.28426453471183777,36.7156696,3.1845418,15.27,1.09,-2.79,0.02,93,291,3.00266695022583,3.002593755722046
9,-0.41865822672843933,-0.6427385210990906,0.03834494203329086,36.7157106,3.1844913,15.27,4.83,-3.45,0.0,92,323,5.941059589385986,5.941059112548828
10,-0.5345306992530823,-0.621580183506012,0.03423676639795303,36.7158096,3.1844055,15.28,7.38,-5.1,0.0,92,324,8.977434158325195,8.977433204650879
11,-0.4593418538570404,-0.6177938580513,0.011593417264521122,36.7159144,3.1843145,15.3,7.93,-5.55,0.0,91,324,9.687018394470215,9.687017440795898
12,-0.3252851366996765,-0.62088543176651,0.0052111828699707985,36.7160363,3.1842073,15.35,7.09,-5.02,0.0,91,324,8.69362735748291,8.693626403808594
13,0.04403818026185036,-0.6520465016365051,-0.06279726326465607,36.7161174,3.1841353,15.34,4.45,-3.41,0.04,91,322,5.617323398590088,5.617130756378174
14,-0.14789125323295593,-1.4722346067428589,-0.2850051522254944,36.7161509,3.1840847,15.57,0.21,-2.96,-0.36,90,275,2.996173858642578,2.9744672775268555
15,-0.4198218882083893,-2.159536600112915,-0.043341223150491714,36.7161201,3.1840085,16.9,-3.71,-5.23,-1.09,90,236,6.510412693023682,6.417252063751221
16,-0.5165904760360718,-2.163425922393799,0.006172927096486092,36.7160584,3.1838996,18.94,-5.14,-7.43,-1.52,89,236,9.170445442199707,9.043169975280762
17,-0.4223553538322449,-2.1651875972747803,0.019170479848980904,36.715972,3.1837434,21.8,-5.54,-8.07,-1.58,89,235,9.922420501708984,9.794474601745605
18,-0.4734064042568207,-2.163999557495117,-0.03304031863808632,36.715897,3.1836051,24.27,-5.55,-8.23,-1.56,88,236,10.055280685424805,9.932425498962402
19,-0.4882318079471588,-2.165754795074463,0.017038093879818916,36.7158217,3.1834656,26.73,-5.55,-8.26,-1.58,88,235,10.086445808410645,9.960840225219727
20,-0.42426490783691406,-2.162153720855713,-0.016691232100129128,36.7157344,3.1833025,29.63,-5.51,-8.27,-1.6,88,236,10.07612133026123,9.948251724243164
21,-0.48412224650382996,-2.1630396842956543,-0.03278319165110588,36.7156597,3.1831635,32.12,-5.54,-8.25,-1.59,87,236,10.071809768676758,9.944551467895508
22,-0.4375412166118622,-2.165154218673706,0.03243960812687874,36.7155722,3.1830005,35.03,-5.51,-8.3,-1.61,87,235,10.093339920043945,9.963422775268555
23,-0.42307084798812866,-2.162095308303833,0.022751618176698685,36.7155101,3.1828837,37.11,-5.49,-8.29,-1.62,86,236,10.083333969116211,9.95161247253418
24,-0.49327170848846436,-2.1665756702423096,-0.0016580666415393353,36.715423,3.182721,40.03,-5.53,-8.29,-1.61,86,235,10.101838111877441,9.971525192260742
25,-0.42726656794548035,-2.1636383533477783,0.018971264362335205,36.7153357,3.1825579,42.95,-5.51,-8.29,-1.62,85,236,10.090991973876953,9.958860397338867
26,-0.45495128631591797,-2.164309501647949,-0.030834263190627098,36.7152608,3.1824176,45.44,-5.51,-8.29,-1.63,85,236,10.092202186584473,9.95910930633545
27,-0.45042359828948975,-2.1652047634124756,0.03890630230307579,36.7151737,3.1822545,48.37,-5.5,-8.26,-1.63,84,235,10.063319206237793,9.929215431213379
28,-0.3842470943927765,-2.165431022644043,-0.0070947459898889065,36.7150993,3.1821157,50.87,-5.48,-8.19,-1.61,84,235,9.99390697479248,9.861980438232422
29,-0.20850662887096405,-2.1674702167510986,-0.016655543819069862,36.7150305,3.181988,53.17,-4.45,-6.63,-1.32,84,235,8.099574089050293,7.990871906280518
30,-0.03414393588900566,-2.152423858642578,0.014848863705992699,36.7149755,3.1818844,54.82,-2.62,-4.09,-0.52,83,236,4.894289970397949,4.866337776184082
31,-0.17051370441913605,-2.1123013496398926,0.014847745187580585,36.7149445,3.1818211,55.24,-2.14,-3.68,-0.09,83,238,4.264618396759033,4.263563632965088
32,-0.13140752911567688,-2.102841377258301,-0.02476726844906807,36.7149116,3.1817495,55.24,-2.09,-3.7,-0.02,82,239,4.253994464874268,4.253918170928955
33,0.015623013488948345,-2.1140236854553223,0.006075695157051086,36.7148861,3.1816942,55.18,-1.56,-2.66,0.18,82,238,3.094841718673706,3.0893161296844482
34,0.03521446883678436,-2.3817689418792725,-0.052291784435510635,36.7148681,3.181663,54.05,-1.17,-1.2,1.31,82,223,2.1402082443237305,1.6880167722702026
35,-0.011957062408328056,-2.463165044784546,0.020785653963685036,36.7148513,3.181646,51.39,-1.03,-0.79,1.41,81,218,1.9276012182235718,1.3081914186477661
36,-0.056355610489845276,-2.4691288471221924,-0.016710570082068443,36.7148372,3.1816326,49.16,-1.05,-0.85,1.42,81,218,1.9655232429504395,1.3524752855300903
37,-0.01337447389960289,-2.469794988632202,-0.013023244217038155,36.7148205,3.181616,46.54,-1.07,-0.87,1.42,81,218,1.9893335103988647,1.3841687440872192
38,-0.05360082909464836,-2.4697179794311523,0.013644199818372726,36.7148059,3.1816013,44.3,-1.05,-0.87,1.43,80,218,1.9888418912887573,1.3736525774002075
39,-0.038667406886816025,-2.46916127204895,-0.021799692884087563,36.7147889,3.1815842,41.69,-1.07,-0.88,1.45,80,218,2.0134546756744385,1.3919148445129395
40,-0.06089550256729126,-2.4693191051483154,0.010801205411553383,36.7147768,3.181572,39.82,-1.05,-0.88,1.45,80,218,2.0075523853302,1.378536343574524
41,-0.03974714130163193,-2.469597101211548,-0.02406870760023594,36.7147598,3.181555,37.2,-1.07,-0.89,1.45,79,218,2.0234463214874268,1.4010977745056152
42,-0.007183592300862074,-2.46994686126709,0.0032811646815389395,36.7147427,3.1815378,34.58,-1.07,-0.87,1.47,79,218,2.025198221206665,1.3909447193145752
43,-0.058275043964385986,-2.4689764976501465,-0.005677367094904184,36.7147281,3.1815231,32.33,-1.05,-0.89,1.47,78,218,2.021115779876709,1.3840525150299072
44,-0.033629026263952255,-2.4695632457733154,-0.025142205879092216,36.7147112,3.1815059,29.71,-1.07,-0.88,1.46,78,218,2.0237233638763428,1.3920063972473145
45,-0.03859325870871544,-2.4694974422454834,0.025406425818800926,36.7146966,3.1814911,27.46,-1.06,-0.88,1.47,78,218,2.024277448654175,1.38481867313385
46,-0.028424855321645737,-2.4700026512145996,-0.022821201011538506,36.714682,3.1814765,25.21,-1.06,-0.88,1.47,77,218,2.0247416496276855,1.3860160112380981
47,-0.007586874067783356,-2.469332695007324,0.012986707501113415,36.714665,3.1814593,22.58,-1.06,-0.87,1.46,77,218,2.013529062271118,1.3795695304870605
48,-0.058114346116781235,-2.469285726547241,-0.009106026031076908,36.7146504,3.1814446,20.33,-1.06,-0.89,1.46,77,218,2.023104667663574,1.392823338508606
49,-0.016188669949769974,-2.4695940017700195,0.01644783839583397,36.7146358,3.1814298,18.09,-1.06,-0.87,1.47,76,218,2.018789768218994,1.377543568611145
50,-0.18596886098384857,3.0114099979400635,-0.08616065233945847,36.7146127,3.1814188,15.7,-2.12,0.17,0.88,76,172,2.305640459060669,2.1293132305145264
51,-0.20314989984035492,2.6696524620056152,-0.028032612055540085,36.7145731,3.1814374,15.27,-3.62,1.82,-0.07,75,152,4.060274124145508,4.059647083282471
52,-0.11678370088338852,2.6753878593444824,0.055325474590063095,36.7145105,3.1814767,15.36,-3.96,1.99,0.05,75,153,4.4367804527282715,4.436431884765625
53,-0.05288682505488396,-3.131429433822632,0.2127515971660614,36.7144596,3.1814977,15.3,-3.33,-0.05,0.04,75,180,3.336961030960083,3.3366622924804688
54,-0.39816299080848694,-2.1850051879882812,0.07763843238353729,36.7144116,3.1814524,15.29,-3.18,-4.62,0.01,74,234,5.614210605621338,5.6141839027404785
55,-0.5131133794784546,-2.1565423011779785,-0.005627802107483149,36.7143601,3.1813517,15.29,-4.43,-7.03,0.0,74,236,8.315526962280273,8.315523147583008
56,-0.41727158427238464,-2.1507489681243896,0.009349756874144077,36.7142846,3.1812036,15.31,-4.94,-7.7,0.0,73,236,9.154029846191406,9.15402889251709
57,-0.32960715889930725,-2.1539437770843506,-0.017194868996739388,36.7142194,3.1810783,15.33,-4.52,-6.95,0.01,73,236,8.291260719299316,8.291254043579102
58,-0.2516254484653473,-2.1424028873443604,0.04227447509765625,36.714164,3.1809704,15.32,-3.67,-5.84,0.03,73,237,6.906991004943848,6.9068989753723145
59,-0.2950339615345001,-2.1163651943206787,-0.008513671346008778,36.7141092,3.1808581,15.3,-3.34,-5.65,0.01,72,238,6.566636085510254,6.566617488861084
60,-0.28477585315704346,-2.107714891433716,0.03448603302240372,36.7140648,3.1807635,15.3,-3.28,-5.66,0.01,72,239,6.547664165496826,6.547646522521973
61,-0.11480250209569931,-2.1083273887634277,-0.007417984306812286,36.7140146,3.1806562,15.3,-2.82,-4.85,0.0,71,239,5.621249198913574,5.621241569519043
62,0.19196933507919312,-2.1097054481506348,0.005554568022489548,36.7139856,3.1805942,15.27,-1.26,-2.16,0.02,71,239,2.5039710998535156,2.5038838386535645
63,0.058975525200366974,-2.1091439723968506,-0.010771655477583408,36.7139778,3.1805773,15.28,-0.04,-0.09,-0.01,71,239,0.11118894070386887,0.11036897450685501
64,0.000853398407343775,-2.1089093685150146,0.07172153145074844,36.7139799,3.1805794,15.24,0.38,-0.09,0.01,70,239,0.39491963386535645,0.39455899596214294
