timestamp,pitch,yaw,roll,lat,lon,alt,velocity_x,velocity_y,velocity_z,battery,heading,airspeed,groundspeed
0,-0.024897238239645958,0.012190733104944229,0.013761700130999088,36.7156066,3.18463,18.24,-0.01,0.02,0.01,96,0,0.03287529945373535,0.029567012563347816
1,-0.047511026263237,0.017076050862669945,0.08812147378921509,36.7156078,3.1846325,18.27,0.33,0.56,0.0,95,0,0.659792423248291,0.6597702503204346
2,-0.17274829745292664,1.4904836416244507,-0.103247731924057,36.715624,3.1846645,18.22,1.78,2.82,-0.03,95,85,3.3366546630859375,3.3365135192871094
3,-0.18744486570358276,0.9415041208267212,0.015989748761057854,36.7156526,3.1847206,18.26,2.28,3.61,-0.03,95,53,4.274219036102295,4.274078369140625
4,0.09366928786039352,0.9951703548431396,-0.021504871547222137,36.7156877,3.1847879,18.29,1.76,2.72,-0.01,94,57,3.243326187133789,3.2433061599731445
5,0.33885157108306885,1.2640480995178223,0.13608786463737488,36.7156963,3.1848041,18.28,-0.83,-1.16,0.0,94,72,1.4378695487976074,1.437867522239685
6,-0.0675198957324028,2.9431498050689697,0.1339808702468872,36.7156735,3.1847631,18.32,-2.22,-3.15,-0.02,93,168,3.8634300231933594,3.8633675575256348
7,-0.07291246950626373,-1.9287915229797363,0.02178327925503254,36.7156385,3.1846982,18.31,-2.07,-3.24,0.0,93,249,3.853058338165283,3.8530526161193848
8,-0.09459803998470306,-1.4868295192718506,0.2584424316883087,36.7156233,3.1846455,18.29,0.22,-2.86,0.0,93,274,2.8712751865386963,2.87126088142395
9,-0.44149550795555115,-0.6455652117729187,0.027185317128896713,36.7156616,3.1845882,18.29,4.56,-3.34,0.0,92,323,5.657077312469482,5.657077312469482
10,-0.5366733074188232,-0.6219819784164429,0.0008731716661714017,36.7157259,3.184532,18.29,6.69,-4.63,0.0,92,324,8.146092414855957,8.146090507507324
11,-0.4605778157711029,-0.6177213788032532,-0.001147489994764328,36.7158435,3.1844305,18.31,7.87,-5.49,-0.01,91,324,9.597343444824219,9.59733772277832
12,-0.3917716443538666,-0.6206034421920776,0.012846922501921654,36.7159669,3.1843222,18.34,7.43,-5.27,-0.02,91,324,9.114551544189453,9.114521980285645
13,-0.023364128544926643,-0.6252905130386353,-0.016475817188620567,36.7160558,3.1842441,18.35,5.29,-3.79,0.04,91,324,6.513205528259277,6.5130743980407715
14,-0.06754840910434723,-1.3473747968673706,-0.2601962983608246,36.7161057,3.1841819,18.53,0.61,-2.92,-0.32,90,282,3.007037401199341,2.989466667175293
15,-0.3812255859375,-2.1342506408691406,-0.08917893469333649,36.716087,3.1841217,19.51,-3.11,-4.56,-0.95,90,237,5.608433246612549,5.5260748863220215
16,-0.5142399072647095,-2.160815477371216,0.006191198714077473,36.7160308,3.1840233,21.38,-4.89,-7.01,-1.45,89,236,8.677961349487305,8.554361343383789
17,-0.42594555020332336,-2.1636464595794678,0.014492013491690159,36.7159463,3.1838715,24.2,-5.56,-8.05,-1.6,89,236,9.925568580627441,9.7945556640625
18,-0.46666860580444336,-2.165642499923706,-0.022065309807658195,36.7158707,3.1837333,26.66,-5.55,-8.22,-1.57,88,235,10.047024726867676,9.922281265258789
19,-0.45312729477882385,-2.1640069484710693,0.03851642832159996,36.7157832,3.1835704,29.53,-5.51,-8.24,-1.59,88,236,10.051202774047852,9.923766136169434
20,-0.4253738522529602,-2.166412353515625,-0.007859878242015839,36.7157083,3.183431,32.01,-5.54,-8.25,-1.6,88,235,10.067506790161133,9.938446998596191
21,-0.4915882647037506,-2.163498878479004,0.014734850265085697,36.7156212,3.1832684,34.9,-5.47,-8.27,-1.62,87,236,10.054070472717285,9.922308921813965
22,-0.43916597962379456,-2.162064790725708,0.027942469343543053,36.7155465,3.1831287,37.4,-5.51,-8.27,-1.63,87,236,10.072053909301758,9.93895435333252
23,-0.4322236478328705,-2.1644558906555176,-0.016812097281217575,36.7154717,3.1829892,39.91,-5.52,-8.28,-1.62,86,235,10.092923164367676,9.960589408874512
24,-0.48709580302238464,-2.162869453430176,0.023987997323274612,36.7153848,3.1828262,42.82,-5.5,-8.29,-1.63,86,236,10.092576026916504,9.959883689880371
25,-0.43141210079193115,-2.165371894836426,0.02975250966846943,36.71531,3.1826863,45.32,-5.55,-8.27,-1.63,85,235,10.105557441711426,9.971942901611328
26,-0.4818686246871948,-2.164346933364868,-0.020577283576130867,36.7152227,3.1825235,48.25,-5.53,-8.32,-1.62,85,236,10.130273818969727,9.998332023620605
27,-0.4696054756641388,-2.164332151412964,0.0333915539085865,36.7151479,3.1823831,50.75,-5.51,-8.31,-1.63,84,236,10.111821174621582,9.978276252746582
28,-0.41809070110321045,-2.164839744567871,0.017204493284225464,36.7150732,3.1822435,53.26,-5.51,-8.27,-1.63,84,235,10.07321548461914,9.939655303955078
29,-0.24290309846401215,-2.167179822921753,-0.0026346088852733374,36.7149911,3.182091,56.01,-4.58,-6.82,-1.37,83,235,8.335850715637207,8.222433090209961
30,-0.04623066633939743,-2.160403251647949,0.03149619698524475,36.7149403,3.1819961,57.6,-2.94,-4.48,-0.69,83,236,5.415035724639893,5.37086296081543
31,-0.16373179852962494,-2.1140623092651367,0.0272032730281353,36.7149021,3.1819195,58.24,-2.14,-3.68,-0.12,83,238,4.269831657409668,4.268087387084961
32,-0.12645266950130463,-2.1018121242523193,0.0013907041866332293,36.7148739,3.1818583,58.27,-2.07,-3.68,-0.01,82,239,4.225060939788818,4.2250447273254395
33,0.010874184779822826,-2.1086220741271973,0.013554821722209454,36.7148432,3.1817915,58.23,-1.62,-2.8,0.13,82,239,3.241272211074829,3.2385201454162598
34,0.022687193006277084,-2.353085517883301,-0.06765060126781464,36.7148248,3.1817582,57.25,-1.2,-1.31,1.24,82,225,2.1720170974731445,1.7824170589447021
35,-0.04208376258611679,-2.4750938415527344,0.02358621172606945,36.71481,3.1817424,54.99,-1.03,-0.8,1.44,81,218,1.9527409076690674,1.308968186378479
36,-0.06218528002500534,-2.469701051712036,-0.010824944823980331,36.7147936,3.1817269,52.38,-1.04,-0.84,1.43,81,218,1.9603211879730225,1.3406070470809937
37,-0.016357293352484703,-2.4697976112365723,0.020883627235889435,36.7147793,3.1817128,50.14,-1.06,-0.86,1.44,81,218,1.9925310611724854,1.3760913610458374
38,-0.057079754769802094,-2.4703516960144043,0.018701311200857162,36.7147624,3.1816957,47.53,-1.07,-0.88,1.45,80,218,2.0109269618988037,1.3874645233154297
39,-0.01018491294234991,-2.469287872314453,-0.004486091900616884,36.7147478,3.1816812,45.28,-1.08,-0.87,1.45,80,218,2.0164237022399902,1.3917367458343506
40,-0.0611511692404747,-2.4696085453033447,0.013250079937279224,36.7147332,3.1816666,43.04,-1.07,-0.88,1.46,79,218,2.0168826580047607,1.3881633281707764
41,-0.0379708856344223,-2.4694886207580566,-0.019222572445869446,36.7147162,3.1816495,40.42,-1.07,-0.89,1.46,79,218,2.0258309841156006,1.3959370851516724
42,-0.036352481693029404,-2.469609260559082,0.027820290997624397,36.7147017,3.1816346,38.17,-1.06,-0.87,1.47,79,218,2.018839120864868,1.3817466497421265
43,-0.06161915510892868,-2.4691877365112305,-0.006865367293357849,36.7146847,3.1816175,35.55,-1.07,-0.88,1.47,78,218,2.0253384113311768,1.3930981159210205
44,-0.009333619847893715,-2.469292163848877,0.009517505764961243,36.71467,3.1816028,33.3,-1.07,-0.87,1.47,78,218,2.0248632431030273,1.3875555992126465
45,-0.04636829346418381,-2.4695816040039062,0.02777089923620224,36.714653,3.1815856,30.68,-1.06,-0.88,1.47,78,218,2.0232648849487305,1.3829665184020996
46,-0.01919446885585785,-2.469923734664917,-0.019762590527534485,36.7146384,3.1815709,28.43,-1.06,-0.87,1.47,77,218,2.0240395069122314,1.3825963735580444
47,-0.054230231791734695,-2.4695301055908203,0.01940111070871353,36.7146239,3.1815561,26.19,-1.05,-0.88,1.48,77,218,2.0247817039489746,1.3764517307281494
48,-0.04703206941485405,-2.4690842628479004,-0.025877682492136955,36.7146068,3.181539,23.56,-1.07,-0.87,1.48,76,218,2.029479742050171,1.3884563446044922
49,-0.06266424804925919,-2.4694743156433105,0.010397560894489288,36.7145947,3.1815267,21.68,-1.06,-0.88,1.47,76,218,2.022002935409546,1.3810641765594482
50,-0.17546141147613525,3.099976062774658,-0.09967267513275146,36.7145702,3.1815119,18.85,-1.99,0.0,1.0,76,177,2.2343876361846924,1.9934659004211426
51,-0.19881954789161682,2.675168991088867,-0.025905096903443336,36.7145323,3.1815278,18.29,-3.54,1.73,-0.05,75,153,3.9473259449005127,3.9469151496887207
52,-0.20208987593650818,2.680534601211548,-0.013026155531406403,36.7144791,3.1815602,18.38,-4.08,2.04,0.01,75,153,4.564396381378174,4.564384460449219
53,-0.0236104354262352,3.0481314659118652,0.1798662543296814,36.7144174,3.1815906,18.32,-3.5,0.35,0.04,75,174,3.519510269165039,3.519223213195801
54,-0.3987002372741699,-2.2114362716674805,0.1447615623474121,36.7143753,3.1815649,18.31,-2.97,-3.6,0.01,74,233,4.674546718597412,4.674519062042236
55,-0.4976217746734619,-2.1510238647460938,-0.023156745359301567,36.7143188,3.1814586,18.31,-4.3,-6.84,0.01,74,236,8.090312004089355,8.09030532836914
56,-0.485274076461792,-2.1488819122314453,0.01544135995209217,36.7142554,3.1813338,18.32,-4.91,-7.69,0.0,73,236,9.131860733032227,9.13185977935791
57,-0.30901026725769043,-2.1528022289276123,-0.022854696959257126,36.7141785,3.1811849,18.34,-4.58,-7.06,0.0,73,236,8.419224739074707,8.41922378540039
58,-0.24097588658332825,-2.146284580230713,-0.009992358274757862,36.7141305,3.1810922,18.34,-3.86,-6.08,0.03,73,237,7.211649417877197,7.211575508117676
59,-0.24280032515525818,-2.1142337322235107,0.014989253133535385,36.7140747,3.1809785,18.31,-3.34,-5.67,0.01,72,238,6.586610794067383,6.58659553527832
60,-0.30489641427993774,-2.1002037525177,0.02836591750383377,36.7140233,3.1808675,18.32,-3.22,-5.65,0.01,72,239,6.513638019561768,6.513626575469971
61,-0.13909892737865448,-2.1002163887023926,-0.0014440094819292426,36.7139803,3.1807736,18.32,-3.01,-5.28,0.0,71,239,6.082376480102539,6.082376480102539
62,0.16258423030376434,-2.101200580596924,0.027982031926512718,36.7139428,3.1806921,18.29,-1.43,-2.53,0.02,71,239,3.5347912311553955,3.5345704555511475
63,0.10537108778953552,-2.1003804206848145,-0.024983474984765053,36.7139332,3.1806708,18.3,-0.13,-0.23,-0.01,71,239,0.27373144030570984,0.27307990193367004
64,-0.01347089372575283,-2.101285457611084,0.07657743245363235,36.713934,3.1806721,18.28,0.18,0.1,0.04,70,239,0.21304717659950256,0.20909646153450012
