timestamp,pitch,yaw,roll,lat,lon,alt,velocity_x,velocity_y,velocity_z,battery,heading,airspeed,groundspeed
0,0.023206118494272232,0.006337139755487442,-0.014638855122029781,36.7156067,3.1846299,21.13,-0.02,0.02,-0.02,96,0,0.045490019023418427,0.0354401133954525
1,-0.0667131245136261,-0.0007455867016687989,0.09744799137115479,36.7156075,3.1846315,21.07,0.23,0.41,-0.01,95,359,0.48073112964630127,0.48058485984802246
2,-0.23280218243598938,1.4420419931411743,-0.09561660140752792,36.7156204,3.1846555,21.1,1.49,2.3,-0.04,95,82,2.746858835220337,2.7465386390686035
3,-0.13827157020568848,0.85943603515625,-0.0024369212333112955,36.7156463,3.1847043,21.12,2.17,3.31,-0.02,95,49,3.9636588096618652,3.9635841846466064
4,0.04190751165151596,0.9592010974884033,0.03010912612080574,36.715681,3.1847683,21.12,1.92,2.81,-0.01,94,54,3.409797430038452,3.4097816944122314
5,0.3567815124988556,0.965301513671875,-0.024910032749176025,36.715694,3.1847908,21.15,-0.44,-0.68,-0.03,94,55,0.8109745383262634,0.8103033304214478
6,-0.00011183301103301346,-0.7202953696250916,-0.17206516861915588,36.7156744,3.1847546,21.14,-2.14,-3.08,0.05,93,318,3.751315116882324,3.750894069671631
7,-0.11210211366415024,-2.3827402591705322,0.08265731483697891,36.715639,3.1846903,21.17,-2.19,-3.27,0.0,93,223,3.946298837661743,3.9462881088256836
8,-0.025739388540387154,-1.591861367225647,0.18499897420406342,36.7156202,3.1846363,21.13,-0.24,-2.95,0.02,93,268,2.9617927074432373,2.961664915084839
9,-0.37570831179618835,-0.6496429443359375,0.08496055752038956,36.7156511,3.1845793,21.12,4.13,-3.19,0.0,92,322,5.227754592895508,5.227749824523926
10,-0.5228389501571655,-0.6247861981391907,-0.01739179901778698,36.7157261,3.1845132,21.12,6.74,-4.7,0.0,92,324,8.224268913269043,8.224266052246094
11,-0.4844679832458496,-0.6213402152061462,0.026401741430163383,36.7158438,3.1844107,21.14,7.85,-5.52,0.0,91,324,9.598434448242188,9.598434448242188
12,-0.36701148748397827,-0.6225969791412354,-0.0253454577177763,36.7159501,3.184317,21.16,7.54,-5.37,-0.02,91,324,9.265228271484375,9.265193939208984
13,-0.10147498548030853,-0.6252444386482239,-0.0027746246196329594,36.7160415,3.1842358,21.19,5.6,-4.01,0.03,91,324,6.893294334411621,6.893182277679443
14,-0.00033479504054412246,-1.1977900266647339,-0.3038056194782257,36.7160979,3.1841716,21.31,1.08,-2.87,-0.26,90,291,3.086677312850952,3.0755693912506104
15,-0.39086851477622986,-2.1279730796813965,-0.05213804543018341,36.7160849,3.1841144,22.2,-2.78,-4.3,-0.88,90,238,5.196521759033203,5.120614528656006
16,-0.4934346079826355,-2.160672426223755,-0.026449795812368393,36.7160205,3.1840009,24.35,-4.96,-7.11,-1.47,89,236,8.800610542297363,8.676251411437988
17,-0.48300060629844666,-2.163426637649536,0.007417949847877026,36.7159477,3.1838703,26.77,-5.53,-8.01,-1.6,89,236,9.867633819580078,9.735729217529297
18,-0.42881834506988525,-2.164769411087036,-0.013636996038258076,36.7158601,3.1837098,29.64,-5.55,-8.24,-1.57,88,235,10.063371658325195,9.93947982788086
19,-0.48702603578567505,-2.163752317428589,-0.021711230278015137,36.7157851,3.1835703,32.09,-5.53,-8.24,-1.58,88,236,10.058561325073242,9.932908058166504
20,-0.47642767429351807,-2.1640853881835938,0.029607750475406647,36.7157101,3.1834306,34.57,-5.51,-8.23,-1.61,88,236,10.039793968200684,9.909618377685547
21,-0.42742395401000977,-2.1662979125976562,-0.014767649583518505,36.7156227,3.183268,37.48,-5.54,-8.25,-1.61,87,235,10.07434368133545,9.944137573242188
22,-0.48392242193222046,-2.163808822631836,-0.022342916578054428,36.7155482,3.1831288,39.96,-5.51,-8.3,-1.61,87,236,10.09931468963623,9.969005584716797
23,-0.4299429655075073,-2.164669990539551,0.02887728065252304,36.715461,3.1829655,42.88,-5.52,-8.29,-1.63,86,235,10.096939086914062,9.963741302490234
24,-0.44550707936286926,-2.1636688709259033,-0.020467443391680717,36.7153865,3.1828259,45.38,-5.49,-8.25,-1.63,86,236,10.053738594055176,9.920560836791992
25,-0.49082261323928833,-2.1660618782043457,-0.004427267704159021,36.7153116,3.1826863,47.88,-5.55,-8.28,-1.63,85,235,10.107497215270996,9.974815368652344
26,-0.43542778491973877,-2.1647536754608154,0.03397836536169052,36.7152242,3.1825229,50.8,-5.52,-8.31,-1.64,85,235,10.119830131530762,9.985422134399414
27,-0.44676727056503296,-2.1648576259613037,-0.025729481130838394,36.7151497,3.182383,53.31,-5.52,-8.31,-1.63,84,235,10.112221717834473,9.979349136352539
28,-0.46504610776901245,-2.1645336151123047,0.033769797533750534,36.7150627,3.1822202,56.23,-5.49,-8.23,-1.63,84,235,10.035415649414062,9.902007102966309
29,-0.2158513367176056,-2.1690468788146973,0.008188022300601006,36.7149915,3.1820885,58.6,-4.76,-7.07,-1.42,83,235,8.64560317993164,8.527242660522461
30,-0.07721325010061264,-2.1585474014282227,0.03740694373846054,36.7149317,3.1819764,60.5,-2.83,-4.39,-0.64,83,236,5.267838001251221,5.228549957275391
31,-0.113346628844738,-2.1054844856262207,0.005662104114890099,36.7148995,3.181911,61.06,-2.14,-3.7,-0.14,83,239,4.279064178466797,4.27660608291626
32,-0.18852776288986206,-2.086207866668701,0.008989193476736546,36.7148721,3.1818496,61.11,-1.99,-3.68,0.0,82,240,4.192453384399414,4.1924519538879395
33,0.001384654315188527,-2.0891377925872803,-0.03485060855746269,36.7148419,3.1817812,61.08,-1.64,-2.97,0.07,82,240,3.401021957397461,3.4001479148864746
34,0.00957513228058815,-2.3099091053009033,-0.02463921532034874,36.7148233,3.181745,60.26,-1.2,-1.42,1.13,82,227,2.1812100410461426,1.864766001701355
35,-0.04824499040842056,-2.47062349319458,-0.016134217381477356,36.7148059,3.1817261,57.68,-1.03,-0.8,1.44,81,218,1.9524554014205933,1.312825322151184
36,-0.018840940669178963,-2.470595121383667,0.024200985208153725,36.7147919,3.1817129,55.44,-1.03,-0.82,1.43,81,218,1.9552415609359741,1.3290516138076782
37,-0.05297109857201576,-2.4701454639434814,-0.018925396725535393,36.7147775,3.1816988,53.19,-1.05,-0.87,1.44,81,218,1.9920334815979004,1.3751837015151978
38,-0.013756907545030117,-2.4702892303466797,-0.009939526207745075,36.7147606,3.1816819,50.58,-1.07,-0.87,1.45,80,218,2.0042457580566406,1.3827155828475952
39,-0.06258111447095871,-2.4693100452423096,0.0028112928848713636,36.714746,3.1816672,48.34,-1.07,-0.89,1.45,80,218,2.017047643661499,1.3934462070465088
40,-0.03782960772514343,-2.4696338176727295,-0.024374689906835556,36.7147291,3.1816502,45.72,-1.07,-0.88,1.46,79,218,2.021023750305176,1.3948007822036743
41,-0.04614962264895439,-2.4696121215820312,0.028359659016132355,36.7147145,3.1816355,43.47,-1.06,-0.88,1.46,79,218,2.017371416091919,1.386773943901062
42,-0.025793813169002533,-2.4700927734375,-0.021457718685269356,36.7146999,3.1816208,41.23,-1.07,-0.89,1.47,79,218,2.032149076461792,1.3955730199813843
43,-0.011843081563711166,-2.4689488410949707,0.024069782346487045,36.7146828,3.1816036,38.6,-1.06,-0.88,1.47,78,218,2.021608352661133,1.3837841749191284
44,-0.05478379875421524,-2.4693806171417236,-0.01638401485979557,36.7146683,3.1815889,36.35,-1.06,-0.89,1.47,78,218,2.0256295204162598,1.3915913105010986
45,-0.016851987689733505,-2.4694974422454834,-0.014345495961606503,36.7146513,3.1815718,33.74,-1.06,-0.87,1.47,78,218,2.0212321281433105,1.379703164100647
46,-0.05937521532177925,-2.469799518585205,0.014849432744085789,36.7146367,3.181557,31.49,-1.06,-0.88,1.48,77,218,2.028935670852661,1.384435772895813
47,-0.010154045186936855,-2.4694528579711914,-0.006473959423601627,36.7146221,3.1815423,29.23,-1.07,-0.88,1.47,77,218,2.026907205581665,1.388783574104309
48,-0.041557636111974716,-2.469452381134033,0.030776338651776314,36.7146051,3.1815251,26.61,-1.06,-0.88,1.47,76,218,2.025418996810913,1.384740948677063
49,-0.032405149191617966,-2.4698848724365234,-0.023122821003198624,36.7145906,3.1815104,24.36,-1.06,-0.89,1.48,76,218,2.0317165851593018,1.3900295495986938
50,-0.10412725806236267,-3.0902469158172607,-0.0980352982878685,36.7145697,3.1814965,21.84,-1.85,-0.17,1.12,76,182,2.1758792400360107,1.8602081537246704
51,-0.2540496289730072,2.674663543701172,-0.02639165334403515,36.7145337,3.1815098,21.11,-3.43,1.63,-0.02,75,153,3.8072669506073,3.807185649871826
52,-0.13911734521389008,2.6790783405303955,-0.020393282175064087,36.7144719,3.1815474,21.21,-4.07,2.03,0.02,75,153,4.556025505065918,4.5559515953063965
53,-0.049916431307792664,2.9643192291259766,0.2002154439687729,36.7144189,3.1815743,21.16,-3.59,0.62,0.04,75,169,3.6532957553863525,3.6529552936553955
54,-0.3368689715862274,-2.23606276512146,0.1274624615907669,36.714376,3.1815548,21.14,-2.94,-3.21,0.02,74,231,4.355912685394287,4.355866432189941
55,-0.5011001825332642,-2.144580364227295,0.033817511051893234,36.7143212,3.181454,21.14,-4.18,-6.66,0.0,74,237,7.870609283447266,7.870602607727051
56,-0.4310244619846344,-2.147268295288086,-0.0044007557444274426,36.7142586,3.1813306,21.15,-4.92,-7.68,0.0,73,236,9.12930965423584,9.129308700561523
57,-0.3564361333847046,-2.1521365642547607,0.009172680787742138,36.7141813,3.1811811,21.17,-4.66,-7.19,0.0,73,236,8.577190399169922,8.57718563079834
58,-0.2151796519756317,-2.1441211700439453,0.02060864493250847,36.7141239,3.1810698,21.16,-3.81,-6.0,0.02,73,237,7.111820220947266,7.111759185791016
59,-0.28746938705444336,-2.1183149814605713,-0.005106632132083178,36.7140757,3.1809721,21.14,-3.37,-5.67,0.01,72,238,6.6073317527771,6.60731840133667
60,-0.24756471812725067,-2.0997796058654785,0.006673754658550024,36.714024,3.1808607,21.14,-3.2,-5.63,0.0,72,239,6.483120918273926,6.483119010925293
61,-0.20289002358913422,-2.1002767086029053,-0.016781091690063477,36.7139809,3.1807667,21.14,-3.06,-5.39,0.0,71,239,6.206439018249512,6.206438064575195
62,0.16875024139881134,-2.1012237071990967,-0.018808042630553246,36.7139417,3.1806812,21.12,-1.62,-2.83,0.03,71,239,3.264125347137451,3.26393723487854
63,0.09033360332250595,-2.100454092025757,0.012218653224408627,36.7139302,3.1806561,21.13,-0.2,-0.39,-0.02,71,239,0.4437547028064728,0.4432283937931061
64,-0.0174958985298872,-2.1015114784240723,0.034441519528627396,36.713931,3.1806569,21.11,0.22,0.06,0.03,70,239,0.2400684505701065,0.23710483312606812
