timestamp,pitch,yaw,roll,lat,lon,alt,velocity_x,velocity_y,velocity_z,battery,heading,airspeed,groundspeed
0,0.01599867083132267,-0.03946850821375847,-0.02326389215886593,36.7156066,3.1846299,22.55,-0.02,0.02,-0.12,96,357,0.13350243866443634,0.03771914541721344
1,-0.0432126522064209,-0.013246321119368076,0.12182285636663437,36.7156082,3.184633,22.57,0.39,0.63,-0.05,95,359,0.7509538531303406,0.7490895390510559
2,-0.22667761147022247,1.465678095817566,-0.10292380303144455,36.7156215,3.1846575,22.6,1.66,2.43,-0.04,95,83,2.949141025543213,2.9488155841827393
3,-0.16170181334018707,0.9270128607749939,-0.02629201114177704,36.7156547,3.1847174,22.6,2.31,3.35,-0.01,95,53,4.0745015144348145,4.074474334716797
4,0.07081940025091171,0.9420080184936523,0.03714018315076828,36.7156855,3.1847714,22.59,1.88,2.68,0.0,94,53,3.2820887565612793,3.2820868492126465
5,0.29055318236351013,0.6344239711761475,-0.09186617285013199,36.7156952,3.1847868,22.61,-1.06,-1.61,-0.01,94,36,1.9302561283111572,1.9302135705947876
6,-0.042439669370651245,-1.103598713874817,-0.14854978024959564,36.7156707,3.1847418,22.58,-2.22,-3.24,0.02,93,296,3.9331417083740234,3.9330615997314453
7,-0.09805973619222641,-2.429579496383667,0.08617739379405975,36.7156402,3.1846862,22.63,-2.13,-3.25,0.0,93,220,3.891561508178711,3.89156174659729
8,-0.1230110377073288,-1.399646520614624,0.24646371603012085,36.7156238,3.1846248,22.58,0.61,-2.79,0.01,93,279,2.8645715713500977,2.864506244659424
9,-0.4045947790145874,-0.6566095948219299,0.09859587997198105,36.7156583,3.1845759,22.58,4.37,-3.25,0.0,92,322,5.458725452423096,5.458724021911621
10,-0.5401248335838318,-0.6251277327537537,-0.008826020173728466,36.7157521,3.1844946,22.59,7.13,-4.95,0.0,92,324,8.688018798828125,8.688015937805176
11,-0.49138209223747253,-0.6175241470336914,0.03005519136786461,36.7158554,3.184405,22.6,7.88,-5.53,0.0,91,324,9.628461837768555,9.628460884094238
12,-0.3430793881416321,-0.6204779148101807,0.0011644273763522506,36.7159613,3.1843118,22.63,7.5,-5.32,-0.02,91,324,9.207131385803223,9.207109451293945
13,-0.045320406556129456,-0.6303271651268005,-0.02961009368300438,36.7160636,3.1842214,22.65,4.92,-3.59,0.05,91,323,6.100537300109863,6.100309371948242
14,0.0009868096094578505,-1.2747942209243774,-0.3039454519748688,36.7161051,3.1841692,22.8,0.85,-2.87,-0.28,90,286,3.0169193744659424,3.0035507678985596
15,-0.4145147502422333,-2.14227294921875,-0.01269159559160471,36.7160821,3.1840983,23.98,-3.39,-4.84,-1.01,90,237,6.005450248718262,5.919095993041992
16,-0.4507233798503876,-2.1580264568328857,-0.024425653740763664,36.7160233,3.1839948,25.93,-4.98,-7.21,-1.49,89,236,8.900416374206543,8.774612426757812
17,-0.47450149059295654,-2.162585735321045,-0.03507397696375847,36.7159504,3.1838634,28.35,-5.53,-8.01,-1.6,89,236,9.872854232788086,9.742182731628418
18,-0.4420136511325836,-2.1656713485717773,0.03506975620985031,36.7158626,3.1837027,31.23,-5.54,-8.22,-1.57,88,235,10.03925609588623,9.915209770202637
19,-0.4300062358379364,-2.164029598236084,-0.01581553742289543,36.7157875,3.1835629,33.68,-5.55,-8.26,-1.59,88,236,10.084753036499023,9.958219528198242
20,-0.483949214220047,-2.1648168563842773,0.019987039268016815,36.7157001,3.1834002,36.58,-5.51,-8.24,-1.59,87,235,10.04601764678955,9.918120384216309
21,-0.4426240622997284,-2.1653037071228027,0.03741281479597092,36.7156256,3.1832612,39.07,-5.52,-8.29,-1.6,87,235,10.09798526763916,9.969367027282715
22,-0.4595790505409241,-2.1638786792755127,-0.02697901427745819,36.7155382,3.1830979,41.98,-5.53,-8.29,-1.61,87,236,10.101019859313965,9.971461296081543
23,-0.48673996329307556,-2.164222240447998,0.017606711015105247,36.7154634,3.1829581,44.48,-5.49,-8.27,-1.62,86,236,10.06593132019043,9.933940887451172
24,-0.44373810291290283,-2.1629202365875244,0.03224567323923111,36.715389,3.1828188,46.98,-5.52,-8.29,-1.62,86,236,10.094771385192871,9.963033676147461
25,-0.4718082845211029,-2.1635987758636475,-0.025638572871685028,36.7153017,3.1826555,49.9,-5.52,-8.3,-1.62,85,236,10.105944633483887,9.974514961242676
26,-0.4852321743965149,-2.163635730743408,0.005376829300075769,36.7152267,3.1825155,52.39,-5.5,-8.28,-1.63,85,236,10.08008861541748,9.946746826171875
27,-0.42849183082580566,-2.166607618331909,0.0037653089966624975,36.7151395,3.1823526,55.32,-5.51,-8.29,-1.63,84,235,10.094207763671875,9.960803985595703
28,-0.4464212656021118,-2.1636550426483154,-0.03373871371150017,36.715065,3.182213,57.83,-5.51,-8.28,-1.62,84,236,10.08730411529541,9.955875396728516
29,-0.24936701357364655,-2.1687581539154053,0.027295652776956558,36.7149944,3.1820819,60.18,-4.67,-6.95,-1.39,83,235,8.492240905761719,8.376937866210938
30,-0.0601855032145977,-2.1581907272338867,-0.011292202398180962,36.7149359,3.1819723,62.01,-2.79,-4.3,-0.6,83,236,5.1686224937438965,5.132632732391357
31,-0.1607319712638855,-2.1158030033111572,0.03701667860150337,36.7149039,3.1819078,62.52,-2.16,-3.69,-0.13,83,238,4.281979084014893,4.2799296379089355
32,-0.17014077305793762,-2.1021156311035156,-0.02064211294054985,36.7148709,3.1818362,62.56,-2.09,-3.71,-0.01,82,239,4.2626142501831055,4.262576103210449
33,0.012879428453743458,-2.106067180633545,0.017243104055523872,36.7148445,3.1817787,62.53,-1.65,-2.89,0.09,82,239,3.3339035511016846,3.332606554031372
34,-0.006289089098572731,-2.3880772590637207,-0.03839429095387459,36.714823,3.1817403,61.31,-1.17,-1.19,1.34,82,223,2.1484100818634033,1.6780599355697632
35,-0.012143653817474842,-2.467825174331665,0.02310136705636978,36.7148084,3.1817256,59.03,-1.03,-0.79,1.43,81,218,1.936403512954712,1.303844928741455
36,-0.05719757452607155,-2.470214605331421,-0.014873813837766647,36.7147944,3.1817124,56.79,-1.03,-0.84,1.42,81,218,1.9550844430923462,1.3373193740844727
37,-0.0148649662733078,-2.4694623947143555,-0.008450906723737717,36.7147778,3.1816958,54.17,-1.07,-0.87,1.43,80,218,1.9925425052642822,1.3871486186981201
38,-0.05584162846207619,-2.470118761062622,0.010691612958908081,36.7147632,3.1816811,51.93,-1.06,-0.88,1.44,80,218,1.9992902278900146,1.3860108852386475
39,-0.029820909723639488,-2.4695847034454346,-0.023462342098355293,36.7147462,3.1816642,49.32,-1.06,-0.87,1.45,80,218,2.009268283843994,1.3839449882507324
40,-0.04372842237353325,-2.469588279724121,0.0270475372672081,36.7147317,3.1816495,47.08,-1.05,-0.88,1.46,79,218,2.0100691318511963,1.380207896232605
41,-0.02035050466656685,-2.4693498611450195,-0.018802622333168983,36.7147171,3.1816349,44.83,-1.08,-0.88,1.46,79,218,2.021749496459961,1.3980332612991333
42,-0.015417263843119144,-2.469461679458618,0.0248342864215374,36.7147,3.1816177,42.22,-1.06,-0.88,1.47,79,218,2.018447160720825,1.380070447921753
43,-0.0441657155752182,-2.4693620204925537,-0.020424455404281616,36.7146854,3.181603,39.97,-1.06,-0.89,1.47,78,218,2.0279855728149414,1.3924640417099
44,-0.005135174375027418,-2.4691405296325684,0.004743833094835281,36.7146685,3.1815857,37.34,-1.06,-0.88,1.47,78,218,2.0211422443389893,1.3858481645584106
45,-0.06397047638893127,-2.46905517578125,-0.0024365067947655916,36.7146538,3.181571,35.1,-1.07,-0.88,1.47,78,218,2.034604072570801,1.3980448246002197
46,-0.019811397418379784,-2.4694533348083496,-0.017369918525218964,36.7146368,3.1815539,32.47,-1.05,-0.88,1.47,77,218,2.0195822715759277,1.3774259090423584
47,-0.05153220519423485,-2.4699196815490723,0.022582532837986946,36.7146223,3.1815392,30.22,-1.05,-0.89,1.47,77,218,2.019127368927002,1.3840521574020386
48,-0.006595613434910774,-2.4694368839263916,-0.005646797362715006,36.7146077,3.1815244,27.97,-1.06,-0.88,1.47,76,218,2.020855665206909,1.385678768157959
49,-0.031198402866721153,-2.4700734615325928,0.026339799165725708,36.7145906,3.1815073,25.35,-1.06,-0.87,1.47,76,218,2.0220861434936523,1.3794876337051392
50,-0.13661076128482819,-3.131324052810669,-0.1351345181465149,36.7145718,3.1814965,23.23,-1.91,-0.1,1.07,76,180,2.1989006996154785,1.9194642305374146
51,-0.19586510956287384,2.6765358448028564,-0.0024924755562096834,36.714527,3.1815155,22.59,-3.67,1.81,-0.06,75,153,4.09528112411499,4.094721794128418
52,-0.18155857920646667,2.679462194442749,-0.024324649944901466,36.7144727,3.1815488,22.68,-4.05,2.03,0.03,75,153,4.536890506744385,4.536724090576172
53,-0.010910628363490105,3.002936601638794,0.21838565170764923,36.7144199,3.1815748,22.62,-3.51,0.5,0.05,75,172,3.551987886428833,3.5515921115875244
54,-0.42903026938438416,-2.198416233062744,0.11224833130836487,36.7143708,3.1815426,22.6,-3.04,-4.01,0.01,74,234,5.035788536071777,5.035749912261963
55,-0.4602186977863312,-2.1459944248199463,0.019903630018234253,36.7143223,3.1814495,22.6,-4.24,-6.74,0.0,74,237,7.964261531829834,7.964259147644043
56,-0.47931772470474243,-2.150509834289551,-0.01280354242771864,36.7142482,3.1813039,22.62,-4.94,-7.69,0.0,73,236,9.14380931854248,9.14380931854248
57,-0.32794907689094543,-2.1527585983276367,0.0345236137509346,36.7141821,3.1811765,22.64,-4.64,-7.15,0.0,73,236,8.527752876281738,8.527750968933105
58,-0.21346761286258698,-2.1438772678375244,-0.006398788653314114,36.7141248,3.1810654,22.63,-3.79,-5.97,0.03,73,237,7.073485851287842,7.073395252227783
59,-0.271683931350708,-2.1119706630706787,0.04129990562796593,36.7140696,3.1809524,22.61,-3.31,-5.66,0.01,72,239,6.56260347366333,6.562588691711426
60,-0.26242783665657043,-2.099818229675293,-0.015954293310642242,36.7140259,3.1808576,22.61,-3.22,-5.66,0.01,72,239,6.51880407333374,6.518792629241943
61,-0.1414995789527893,-2.1001791954040527,0.028357306495308876,36.7139756,3.1807483,22.61,-2.93,-5.13,0.0,71,239,5.9104390144348145,5.910438537597656
62,0.1625751256942749,-2.1008989810943604,-0.026054253801703453,36.7139438,3.1806791,22.58,-1.54,-2.69,0.03,71,239,3.105194568634033,3.1049928665161133
63,0.09500359743833542,-2.100512742996216,0.026060333475470543,36.7139333,3.1806557,22.59,-0.16,-0.31,-0.01,71,239,0.35445913672447205,0.3540501594543457
64,-0.03272004798054695,-2.1022326946258545,0.046642374247312546,36.7139345,3.1806572,22.56,0.23,0.02,0.03,70,239,0.2426566779613495,0.24018646776676178
