timestamp,pitch,yaw,roll,lat,lon,alt,velocity_x,velocity_y,velocity_z,battery,heading,airspeed,groundspeed
0,0.011850950308144093,0.008447440341114998,-0.031304460018873215,36.7156066,3.18463,18.62,-0.02,0.02,0.02,96,0,0.04160477966070175,0.03260291740298271
1,-0.06565617024898529,0.002663514344021678,0.11801651865243912,36.7156077,3.1846321,18.63,0.28,0.5,0.0,95,0,0.5844493508338928,0.584428608417511
2,-0.23165960609912872,1.4736449718475342,-0.09080945700407028,36.7156221,3.1846599,18.59,1.63,2.55,-0.03,95,84,3.0374276638031006,3.0372719764709473
3,-0.14512594044208527,0.9106455445289612,-0.01589137502014637,36.7156493,3.1847126,18.63,2.24,3.5,-0.04,95,52,4.15730094909668,4.1570940017700195
4,-0.04439790919423103,0.9648206830024719,-0.0003399311099201441,36.7156802,3.1847709,18.66,2.09,3.15,-0.02,94,55,3.7872822284698486,3.7872040271759033
5,0.3665640950202942,1.0866873264312744,0.020101116970181465,36.7156974,3.1848022,18.66,-0.51,-0.73,0.0,94,62,0.8969035148620605,0.8968546986579895
6,-0.04502974823117256,2.744764566421509,0.22003161907196045,36.715677,3.1847652,18.69,-2.16,-3.09,-0.03,93,157,3.777794599533081,3.777644157409668
7,-0.1343824714422226,-1.924987554550171,0.008927593007683754,36.7156415,3.1847,18.68,-2.14,-3.22,0.0,93,249,3.8781797885894775,3.8781790733337402
8,0.00038314337143674493,-1.6463241577148438,0.2143816351890564,36.7156231,3.1846469,18.67,-0.14,-2.91,0.0,93,265,2.913869857788086,2.913862943649292
9,-0.41262394189834595,-0.6632007956504822,0.07785579562187195,36.7156463,3.1845993,18.66,3.64,-3.04,0.0,92,322,4.748387336730957,4.748386383056641
10,-0.49309471249580383,-0.6165682077407837,0.041169676929712296,36.7157162,3.1845367,18.66,6.45,-4.51,0.0,92,324,7.879429817199707,7.87942361831665
11,-0.5064076781272888,-0.6154775023460388,-0.02689722180366516,36.7158319,3.1844368,18.69,7.84,-5.47,0.0,91,324,9.567209243774414,9.567208290100098
12,-0.3748502731323242,-0.6197273135185242,0.02678648568689823,36.7159556,3.1843284,18.72,7.57,-5.37,-0.01,91,324,9.284770965576172,9.284753799438477
13,-0.05696965754032135,-0.6227801442146301,-0.029646622017025948,36.7160477,3.1842473,18.75,5.61,-4.02,0.04,91,324,6.90871000289917,6.908568382263184
14,0.050067879259586334,-0.9928060173988342,-0.215768501162529,36.7161011,3.1841914,18.81,1.84,-2.9,-0.16,90,303,3.4453630447387695,3.4411675930023193
15,-0.39798521995544434,-2.1268203258514404,-0.10882501304149628,36.7160914,3.1841266,19.73,-2.82,-4.33,-0.88,90,238,5.249207973480225,5.174273490905762
16,-0.4955943822860718,-2.1634624004364014,0.03470376133918762,36.7160379,3.1840329,21.52,-4.72,-6.83,-1.42,89,236,8.43384838104248,8.313383102416992
17,-0.42510566115379333,-2.1639461517333984,-0.018730904906988144,36.7159542,3.1838821,24.3,-5.5,-8.01,-1.61,89,236,9.855583190917969,9.722122192382812
18,-0.48397982120513916,-2.165199041366577,-0.02038443647325039,36.7158793,3.1837448,26.78,-5.53,-8.19,-1.56,88,235,10.009446144104004,9.886046409606934
19,-0.4499993920326233,-2.1638638973236084,0.03633401170372963,36.7157917,3.1835819,29.65,-5.56,-8.25,-1.58,88,236,10.08604621887207,9.960525512695312
20,-0.42385420203208923,-2.1627132892608643,-0.015814881771802902,36.7157166,3.183442,32.12,-5.53,-8.24,-1.6,87,236,10.063252449035645,9.934843063354492
21,-0.46963855624198914,-2.1637508869171143,-0.02983882650732994,36.7156419,3.1833029,34.61,-5.51,-8.26,-1.6,87,236,10.064409255981445,9.93527603149414
22,-0.4748530387878418,-2.1636440753936768,0.03446262329816818,36.7155549,3.1831405,37.52,-5.54,-8.29,-1.61,87,236,10.1072359085083,9.97734260559082
23,-0.4190765619277954,-2.1639623641967773,0.0011340179480612278,36.7154797,3.1830003,40.02,-5.51,-8.31,-1.62,86,236,10.108280181884766,9.976619720458984
24,-0.4903780221939087,-2.1624505519866943,-0.011514306999742985,36.7153926,3.1828372,42.94,-5.5,-8.28,-1.62,86,236,10.07127857208252,9.93956184387207
25,-0.46708160638809204,-2.1669728755950928,0.04091117903590202,36.7153181,3.182698,45.44,-5.51,-8.29,-1.62,85,235,10.092947959899902,9.96140193939209
26,-0.425176203250885,-2.1638500690460205,0.01951655186712742,36.7152433,3.1825578,47.94,-5.5,-8.29,-1.63,85,236,10.095558166503906,9.961930274963379
27,-0.48915770649909973,-2.165134906768799,-0.014124846085906029,36.7151561,3.1823946,50.86,-5.51,-8.29,-1.63,84,235,10.091065406799316,9.958531379699707
28,-0.47953853011131287,-2.1629745960235596,0.018485572189092636,36.7150816,3.1822549,53.37,-5.52,-8.29,-1.62,84,236,10.102563858032227,9.970307350158691
29,-0.23071269690990448,-2.1681103706359863,-0.02076711133122444,36.7149979,3.1820998,56.16,-4.75,-7.06,-1.41,83,235,8.631745338439941,8.515495300292969
30,-0.08998092263936996,-2.1637237071990967,0.014416503719985485,36.7149446,3.1820003,57.87,-3.07,-4.67,-0.75,83,236,5.647620677947998,5.597001552581787
31,-0.12281407415866852,-2.124004364013672,0.025838928297162056,36.7149103,3.1819329,58.56,-2.22,-3.69,-0.2,83,238,4.321305751800537,4.316336154937744
32,-0.17714452743530273,-2.1018528938293457,0.019730038940906525,36.7148772,3.1818613,58.65,-2.07,-3.69,-0.01,82,239,4.239473819732666,4.239455223083496
33,0.007300705648958683,-2.1028826236724854,-0.007913351990282536,36.7148497,3.1818014,58.64,-1.83,-3.21,0.0,82,239,3.6988651752471924,3.6988649368286133
34,0.018263645470142365,-2.3136672973632812,-0.025014705955982208,36.7148265,3.1817564,57.82,-1.21,-1.4,1.11,82,227,2.166860580444336,1.8563679456710815
35,-0.012204590253531933,-2.4819955825805664,-0.01629773899912834,36.7148115,3.1817399,55.62,-1.04,-0.79,1.45,81,217,1.9593563079833984,1.3090858459472656
36,-0.02403642237186432,-2.4707443714141846,0.0263381265103817,36.7147952,3.1817245,53.0,-1.03,-0.83,1.42,81,218,1.9437780380249023,1.3261642456054688
37,-0.038421861827373505,-2.4696879386901855,-0.02589043229818344,36.7147809,3.1817104,50.76,-1.07,-0.87,1.43,81,218,1.9906336069107056,1.383484959602356
38,-0.03608464449644089,-2.4699530601501465,0.02453993447124958,36.7147664,3.1816958,48.51,-1.05,-0.88,1.43,80,218,1.9888525009155273,1.3783421516418457
39,-0.056961361318826675,-2.469054937362671,-0.017688482999801636,36.7147494,3.1816787,45.9,-1.07,-0.87,1.45,80,218,2.0065226554870605,1.386841893196106
40,-0.018348364159464836,-2.4691710472106934,0.0241311676800251,36.7147348,3.1816642,43.66,-1.06,-0.87,1.45,79,218,2.003112316131592,1.3761584758758545
41,-0.0626399889588356,-2.469496965408325,0.012582204304635525,36.7147178,3.181647,41.03,-1.06,-0.9,1.45,79,218,2.0187463760375977,1.3971198797225952
42,-0.008551683276891708,-2.4696273803710938,0.0019062631763517857,36.7147033,3.1816323,38.79,-1.06,-0.87,1.46,79,218,2.0139827728271484,1.3829681873321533
43,-0.042708367109298706,-2.469935178756714,0.028771227225661278,36.7146862,3.1816152,36.18,-1.06,-0.89,1.47,78,218,2.0305275917053223,1.3944969177246094
44,-0.011722970753908157,-2.469590187072754,-0.01536472700536251,36.7146716,3.1816004,33.92,-1.07,-0.88,1.47,78,218,2.0221996307373047,1.3881621360778809
45,-0.05777151137590408,-2.469466209411621,0.012132873758673668,36.7146571,3.1815857,31.68,-1.05,-0.89,1.47,78,218,2.020063638687134,1.3845744132995605
46,-0.03294667601585388,-2.4694771766662598,-0.02328779175877571,36.7146401,3.1815685,29.06,-1.06,-0.88,1.47,77,218,2.025829553604126,1.3854732513427734
47,-0.04235714673995972,-2.4700539112091064,0.025801004841923714,36.7146255,3.1815538,26.81,-1.05,-0.88,1.47,77,218,2.01957631111145,1.3783460855484009
48,-0.050089914351701736,-2.4692916870117188,-0.022987954318523407,36.7146085,3.1815366,24.18,-1.06,-0.88,1.47,76,218,2.0234360694885254,1.387328028678894
49,-0.022724322974681854,-2.4695518016815186,0.026770973578095436,36.7145939,3.1815219,21.93,-1.05,-0.87,1.47,76,218,2.0149548053741455,1.3728535175323486
50,-0.10727816820144653,-2.90655517578125,-0.12792660295963287,36.714577,3.1815089,19.72,-1.64,-0.44,1.29,76,193,2.136871337890625,1.7010178565979004
51,-0.2034175544977188,2.6726393699645996,-0.022181445732712746,36.7145376,3.1815205,18.65,-3.42,1.64,-0.03,75,153,3.79414439201355,3.793997287750244
52,-0.19578194618225098,2.6793718338012695,-0.02064325287938118,36.7144851,3.1815527,18.76,-4.07,2.04,0.0,75,153,4.555629730224609,4.5556230545043945
53,-0.002329604234546423,2.9638988971710205,0.17339564859867096,36.7144225,3.1815857,18.71,-3.58,0.64,0.05,75,169,3.6459646224975586,3.6455516815185547
54,-0.39713171124458313,-2.2527973651885986,0.14528600871562958,36.7143797,3.1815672,18.69,-2.93,-3.19,0.02,74,230,4.345180511474609,4.34511661529541
55,-0.45536455512046814,-2.1378092765808105,0.015946798026561737,36.7143344,3.1814852,18.69,-3.96,-6.33,0.01,74,237,7.476011276245117,7.475997447967529
56,-0.4863443374633789,-2.147946834564209,-0.019168617203831673,36.7142626,3.1813435,18.7,-4.89,-7.67,0.0,73,236,9.100085258483887,9.100085258483887
57,-0.3676697611808777,-2.1524548530578613,0.025287015363574028,36.714196,3.1812147,18.72,-4.78,-7.38,0.0,73,236,8.800061225891113,8.800061225891113
58,-0.23638953268527985,-2.1448183059692383,-0.014071846380829811,36.7141274,3.181082,18.72,-3.81,-6.02,0.03,73,237,7.1315999031066895,7.131502151489258
59,-0.28208690881729126,-2.1175782680511475,0.04025682061910629,36.7140795,3.1809846,18.7,-3.36,-5.67,0.02,72,238,6.592602729797363,6.592563152313232
60,-0.2921175956726074,-2.0997586250305176,-0.024744534865021706,36.7140281,3.180874,18.7,-3.22,-5.66,0.01,72,239,6.513691425323486,6.513674259185791
61,-0.20718680322170258,-2.1001923084259033,0.021766871213912964,36.7139848,3.1807795,18.7,-3.09,-5.43,0.0,71,239,6.25130033493042,6.251299858093262
62,0.13332712650299072,-2.1010398864746094,-0.01668764092028141,36.7139491,3.1807019,18.68,-1.93,-3.39,0.04,71,239,3.912034034729004,3.9117724895477295
63,0.11547771096229553,-2.0999765396118164,0.029126161709427834,36.7139334,3.1806673,18.68,-0.2,-0.37,-0.01,71,239,0.4313640892505646,0.4309883415699005
64,-0.001031657331623137,-2.100719690322876,0.0005976028623990715,36.7139339,3.1806681,18.67,0.14,0.13,0.03,70,239,0.19909919798374176,0.1951199769973755
