timestamp,pitch,yaw,roll,lat,lon,alt,velocity_x,velocity_y,velocity_z,battery,heading,airspeed,groundspeed
0,-0.0037795095704495907,-0.033672887831926346,-0.02212422527372837,36.7156066,3.1846301,20.5,-0.01,0.01,0.0,96,358,0.02737537771463394,0.026986965909600258
1,-0.04280245304107666,-0.02062590792775154,0.1051524430513382,36.7156082,3.1846327,20.45,0.39,0.57,0.0,95,358,0.699665367603302,0.6996203660964966
2,-0.22429774701595306,1.4021295309066772,-0.08294214308261871,36.7156218,3.1846562,20.43,1.72,2.34,-0.02,95,80,2.9141106605529785,2.9139833450317383
3,-0.17873694002628326,0.9050483107566833,-0.011656775139272213,36.7156567,3.1847145,20.47,2.47,3.32,-0.03,95,51,4.144778728485107,4.1446428298950195
4,0.06294715404510498,0.9093717336654663,0.02451864816248417,36.7156895,3.1847686,20.48,2.07,2.73,-0.01,94,52,3.4358060359954834,3.435760021209717
5,0.3252827525138855,0.5656746029853821,-0.15691113471984863,36.7157033,3.1847891,20.47,-0.46,-0.8,0.0,94,32,0.9282259941101074,0.9282023906707764
6,-0.0701737254858017,-1.2753627300262451,-0.1354944258928299,36.7156782,3.1847425,20.52,-2.24,-3.24,-0.01,93,286,3.9457621574401855,3.94572114944458
7,-0.11358870565891266,-2.403242826461792,0.06477434188127518,36.7156479,3.184687,20.52,-2.17,-3.28,0.01,93,222,3.944584846496582,3.9445576667785645
8,-0.0888681411743164,-1.4479992389678955,0.22919528186321259,36.7156301,3.184625,20.49,0.48,-2.81,0.01,93,277,2.8549413681030273,2.854910135269165
9,-0.4208126366138458,-0.6630781888961792,0.10482192784547806,36.7156627,3.1845762,20.49,4.25,-3.2,0.0,92,322,5.323923587799072,5.323923587799072
10,-0.48376455903053284,-0.6253748536109924,0.005517087411135435,36.7157389,3.1845096,20.49,6.83,-4.7,0.0,92,324,8.298571586608887,8.298569679260254
11,-0.5100540518760681,-0.6176319718360901,0.007851293310523033,36.7158576,3.184407,20.51,7.88,-5.51,0.0,91,324,9.619473457336426,9.619471549987793
12,-0.36262932419776917,-0.6200096011161804,0.028054770082235336,36.7159636,3.1843137,20.53,7.55,-5.34,-0.02,91,324,9.256110191345215,9.25607967376709
13,-0.053860507905483246,-0.62718266248703,-0.05569974705576897,36.7160669,3.1842227,20.56,5.08,-3.66,0.04,91,324,6.267436981201172,6.267257213592529
14,0.02184031903743744,-1.2205231189727783,-0.2622620165348053,36.7161107,3.1841698,20.69,1.05,-2.88,-0.26,90,290,3.0877768993377686,3.0761587619781494
15,-0.4419514834880829,-2.1336309909820557,-0.04147474840283394,36.7160905,3.1840992,21.82,-3.29,-4.73,-0.99,90,237,5.855981826782227,5.771233558654785
16,-0.4557575285434723,-2.1580114364624023,0.02023029513657093,36.7160328,3.1839982,23.76,-5.0,-7.13,-1.47,89,236,8.837394714355469,8.713415145874023
17,-0.41776710748672485,-2.1639411449432373,-0.023361995816230774,36.7159597,3.1838675,26.16,-5.54,-8.01,-1.6,89,236,9.881304740905762,9.749590873718262
18,-0.48982110619544983,-2.1659538745880127,0.022388523444533348,36.7158718,3.1837066,29.02,-5.53,-8.22,-1.58,88,235,10.034738540649414,9.908397674560547
19,-0.4455641508102417,-2.1631906032562256,0.026908621191978455,36.7157969,3.1835673,31.5,-5.52,-8.23,-1.59,88,236,10.043896675109863,9.916375160217285
20,-0.46900710463523865,-2.161358594894409,-0.03496941924095154,36.7157097,3.1834045,34.39,-5.54,-8.28,-1.59,87,236,10.094192504882812,9.966583251953125
21,-0.4889947474002838,-2.1660377979278564,0.012646529823541641,36.7156347,3.1832648,36.86,-5.53,-8.25,-1.61,87,235,10.070394515991211,9.939804077148438
22,-0.43018507957458496,-2.163419485092163,0.01522806566208601,36.7155474,3.1831021,39.78,-5.5,-8.24,-1.62,87,236,10.042012214660645,9.909058570861816
23,-0.45129477977752686,-2.1655657291412354,-0.02594240941107273,36.715473,3.1829629,42.29,-5.5,-8.3,-1.62,86,235,10.099371910095215,9.968565940856934
24,-0.4928057789802551,-2.165428638458252,0.004975238349288702,36.7153984,3.1828231,44.78,-5.51,-8.31,-1.62,86,235,10.10703182220459,9.975044250488281
25,-0.42576485872268677,-2.1654531955718994,0.021579904481768608,36.715311,3.1826597,47.7,-5.51,-8.28,-1.63,85,235,10.0869722366333,9.952962875366211
26,-0.43381598591804504,-2.1660284996032715,-0.00732297170907259,36.7152362,3.1825201,50.21,-5.51,-8.31,-1.63,85,235,10.10840892791748,9.975616455078125
27,-0.4849129617214203,-2.165463924407959,0.026216162368655205,36.7151493,3.1823568,53.13,-5.53,-8.29,-1.63,84,235,10.105757713317871,9.972800254821777
28,-0.41418564319610596,-2.1630921363830566,0.02860056422650814,36.7150744,3.1822168,55.62,-5.51,-8.26,-1.64,84,236,10.067793846130371,9.932997703552246
29,-0.23046258091926575,-2.16801381111145,-0.020666802302002907,36.7150036,3.1820857,58.01,-4.73,-7.04,-1.4,83,235,8.60489273071289,8.488592147827148
30,-0.06440768390893936,-2.1592793464660645,0.03882543742656708,36.714944,3.1819741,59.88,-2.86,-4.37,-0.63,83,236,5.265926837921143,5.227899074554443
31,-0.12835143506526947,-2.117009401321411,-0.007968992926180363,36.7149113,3.1819087,60.43,-2.19,-3.69,-0.14,83,238,4.297574043273926,4.295028209686279
32,-0.1463417410850525,-2.1018898487091064,0.029662247747182846,36.7148784,3.1818372,60.47,-2.07,-3.68,-0.01,82,239,4.228846549987793,4.228824615478516
33,-0.0018283858662471175,-2.104753255844116,-0.03442399948835373,36.7148518,3.1817793,60.45,-1.7,-2.96,0.07,82,239,3.421907663345337,3.420989513397217
34,0.037972480058670044,-2.3772735595703125,-0.03163975104689598,36.71483,3.1817397,59.31,-1.18,-1.22,1.31,82,223,2.148975372314453,1.7029587030410767
35,-0.04604634270071983,-2.470198392868042,-0.023644782602787018,36.7148154,3.1817246,57.04,-1.03,-0.79,1.44,81,218,1.946800947189331,1.3033751249313354
36,-0.029371963813900948,-2.4705777168273926,0.030466044321656227,36.7148014,3.1817114,54.8,-1.02,-0.83,1.43,81,218,1.9479628801345825,1.3226401805877686
37,-0.05982464551925659,-2.469398260116577,0.0010210120817646384,36.7147847,3.181695,52.19,-1.06,-0.87,1.44,81,218,1.9992750883102417,1.3810211420059204
38,-0.011340859346091747,-2.469663143157959,0.010374657809734344,36.7147701,3.1816804,49.94,-1.06,-0.87,1.45,80,218,2.003354787826538,1.3799912929534912
39,-0.05695232376456261,-2.470026731491089,0.023394359275698662,36.7147532,3.1816634,47.32,-1.06,-0.88,1.45,80,218,2.00852108001709,1.3842438459396362
40,-0.010848973877727985,-2.469558000564575,-0.008370026014745235,36.7147387,3.1816487,45.08,-1.06,-0.88,1.46,79,218,2.018829584121704,1.3892632722854614
41,-0.0429447740316391,-2.4694290161132812,0.029059434309601784,36.7147216,3.1816316,42.46,-1.07,-0.88,1.47,79,218,2.0260441303253174,1.3912162780761719
42,-0.026349034160375595,-2.469841480255127,-0.023362474516034126,36.714707,3.1816169,40.21,-1.07,-0.88,1.46,79,218,2.0250244140625,1.3928598165512085
43,-0.05539700388908386,-2.469813823699951,0.022635649889707565,36.7146924,3.1816022,37.97,-1.06,-0.89,1.47,78,218,2.02337646484375,1.3870785236358643
44,-0.040856651961803436,-2.4694406986236572,-0.023729871958494186,36.7146755,3.1815849,35.35,-1.07,-0.88,1.48,78,218,2.0331172943115234,1.3916229009628296
45,-0.04086045175790787,-2.4694581031799316,0.027023550122976303,36.7146609,3.1815703,33.1,-1.06,-0.87,1.47,78,218,2.0258500576019287,1.3850411176681519
46,-0.05794853717088699,-2.4690749645233154,-0.011747067794203758,36.7146439,3.1815531,30.47,-1.06,-0.88,1.47,77,218,2.0275325775146484,1.3906563520431519
47,-0.01364207360893488,-2.469494104385376,0.02246236987411976,36.7146292,3.1815383,28.23,-1.05,-0.88,1.48,77,218,2.0228209495544434,1.3771421909332275
48,-0.04155520349740982,-2.4693262577056885,-0.023077713325619698,36.7146147,3.1815236,25.98,-1.06,-0.87,1.48,77,218,2.0254902839660645,1.3823139667510986
49,-0.008580580353736877,-2.469350814819336,0.005985017400234938,36.7145976,3.1815065,23.34,-1.07,-0.87,1.47,76,218,2.023052215576172,1.3857643604278564
50,-0.15832777321338654,-3.0932846069335938,-0.11706210672855377,36.7145791,3.1814953,21.21,-1.86,-0.16,1.12,76,182,2.1845977306365967,1.8705204725265503
51,-0.20330041646957397,2.668579339981079,-0.03346014767885208,36.7145353,3.1815134,20.49,-3.58,1.79,-0.06,75,152,4.009517192840576,4.009023666381836
52,-0.19218586385250092,2.671919107437134,0.0010081322398036718,36.7144824,3.1815466,20.58,-4.01,2.04,0.02,75,153,4.504915237426758,4.504838943481445
53,-0.027138540521264076,3.139584541320801,0.2062210589647293,36.7144222,3.1815739,20.52,-3.36,0.02,0.04,75,179,3.3695805072784424,3.369333028793335
54,-0.42015892267227173,-2.197448968887329,0.12666508555412292,36.7143808,3.1815417,20.51,-3.03,-3.95,0.01,74,234,4.983658313751221,4.983630657196045
55,-0.4566497206687927,-2.1477930545806885,0.009071455337107182,36.7143325,3.1814498,20.51,-4.23,-6.73,0.0,74,236,7.9501142501831055,7.950110912322998
56,-0.48706457018852234,-2.1505045890808105,0.0018043458694592118,36.7142587,3.1813045,20.52,-4.93,-7.71,0.0,73,236,9.160821914672852,9.160820960998535
57,-0.3216467797756195,-2.1523845195770264,0.029498113319277763,36.7141925,3.1811764,20.54,-4.64,-7.16,0.0,73,236,8.533681869506836,8.53367805480957
58,-0.2737187445163727,-2.1429970264434814,-0.005690266843885183,36.7141268,3.1810488,20.53,-3.69,-5.84,0.03,73,237,6.91864013671875,6.9185614585876465
59,-0.269369900226593,-2.118597984313965,0.039386507123708725,36.7140794,3.1809523,20.51,-3.37,-5.66,0.0,72,238,6.595399379730225,6.595395565032959
60,-0.30379772186279297,-2.1081719398498535,-0.016652129590511322,36.7140271,3.1808412,20.51,-3.27,-5.64,0.0,72,239,6.524774551391602,6.524768829345703
61,-0.14755281805992126,-2.10897159576416,0.027940873056650162,36.7139835,3.1807482,20.51,-2.97,-5.12,0.0,71,239,5.927388668060303,5.927387714385986
62,0.1616896390914917,-2.109630584716797,-0.025400998070836067,36.713951,3.180679,20.49,-1.6,-2.76,0.03,71,239,3.2009925842285156,3.200824737548828
63,0.10146383941173553,-2.108250856399536,0.02767409011721611,36.7139394,3.1806539,20.5,-0.07,-0.14,-0.01,71,239,0.1642725020647049,0.16358105838298798
64,-0.017412202432751656,-2.10998797416687,0.037398405373096466,36.7139406,3.1806554,20.47,0.25,0.04,0.03,70,239,0.25792744755744934,0.2548793852329254
