timestamp,pitch,yaw,roll,lat,lon,alt,velocity_x,velocity_y,velocity_z,battery,heading,airspeed,groundspeed
0,0.019105996936559677,-0.028616005554795265,-0.022104479372501373,36.7156067,3.1846299,19.68,-0.03,0.02,0.04,96,358,0.062269870191812515,0.04302755370736122
1,-0.04900737106800079,0.008110097609460354,0.12884752452373505,36.7156082,3.1846332,19.63,0.39,0.67,0.0,95,0,0.7827284336090088,0.7827142477035522
2,-0.22152072191238403,1.4934484958648682,-0.10571423918008804,36.7156218,3.1846595,19.6,1.68,2.53,-0.03,95,85,3.0402681827545166,3.0401077270507812
3,-0.13578170537948608,0.8540710806846619,-0.00940253958106041,36.7156494,3.1847108,19.65,2.26,3.39,-0.04,95,48,4.075943946838379,4.075714588165283
4,0.1016995906829834,0.9626539945602417,0.034567318856716156,36.7156841,3.1847745,19.68,1.75,2.6,-0.01,94,55,3.1416702270507812,3.1416079998016357
5,0.32828450202941895,1.0493847131729126,0.004411188419908285,36.7156929,3.1847897,19.67,-0.8,-1.17,0.0,94,60,1.4277091026306152,1.4277089834213257
6,-0.04462597519159317,3.0542209148406982,0.12032864987850189,36.7156653,3.1847399,19.72,-2.27,-3.21,-0.01,93,174,3.9367709159851074,3.9367477893829346
7,-0.12169341742992401,-1.901820182800293,0.056317027658224106,36.7156353,3.1846843,19.71,-2.08,-3.27,0.0,93,251,3.881026268005371,3.8810174465179443
8,-0.03968282788991928,-1.4974186420440674,0.21218274533748627,36.71562,3.184631,19.69,0.22,-2.88,0.0,93,274,2.8938677310943604,2.893862247467041
9,-0.4106143116950989,-0.6466878056526184,0.08381491899490356,36.7156587,3.1845733,19.69,4.55,-3.33,0.0,92,322,5.646901607513428,5.646899223327637
10,-0.5034121870994568,-0.6281124353408813,-0.01723441109061241,36.7157379,3.1845039,19.69,6.97,-4.84,0.0,92,324,8.49417781829834,8.494173049926758
11,-0.4892598092556,-0.6186336278915405,0.025713248178362846,36.7158578,3.1843999,19.71,7.88,-5.54,-0.01,91,324,9.63620376586914,9.63619613647461
12,-0.32769447565078735,-0.6231592297554016,-0.007015390321612358,36.715963,3.1843068,19.73,7.4,-5.27,-0.02,91,324,9.095023155212402,9.09497356414795
13,-0.022457225248217583,-0.6421424150466919,-0.03595830500125885,36.7160619,3.1842184,19.74,4.67,-3.51,0.03,91,324,6.439573764801025,6.439455032348633
14,-0.05542430654168129,-1.388195276260376,-0.30858319997787476,36.7160991,3.1841666,19.94,0.51,-2.92,-0.33,90,280,2.989013671875,2.9700937271118164
15,-0.4277428984642029,-2.130610466003418,-0.04452848434448242,36.7160797,3.1841057,20.94,-3.14,-4.6,-0.96,90,237,5.6611785888671875,5.578332901000977
16,-0.4656924307346344,-2.1626789569854736,-0.0219549722969532,36.7160119,3.1839868,23.22,-5.11,-7.32,-1.51,89,236,9.065485000610352,8.938668251037598
17,-0.4776885211467743,-2.1637845039367676,-0.023196028545498848,36.7159383,3.1838545,25.65,-5.53,-8.05,-1.6,89,236,9.90782356262207,9.776993751525879
18,-0.4313620924949646,-2.16291880607605,0.026906317099928856,36.7158504,3.183693,28.51,-5.53,-8.22,-1.58,88,236,10.038619041442871,9.912840843200684
19,-0.43431589007377625,-2.163990020751953,-0.029054952785372734,36.7157752,3.1835535,30.98,-5.53,-8.22,-1.59,88,236,10.045662879943848,9.918179512023926
20,-0.493895024061203,-2.1662800312042236,-0.009384574368596077,36.7157006,3.1834147,33.45,-5.52,-8.28,-1.6,88,235,10.084678649902344,9.955750465393066
21,-0.4283345341682434,-2.1653454303741455,0.02735201269388199,36.7156133,3.1832515,36.36,-5.52,-8.28,-1.61,87,235,10.093461990356445,9.962702751159668
22,-0.43986499309539795,-2.1646554470062256,-0.027100831270217896,36.7155386,3.1831117,38.85,-5.5,-8.25,-1.62,87,235,10.050265312194824,9.918562889099121
23,-0.4801444709300995,-2.163911819458008,0.03184685856103897,36.7154517,3.182949,41.76,-5.51,-8.29,-1.63,86,236,10.091099739074707,9.957243919372559
24,-0.43027982115745544,-2.1628403663635254,0.0190573763102293,36.7153769,3.1828093,44.26,-5.52,-8.27,-1.64,86,236,10.088557243347168,9.953896522521973
25,-0.48825034499168396,-2.164240598678589,-0.01434707548469305,36.7152897,3.1826463,47.19,-5.51,-8.29,-1.62,85,236,10.099031448364258,9.966663360595703
26,-0.48430582880973816,-2.163849353790283,0.016946038231253624,36.715215,3.1825066,49.68,-5.53,-8.28,-1.63,85,236,10.098305702209473,9.964324951171875
27,-0.43434327840805054,-2.1648566722869873,-0.016451459378004074,36.7151275,3.1823432,52.61,-5.51,-8.31,-1.64,84,235,10.115310668945312,9.980217933654785
28,-0.4515034854412079,-2.1630232334136963,-0.029361193999648094,36.7150527,3.1822032,55.12,-5.48,-8.21,-1.62,84,236,10.007171630859375,9.874308586120605
29,-0.2181791067123413,-2.167154312133789,0.027958275750279427,36.7149837,3.1820749,57.45,-4.54,-6.78,-1.36,83,235,8.282671928405762,8.169938087463379
30,-0.07953410595655441,-2.153110980987549,-0.009697484783828259,36.7149272,3.1819685,59.18,-2.72,-4.2,-0.56,83,236,5.040733814239502,5.0085978507995605
31,-0.1296556293964386,-2.1004860401153564,0.04259872809052467,36.7148958,3.1819041,59.65,-2.1,-3.68,-0.11,83,239,4.245686054229736,4.244182109832764
32,-0.17525725066661835,-2.086620330810547,-0.005843234248459339,36.7148639,3.1818325,59.67,-1.98,-3.68,-0.01,82,240,4.180132865905762,4.180126190185547
33,0.036246370524168015,-2.0946638584136963,-0.001816997304558754,36.7148391,3.1817764,59.63,-1.55,-2.78,0.15,82,239,3.1957523822784424,3.1921823024749756
34,-0.0020322122145444155,-2.3566861152648926,-0.06305128335952759,36.7148212,3.1817434,58.59,-1.18,-1.29,1.26,82,224,2.168342113494873,1.7575918436050415
35,-0.008076394908130169,-2.4643404483795166,-0.004887145943939686,36.714804,3.1817256,55.95,-1.03,-0.79,1.43,81,218,1.9391030073165894,1.3064138889312744
36,-0.06339879333972931,-2.4695615768432617,0.010210707783699036,36.71479,3.1817124,53.73,-1.03,-0.84,1.43,81,218,1.9625550508499146,1.3339259624481201
37,-0.032943304628133774,-2.4693593978881836,-0.024694761261343956,36.7147733,3.1816959,51.11,-1.07,-0.88,1.44,81,218,2.0104281902313232,1.3926223516464233
38,-0.03900892660021782,-2.470276355743408,0.028391607105731964,36.7147587,3.1816812,48.86,-1.07,-0.89,1.45,80,218,2.0130085945129395,1.3941611051559448
39,-0.01686222106218338,-2.4695353507995605,-0.01605888456106186,36.7147442,3.1816666,46.62,-1.07,-0.88,1.46,80,218,2.018625259399414,1.393735408782959
40,-0.016848495230078697,-2.469552516937256,0.021657677367329597,36.7147272,3.1816495,44.01,-1.07,-0.88,1.47,79,218,2.025449514389038,1.393163800239563
41,-0.04449866712093353,-2.469209671020508,-0.023882772773504257,36.7147126,3.1816348,41.76,-1.07,-0.89,1.47,79,218,2.0293619632720947,1.3972970247268677
42,-0.011245306581258774,-2.4696035385131836,-0.007563045714050531,36.7146957,3.1816177,39.14,-1.07,-0.88,1.47,79,218,2.0311172008514404,1.3932392597198486
43,-0.06448717415332794,-2.469548225402832,0.0024774924386292696,36.714681,3.1816029,36.89,-1.07,-0.89,1.48,78,218,2.0340113639831543,1.395270824432373
44,-0.02614554576575756,-2.4695067405700684,-0.02249544858932495,36.714664,3.1815857,34.26,-1.07,-0.87,1.47,78,218,2.0260794162750244,1.3879879713058472
45,-0.04516610503196716,-2.4695611000061035,0.02655607834458351,36.7146494,3.181571,32.01,-1.05,-0.88,1.47,78,218,2.0159993171691895,1.3752355575561523
46,-0.05545855686068535,-2.4693403244018555,-0.01871604099869728,36.7146325,3.1815539,29.4,-1.07,-0.88,1.48,77,218,2.0363476276397705,1.3951112031936646
47,-0.018509268760681152,-2.4695396423339844,0.022510552778840065,36.7146178,3.181539,27.14,-1.06,-0.87,1.47,77,218,2.02228045463562,1.3808796405792236
48,-0.03792182356119156,-2.4693450927734375,-0.021811848506331444,36.7146032,3.1815243,24.89,-1.06,-0.88,1.47,77,218,2.0233042240142822,1.3837049007415771
49,-0.018126966431736946,-2.4743664264678955,-0.014725695364177227,36.7145862,3.1815073,22.27,-1.08,-0.86,1.47,76,218,2.024535894393921,1.3815085887908936
50,-0.18077190220355988,3.07344388961792,-0.11605942994356155,36.7145662,3.1814976,20.21,-2.03,0.03,0.97,76,176,2.2542898654937744,2.0310351848602295
51,-0.21554388105869293,2.6776123046875,-0.029747555032372475,36.7145194,3.1815194,19.71,-3.75,1.85,-0.05,75,153,4.187748908996582,4.187371730804443
52,-0.17307227849960327,2.679377555847168,0.034242115914821625,36.7144652,3.1815527,19.78,-4.05,2.02,0.04,75,153,4.534815311431885,4.5345587730407715
53,-0.008901684544980526,3.0759778022766113,0.19562093913555145,36.7144129,3.1815764,19.72,-3.47,0.27,0.04,75,176,3.4827935695648193,3.4825146198272705
54,-0.402042031288147,-2.1902894973754883,0.12107230722904205,36.714364,3.1815378,19.71,-3.1,-4.29,0.01,74,234,5.295990943908691,5.2959675788879395
55,-0.4725266695022583,-2.1545016765594482,-0.014259903691709042,36.714314,3.1814416,19.71,-4.32,-6.9,0.0,74,236,8.148762702941895,8.148759841918945
56,-0.46416473388671875,-2.1524648666381836,0.03100227564573288,36.7142393,3.1812946,19.72,-4.93,-7.74,0.0,73,236,9.180553436279297,9.180550575256348
57,-0.29318732023239136,-2.1532840728759766,0.0007387317600660026,36.7141736,3.1811676,19.74,-4.56,-7.03,0.0,73,236,8.381963729858398,8.381962776184082
58,-0.27394306659698486,-2.138840436935425,0.03784115985035896,36.7141093,3.181042,19.73,-3.59,-5.78,0.02,73,237,6.812708854675293,6.812642574310303
59,-0.24625828862190247,-2.1097893714904785,0.004829793702811003,36.714063,3.180946,19.71,-3.31,-5.67,0.0,72,239,6.570215225219727,6.570213317871094
60,-0.30615344643592834,-2.0997114181518555,-0.006095223128795624,36.7140188,3.1808505,19.71,-3.21,-5.65,0.0,72,239,6.508161544799805,6.508155345916748
61,-0.09019308537244797,-2.0998594760894775,-0.005441276356577873,36.7139693,3.1807423,19.72,-2.84,-4.97,0.0,71,239,5.731451034545898,5.731451511383057
62,0.12808498740196228,-2.100698232650757,0.006401111837476492,36.7139392,3.1806771,19.68,-1.39,-2.45,0.02,71,239,2.82119083404541,2.821096181869507
63,0.08095687627792358,-2.100548267364502,-0.030286306515336037,36.7139298,3.1806563,19.7,0.0,-0.04,-0.01,71,239,0.04727071523666382,0.045897942036390305
64,-0.01844886690378189,-2.102375030517578,0.10857801884412766,36.7139312,3.1806581,19.67,0.31,0.0,0.03,70,239,0.313173770904541,0.3114857077598572
