timestamp,pitch,yaw,roll,lat,lon,alt,velocity_x,velocity_y,velocity_z,battery,heading,airspeed,groundspeed
0,0.01778273656964302,0.007947321981191635,0.02960911951959133,36.7156066,3.1846299,21.06,-0.02,0.03,-0.02,96,0,0.048469431698322296,0.043318942189216614
1,-0.08141454309225082,0.002027413807809353,0.06396742910146713,36.7156077,3.1846319,21.0,0.32,0.49,-0.01,95,0,0.5861717462539673,0.5858680605888367
2,-0.19529074430465698,1.3393524885177612,-0.11960243433713913,36.7156241,3.184659,21.03,1.88,2.46,-0.04,95,76,3.102811813354492,3.102487325668335
3,-0.15888339281082153,0.8922310471534729,0.02265903167426586,36.7156554,3.1847094,21.05,2.56,3.34,-0.02,95,51,4.213428497314453,4.213360786437988
4,0.016803395003080368,0.9060156941413879,-0.016837546601891518,36.7156954,3.1847731,21.05,2.15,2.74,0.0,94,51,3.486354351043701,3.486341714859009
5,0.36231642961502075,0.4845663011074066,-0.15728436410427094,36.71571,3.1847934,21.08,-0.45,-0.81,-0.02,94,27,0.9331790208816528,0.9328119158744812
6,-0.10920784622430801,-1.086460828781128,-0.1730533391237259,36.7156898,3.1847555,21.06,-2.16,-3.14,0.05,93,297,3.8144004344940186,3.8140101432800293
7,-0.10169240087270737,-2.382829189300537,0.02462727576494217,36.7156544,3.184691,21.11,-2.16,-3.28,0.0,93,223,3.936493158340454,3.9364922046661377
8,-0.020222390070557594,-1.663000226020813,0.26528996229171753,36.7156361,3.1846375,21.06,-0.14,-2.92,0.03,93,264,2.9251270294189453,2.924964189529419
9,-0.44288110733032227,-0.6658210158348083,0.07912807911634445,36.7156687,3.1845806,21.05,4.22,-3.21,0.0,92,321,5.313514709472656,5.313514709472656
10,-0.5214776396751404,-0.621101438999176,0.03730842098593712,36.7157296,3.1845264,21.05,6.47,-4.51,0.0,92,324,7.894404411315918,7.89440393447876
11,-0.5095981359481812,-0.6184883713722229,-0.023351488634943962,36.7158627,3.1844108,21.07,7.89,-5.51,0.0,91,324,9.629096031188965,9.629096984863281
12,-0.3786957263946533,-0.6223173141479492,0.029506275430321693,36.7159685,3.1843174,21.1,7.52,-5.34,-0.02,91,324,9.231538772583008,9.231510162353516
13,-0.0519101619720459,-0.6263734698295593,-0.026956304907798767,36.7160592,3.1842368,21.12,5.52,-3.96,0.04,91,324,6.80346155166626,6.803316593170166
14,0.010943768545985222,-1.2358348369598389,-0.2539692521095276,36.7161141,3.1841732,21.25,0.97,-2.88,-0.27,90,289,3.0597190856933594,3.04734468460083
15,-0.4012277126312256,-2.126225709915161,-0.10450103133916855,36.7161001,3.1841153,22.16,-2.85,-4.38,-0.89,90,238,5.311257362365723,5.234748363494873
16,-0.45356956124305725,-2.158478260040283,0.020927151665091515,36.7160351,3.1840007,24.34,-5.0,-7.14,-1.48,89,236,8.84872055053711,8.723845481872559
17,-0.4285663962364197,-2.1648097038269043,-0.016479894518852234,36.715962,3.18387,26.75,-5.55,-8.03,-1.6,89,235,9.900541305541992,9.76901626586914
18,-0.48132655024528503,-2.1638686656951904,0.03251398354768753,36.7158744,3.183709,29.61,-5.53,-8.2,-1.58,88,236,10.028091430664062,9.90209674835205
19,-0.4326047897338867,-2.1641499996185303,0.019755715504288673,36.7157993,3.1835699,32.09,-5.55,-8.25,-1.59,88,236,10.078593254089355,9.952045440673828
20,-0.4503200650215149,-2.1666951179504395,-0.029459279030561447,36.7157243,3.1834303,34.57,-5.55,-8.29,-1.59,88,235,10.110187530517578,9.983100891113281
21,-0.46822476387023926,-2.1658225059509277,0.0366097129881382,36.7156369,3.1832671,37.46,-5.51,-8.27,-1.61,87,235,10.073899269104004,9.943521499633789
22,-0.42475998401641846,-2.163508653640747,0.016291622072458267,36.7155622,3.1831273,39.95,-5.5,-8.25,-1.63,87,236,10.058326721191406,9.925054550170898
23,-0.4897618889808655,-2.1643872261047363,-0.0052939471788704395,36.7154752,3.1829648,42.87,-5.5,-8.26,-1.62,86,235,10.065410614013672,9.932632446289062
24,-0.46188727021217346,-2.1661629676818848,0.040167469531297684,36.7154004,3.1828253,45.37,-5.52,-8.3,-1.63,86,235,10.10675048828125,9.9733304977417
25,-0.42436349391937256,-2.164825201034546,0.006751426495611668,36.7153257,3.1826852,47.87,-5.51,-8.32,-1.63,85,235,10.120762825012207,9.98732852935791
26,-0.48438823223114014,-2.162907123565674,-0.008687487803399563,36.7152386,3.1825217,50.79,-5.5,-8.27,-1.63,85,236,10.074501991271973,9.940898895263672
27,-0.4580337405204773,-2.164588451385498,0.040217749774456024,36.7151639,3.1823826,53.3,-5.52,-8.29,-1.63,84,235,10.099151611328125,9.96573257446289
28,-0.4416736960411072,-2.1642863750457764,-0.03207716345787048,36.7150765,3.1822193,56.23,-5.52,-8.3,-1.62,84,236,10.107094764709473,9.975150108337402
29,-0.264377236366272,-2.167675495147705,0.013493034988641739,36.7150059,3.1820879,58.59,-4.69,-7.0,-1.4,83,235,8.543278694152832,8.427162170410156
30,-0.03832726180553436,-2.1613731384277344,0.026618901640176773,36.7149534,3.1819897,60.27,-3.05,-4.62,-0.73,83,236,5.587683200836182,5.5387678146362305
31,-0.15686503052711487,-2.104719638824463,0.038934431970119476,36.7149148,3.181912,60.98,-2.12,-3.68,-0.14,83,239,4.257515907287598,4.2549519538879395
32,-0.12692585587501526,-2.0860209465026855,-0.007584364619106054,36.7148873,3.1818507,61.03,-1.99,-3.68,-0.01,82,240,4.1924285888671875,4.192410945892334
33,0.008463982492685318,-2.0899817943573,0.016817186027765274,36.7148573,3.1817826,61.01,-1.61,-2.94,0.08,82,240,3.3543009757995605,3.353189468383789
34,0.01818304881453514,-2.319913148880005,-0.06833519041538239,36.7148389,3.1817472,60.15,-1.2,-1.4,1.16,82,227,2.186410903930664,1.8520549535751343
35,-0.006045585963875055,-2.4688825607299805,0.011683988384902477,36.7148215,3.1817284,57.55,-1.03,-0.79,1.44,81,218,1.9456838369369507,1.3061723709106445
36,-0.060945261269807816,-2.470557451248169,-0.0022707681637257338,36.7148075,3.1817152,55.31,-1.05,-0.83,1.42,81,218,1.961690068244934,1.3428980112075806
37,-0.014040905050933361,-2.4697518348693848,0.017843075096607208,36.7147932,3.1817011,53.07,-1.06,-0.87,1.43,81,218,1.9909807443618774,1.3764973878860474
38,-0.050976697355508804,-2.470327138900757,0.022889189422130585,36.7147763,3.1816841,50.45,-1.06,-0.89,1.44,80,218,2.006326675415039,1.3883602619171143
39,-0.009943925775587559,-2.4692585468292236,-0.004992238711565733,36.7147618,3.1816695,48.21,-1.07,-0.88,1.45,80,218,2.014676809310913,1.392321228981018
40,-0.02516201138496399,-2.469374895095825,0.027179453521966934,36.7147447,3.1816524,45.6,-1.06,-0.88,1.47,79,218,2.0199859142303467,1.385231375694275
41,-0.03738309070467949,-2.4695417881011963,-0.02141151763498783,36.7147301,3.1816377,43.35,-1.07,-0.89,1.47,79,218,2.032216787338257,1.3964855670928955
42,-0.03786272928118706,-2.4697532653808594,0.02982400357723236,36.7147156,3.181623,41.11,-1.06,-0.88,1.47,79,218,2.023092269897461,1.3829110860824585
43,-0.0594269335269928,-2.4693233966827393,-0.0022632903419435024,36.7146985,3.1816058,38.48,-1.06,-0.89,1.47,78,218,2.0313305854797363,1.3950207233428955
44,-0.009976369328796864,-2.469433069229126,0.011926848441362381,36.714684,3.181591,36.23,-1.06,-0.88,1.47,78,218,2.025763511657715,1.3862195014953613
45,-0.05241838097572327,-2.469601631164551,0.026251180097460747,36.7146669,3.1815739,33.6,-1.07,-0.88,1.47,78,218,2.026494264602661,1.3894448280334473
46,-0.014550207182765007,-2.4697439670562744,-0.017009969800710678,36.7146524,3.1815592,31.35,-1.07,-0.88,1.47,77,218,2.0244860649108887,1.389083981513977
47,-0.06371528655290604,-2.469510316848755,0.014428033493459225,36.7146378,3.1815445,29.11,-1.06,-0.88,1.47,77,218,2.020878791809082,1.3825939893722534
48,-0.0406842976808548,-2.4693310260772705,-0.02182387374341488,36.7146207,3.1815273,26.49,-1.06,-0.88,1.48,76,218,2.0282092094421387,1.385184645652771
49,-0.030577300116419792,-2.4696171283721924,0.02626427635550499,36.7146061,3.1815125,24.24,-1.05,-0.88,1.48,76,218,2.0199615955352783,1.370944857597351
50,-0.15975052118301392,-3.1098644733428955,-0.11222953349351883,36.714585,3.1814991,21.74,-1.89,-0.13,1.1,76,181,2.1953518390655518,1.8974359035491943
51,-0.2017485648393631,2.6744399070739746,-0.018794013187289238,36.7145486,3.1815129,21.04,-3.46,1.66,-0.03,75,153,3.8391153812408447,3.8389573097229004
52,-0.19577167928218842,2.6801798343658447,-0.02133762463927269,36.7144958,3.181545,21.14,-4.06,2.03,0.0,75,153,4.544099807739258,4.544099807739258
53,-0.012296687811613083,2.989145517349243,0.1642943024635315,36.7144338,3.181577,21.09,-3.57,0.57,0.04,75,171,3.615952730178833,3.6156258583068848
54,-0.3920488953590393,-2.236090660095215,0.15369510650634766,36.714391,3.1815562,21.07,-2.96,-3.3,0.02,74,231,4.441995620727539,4.44195032119751
55,-0.48131483793258667,-2.1470468044281006,-0.024404114112257957,36.7143359,3.1814542,21.07,-4.22,-6.72,0.0,74,236,7.94015645980835,7.940151691436768
56,-0.49516236782073975,-2.147507429122925,-0.003002863610163331,36.7142731,3.1813305,21.08,-4.9,-7.68,0.0,73,236,9.12004566192627,9.120046615600586
57,-0.30311569571495056,-2.1517984867095947,-0.014660213142633438,36.7141959,3.1811809,21.1,-4.64,-7.15,0.0,73,236,8.528904914855957,8.528902053833008
58,-0.26462218165397644,-2.1448895931243896,0.010893253609538078,36.7141385,3.1810698,21.1,-3.79,-5.99,0.03,73,237,7.090755939483643,7.09067964553833
59,-0.24851353466510773,-2.116163730621338,0.0351080596446991,36.7140908,3.1809726,21.07,-3.36,-5.67,0.01,72,238,6.598397254943848,6.5983781814575195
60,-0.31096822023391724,-2.100280523300171,0.00851942878216505,36.7140392,3.1808616,21.07,-3.21,-5.66,0.01,72,239,6.512903690338135,6.5128960609436035
61,-0.1517915427684784,-2.099691390991211,0.01771976239979267,36.7139959,3.1807669,21.08,-3.04,-5.34,0.0,71,239,6.1574249267578125,6.157423973083496
62,0.12671710550785065,-2.1007447242736816,0.023378008976578712,36.7139571,3.1806828,21.05,-1.58,-2.74,0.03,71,239,3.1733558177948,3.1731977462768555
63,0.1357465386390686,-2.100494146347046,-0.013982920907437801,36.7139461,3.1806585,21.06,-0.18,-0.36,-0.02,71,239,0.4071011245250702,0.4065623879432678
64,0.005660373717546463,-2.100158452987671,0.09445663541555405,36.713947,3.1806594,21.03,0.23,0.04,0.03,70,239,0.2426002472639084,0.23979419469833374
