timestamp,pitch,yaw,roll,lat,lon,alt,velocity_x,velocity_y,velocity_z,battery,heading,airspeed,groundspeed
0,0.027256429195404053,0.01586485281586647,0.02224881760776043,36.7156067,3.1846299,17.81,-0.02,0.02,0.0,96,0,0.039403751492500305,0.039185039699077606
1,-0.09125599265098572,0.02889830246567726,0.1260243058204651,36.7156082,3.1846328,17.84,0.4,0.6,0.0,95,1,0.729799747467041,0.729799747467041
2,-0.20432357490062714,1.3515470027923584,-0.11085724085569382,36.7156221,3.1846559,17.81,1.71,2.33,-0.02,95,77,2.893914222717285,2.893836736679077
3,-0.15590398013591766,0.8699396252632141,0.029329752549529076,36.7156511,3.1847046,17.84,2.4,3.27,-0.03,95,49,4.0612664222717285,4.061130523681641
4,0.012868046760559082,0.9162720441818237,-0.004600067622959614,36.7156892,3.1847673,17.86,2.09,2.74,-0.01,94,52,3.4506137371063232,3.4505889415740967
5,0.3713218867778778,0.5631598830223083,-0.12801876664161682,36.7157033,3.1847882,17.85,-0.43,-0.76,0.01,94,32,0.8814931511878967,0.8814162611961365
6,-0.0970609113574028,-1.2650002241134644,-0.10485424846410751,36.7156786,3.1847421,17.89,-2.23,-3.23,-0.01,93,287,3.9295525550842285,3.9295151233673096
7,-0.09451258182525635,-2.4060983657836914,0.02195761539041996,36.7156481,3.1846865,17.89,-2.17,-3.26,0.01,93,222,3.9237287044525146,3.9237029552459717
8,-0.04869929328560829,-1.453115463256836,0.25425586104393005,36.71563,3.1846245,17.86,0.43,-2.82,0.01,93,276,2.861243486404419,2.8612074851989746
9,-0.4358866810798645,-0.6642219424247742,0.0656932070851326,36.7156621,3.1845758,17.86,4.22,-3.19,0.0,92,321,5.301005840301514,5.301004886627197
10,-0.4994199275970459,-0.6253568530082703,0.04413192346692085,36.7157378,3.1845094,17.86,6.82,-4.7,0.0,92,324,8.29271125793457,8.292707443237305
11,-0.5030484795570374,-0.6169504523277283,-0.031058117747306824,36.7158566,3.1844069,17.88,7.86,-5.48,0.0,91,324,9.58850383758545,9.58850383758545
12,-0.3988361954689026,-0.6207729578018188,0.029365835711359978,36.7159626,3.1843137,17.9,7.59,-5.35,-0.02,91,324,9.291380882263184,9.291354179382324
13,-0.023003460839390755,-0.6284684538841248,-0.06467984616756439,36.7160666,3.1842222,17.92,5.09,-3.69,0.04,91,324,6.293529033660889,6.2933478355407715
14,0.0016762746963649988,-1.199367880821228,-0.24557143449783325,36.7161106,3.1841692,18.05,1.08,-2.88,-0.26,90,291,3.091254234313965,3.079864501953125
15,-0.38004767894744873,-2.129427433013916,-0.11262627691030502,36.7160976,3.1841118,18.94,-2.79,-4.32,-0.88,90,238,5.222219467163086,5.146553993225098
16,-0.4835215210914612,-2.1606733798980713,0.037445638328790665,36.7160334,3.1839984,21.1,-4.98,-7.09,-1.47,89,236,8.791559219360352,8.666743278503418
17,-0.41605302691459656,-2.163602352142334,0.014560175128281116,36.7159605,3.1838678,23.5,-5.56,-8.04,-1.61,89,236,9.915607452392578,9.782889366149902
18,-0.4964441955089569,-2.16336989402771,-0.00561951519921422,36.7158729,3.1837072,26.38,-5.53,-8.22,-1.57,88,236,10.041241645812988,9.916569709777832
19,-0.47174546122550964,-2.164180278778076,0.04068482667207718,36.7157979,3.1835679,28.84,-5.53,-8.25,-1.58,88,236,10.068764686584473,9.942910194396973
20,-0.4532359838485718,-2.162524938583374,-0.032864298671483994,36.7157103,3.1834047,31.73,-5.52,-8.24,-1.6,87,236,10.049238204956055,9.92002010345459
21,-0.49203377962112427,-2.162895917892456,-0.0021556327119469643,36.7156356,3.1832653,34.22,-5.5,-8.25,-1.6,87,236,10.051037788391113,9.921335220336914
22,-0.4640346169471741,-2.16463303565979,0.04096265882253647,36.7155607,3.1831259,36.72,-5.51,-8.27,-1.61,87,235,10.074210166931152,9.943314552307129
23,-0.4544743001461029,-2.1649222373962402,-0.02213135175406933,36.7154738,3.1829634,39.62,-5.53,-8.31,-1.62,86,235,10.125638961791992,9.994081497192383
24,-0.49219655990600586,-2.1661970615386963,0.0060601611621677876,36.7153988,3.182823,42.13,-5.5,-8.27,-1.62,86,235,10.069286346435547,9.936736106872559
25,-0.42749595642089844,-2.166599750518799,0.02137531153857708,36.7153117,3.1826601,45.04,-5.53,-8.31,-1.63,85,235,10.116373062133789,9.98293685913086
26,-0.43100056052207947,-2.165041208267212,-0.02932448498904705,36.7152368,3.18252,47.54,-5.52,-8.29,-1.64,85,235,10.103567123413086,9.96914291381836
27,-0.4905396103858948,-2.1644248962402344,-0.005412395112216473,36.7151623,3.1823804,50.05,-5.51,-8.31,-1.63,84,235,10.111103057861328,9.977560997009277
28,-0.4225630760192871,-2.1640772819519043,0.017209965735673904,36.715075,3.1822173,52.98,-5.5,-8.25,-1.63,84,236,10.058577537536621,9.924882888793945
29,-0.24135242402553558,-2.1683850288391113,-0.021929170936346054,36.7150041,3.1820855,55.35,-4.73,-7.06,-1.42,83,235,8.619964599609375,8.501921653747559
30,-0.04882427304983139,-2.159296989440918,0.03502337634563446,36.7149445,3.1819738,57.24,-2.88,-4.39,-0.64,83,236,5.292710781097412,5.253343105316162
31,-0.14487962424755096,-2.1174795627593994,-0.010334985330700874,36.7149117,3.1819083,57.8,-2.19,-3.69,-0.14,83,238,4.306376934051514,4.303897857666016
32,-0.16608411073684692,-2.101499319076538,0.025100460276007652,36.7148834,3.1818471,57.85,-2.06,-3.66,0.0,82,239,4.212690830230713,4.212689399719238
33,-0.02243894152343273,-2.1038155555725098,-0.02510603331029415,36.7148519,3.1817787,57.83,-1.68,-2.97,0.07,82,239,3.42038893699646,3.419530153274536
34,0.029044102877378464,-2.31508731842041,-0.028561698272824287,36.714833,3.1817427,57.01,-1.22,-1.41,1.12,82,227,2.1810250282287598,1.868458867073059
35,-0.06220213696360588,-2.4709935188293457,0.0013698674738407135,36.7148156,3.1817239,54.43,-1.03,-0.8,1.44,81,218,1.9489766359329224,1.3098722696304321
36,-0.010968673974275589,-2.4705440998077393,0.005403432063758373,36.7148016,3.1817106,52.19,-1.03,-0.83,1.43,81,218,1.958003282546997,1.3342385292053223
37,-0.051279179751873016,-2.469558000564575,0.022854387760162354,36.7147848,3.1816941,49.58,-1.06,-0.87,1.44,81,218,1.9938583374023438,1.3747109174728394
38,-0.01953277550637722,-2.4700515270233154,-0.01680181920528412,36.7147703,3.1816796,47.33,-1.07,-0.87,1.44,80,218,2.0057201385498047,1.3890851736068726
39,-0.061744749546051025,-2.46952748298645,0.011147601529955864,36.7147557,3.181665,45.09,-1.06,-0.88,1.45,80,218,2.0087058544158936,1.3833513259887695
40,-0.04395216330885887,-2.4696414470672607,-0.02326573058962822,36.7147388,3.1816479,42.48,-1.07,-0.88,1.46,79,218,2.0236151218414307,1.3934838771820068
41,-0.0380469374358654,-2.469278335571289,0.025408603250980377,36.7147242,3.1816331,40.23,-1.06,-0.88,1.46,79,218,2.016380548477173,1.3814857006072998
42,-0.06312941014766693,-2.4698054790496826,-0.0033343182876706123,36.7147071,3.1816161,37.61,-1.06,-0.88,1.47,79,218,2.027035713195801,1.389068841934204
43,-0.01284757535904646,-2.469043254852295,0.022860534489154816,36.7146926,3.1816013,35.37,-1.06,-0.88,1.47,78,218,2.026482343673706,1.387102723121643
44,-0.05184932425618172,-2.4695241451263428,-0.016369059681892395,36.714678,3.1815866,33.11,-1.07,-0.89,1.47,78,218,2.031808614730835,1.3970216512680054
45,-0.011819658800959587,-2.4692132472991943,-0.009850106202065945,36.714661,3.1815695,30.49,-1.06,-0.87,1.47,78,218,2.0177268981933594,1.3761917352676392
46,-0.06141664460301399,-2.469700813293457,0.006766775157302618,36.7146464,3.1815546,28.24,-1.06,-0.89,1.48,77,218,2.0321836471557617,1.3899201154708862
47,-0.031891971826553345,-2.4700894355773926,-0.025149725377559662,36.7146294,3.1815375,25.61,-1.07,-0.87,1.47,77,218,2.023822784423828,1.384917974472046
48,-0.05294249206781387,-2.469640016555786,0.023776469752192497,36.7146148,3.1815228,23.36,-1.06,-0.88,1.47,77,218,2.0211501121520996,1.3835179805755615
49,-0.05565999448299408,-2.4693472385406494,-0.021214095875620842,36.7145979,3.1815057,20.74,-1.06,-0.89,1.47,76,218,2.027839183807373,1.3872432708740234
50,-0.11854803562164307,-3.0869295597076416,-0.08282797038555145,36.7145795,3.1814943,18.6,-1.84,-0.18,1.13,76,183,2.1792590618133545,1.8574038743972778
51,-0.2367975413799286,2.6669790744781494,-0.04987318441271782,36.7145438,3.1815075,17.85,-3.4,1.64,-0.02,75,152,3.7848405838012695,3.784778118133545
52,-0.1291431188583374,2.6718966960906982,0.010651626624166965,36.7144827,3.1815455,17.95,-4.01,2.04,0.02,75,153,4.505211353302002,4.5051350593566895
53,-0.05113692954182625,2.976320743560791,0.16903257369995117,36.7144304,3.1815718,17.9,-3.54,0.57,0.05,75,170,3.5959908962249756,3.5956058502197266
54,-0.3797459900379181,-2.1928601264953613,0.08501625806093216,36.7143813,3.1815413,17.88,-3.02,-3.91,0.01,74,234,4.952179431915283,4.952140808105469
55,-0.5140893459320068,-2.14878249168396,0.008887941017746925,36.7143327,3.1814494,17.88,-4.22,-6.7,0.01,74,236,7.9213972091674805,7.921387195587158
56,-0.45932960510253906,-2.1491568088531494,0.030942507088184357,36.71427,3.1813258,17.89,-4.9,-7.7,0.0,73,236,9.135382652282715,9.135382652282715
57,-0.34201908111572266,-2.1525251865386963,-0.02781711518764496,36.7141931,3.1811765,17.91,-4.65,-7.16,0.0,73,236,8.548681259155273,8.54867935180664
58,-0.25519153475761414,-2.1462697982788086,0.043580640107393265,36.7141355,3.1810653,17.9,-3.81,-6.01,0.02,73,237,7.120375633239746,7.1203203201293945
59,-0.2857106626033783,-2.1189258098602295,-0.011465285904705524,36.7140796,3.1809518,17.88,-3.36,-5.64,0.01,72,238,6.576347827911377,6.576336860656738
60,-0.2936275005340576,-2.108707904815674,0.03574264794588089,36.7140348,3.1808569,17.88,-3.28,-5.65,0.0,72,239,6.5365118980407715,6.536506175994873
61,-0.14519546926021576,-2.1081371307373047,-0.023658083751797676,36.7139838,3.1807476,17.89,-3.0,-5.15,0.0,71,239,5.962733268737793,5.962733268737793
62,0.15505750477313995,-2.1091814041137695,0.029422912746667862,36.7139511,3.180678,17.86,-1.62,-2.77,0.03,71,239,3.2167584896087646,3.216583728790283
63,0.11437792330980301,-2.108855724334717,-0.026173127815127373,36.7139398,3.1806535,17.87,-0.2,-0.36,-0.02,71,239,0.41881653666496277,0.4182235598564148
64,0.02241365984082222,-2.1073429584503174,0.07684791088104248,36.7139405,3.1806544,17.84,0.24,0.05,0.03,70,239,0.2546066343784332,0.25158029794692993
