timestamp,pitch,yaw,roll,lat,lon,alt,velocity_x,velocity_y,velocity_z,battery,heading,airspeed,groundspeed
0,0.02649860642850399,0.04165949672460556,-0.0019493739819154143,36.7156067,3.1846299,20.47,-0.02,0.02,0.01,96,2,0.042783934623003006,0.03880951181054115
1,-0.0853433683514595,0.03139729052782059,0.09253095835447311,36.7156075,3.1846317,20.42,0.27,0.47,0.0,95,1,0.5449328422546387,0.5448477268218994
2,-0.23732060194015503,1.3857473134994507,-0.09159912914037704,36.715622,3.184657,20.4,1.63,2.38,-0.02,95,79,2.893320322036743,2.893186569213867
3,-0.1363942176103592,0.9105023741722107,-0.006423648446798325,36.7156494,3.184707,20.43,2.3,3.35,-0.03,95,52,4.064971446990967,4.064815521240234
4,0.02273617871105671,0.9497649073600769,0.028556210920214653,36.7156861,3.1847717,20.46,2.03,2.84,-0.01,94,54,3.5001611709594727,3.500119924545288
5,0.3615283966064453,0.813467264175415,-0.07539914548397064,36.7157004,3.1847948,20.45,-0.35,-0.63,0.01,94,46,0.7268693447113037,0.7267850637435913
6,-0.028023699298501015,-0.7993531823158264,-0.16985267400741577,36.7156811,3.1847591,20.48,-2.16,-3.08,-0.03,93,314,3.7671823501586914,3.7670342922210693
7,-0.1173168420791626,-2.4169607162475586,0.06328832358121872,36.7156458,3.1846949,20.49,-2.2,-3.28,0.01,93,221,3.9574735164642334,3.957444906234741
8,-0.0025088712573051453,-1.6421242952346802,0.19880416989326477,36.7156266,3.1846408,20.47,-0.28,-2.94,0.01,93,265,2.959602117538452,2.95957612991333
9,-0.38820838928222656,-0.6531892418861389,0.09947953373193741,36.715657,3.1845842,20.46,4.11,-3.14,0.0,92,322,5.177383899688721,5.177380084991455
10,-0.5011038184165955,-0.6229152083396912,-0.019602512940764427,36.7157319,3.1845184,20.46,6.72,-4.68,0.0,92,324,8.199067115783691,8.199065208435059
11,-0.4902845323085785,-0.6185581088066101,0.027541272342205048,36.7158499,3.1844163,20.48,7.87,-5.5,0.0,91,324,9.608536720275879,9.60853385925293
12,-0.3674626648426056,-0.6204275488853455,-0.01328798197209835,36.7159562,3.1843231,20.51,7.59,-5.37,-0.01,91,324,9.30138111114502,9.301366806030273
13,-0.1116742342710495,-0.6217921376228333,-0.011862016282975674,36.7160486,3.1842416,20.53,5.7,-4.05,0.04,91,324,6.993803024291992,6.993682384490967
14,0.027554485946893692,-1.1606947183609009,-0.29863440990448,36.7161069,3.1841771,20.64,1.23,-2.87,-0.24,90,293,3.1441287994384766,3.134775161743164
15,-0.39378827810287476,-2.128812789916992,-0.0489715039730072,36.7160955,3.1841206,21.5,-2.71,-4.25,-0.86,90,238,5.116800785064697,5.043199062347412
16,-0.4838752746582031,-2.1571249961853027,-0.03778164088726044,36.7160324,3.1840086,23.63,-4.93,-7.08,-1.45,89,236,8.755295753479004,8.63321590423584
17,-0.49458757042884827,-2.164501667022705,0.012483892031013966,36.7159597,3.1838786,26.03,-5.54,-8.03,-1.6,89,235,9.892533302307129,9.761968612670898
18,-0.43774038553237915,-2.1631524562835693,0.027674103155732155,36.7158845,3.1837409,28.49,-5.52,-8.17,-1.58,88,236,9.989702224731445,9.863903999328613
19,-0.4763667583465576,-2.163722515106201,-0.02868366800248623,36.7157968,3.1835783,31.35,-5.56,-8.25,-1.59,88,236,10.08063793182373,9.95395278930664
20,-0.47880691289901733,-2.1640539169311523,0.030323760583996773,36.7157218,3.1834388,33.83,-5.5,-8.25,-1.61,88,236,10.056873321533203,9.926998138427734
21,-0.4333321154117584,-2.1643426418304443,-0.01505889743566513,36.7156348,3.1832763,36.74,-5.51,-8.24,-1.61,87,236,10.054975509643555,9.92473030090332
22,-0.4826465845108032,-2.1647894382476807,-0.020676154643297195,36.71556,3.1831367,39.24,-5.52,-8.28,-1.61,87,235,10.085906982421875,9.956005096435547
23,-0.42819368839263916,-2.1639325618743896,0.029720522463321686,36.7154727,3.1829735,42.15,-5.5,-8.29,-1.62,86,236,10.084660530090332,9.952357292175293
24,-0.4434663951396942,-2.164417266845703,-0.021871555596590042,36.7153982,3.182834,44.65,-5.51,-8.28,-1.62,86,235,10.08828067779541,9.955949783325195
25,-0.4951592981815338,-2.16576886177063,-0.0018088027136400342,36.7153235,3.1826946,47.16,-5.54,-8.32,-1.62,85,235,10.135565757751465,10.004587173461914
26,-0.4251910448074341,-2.1627912521362305,0.026757244020700455,36.7152361,3.1825308,50.08,-5.5,-8.29,-1.63,85,236,10.084269523620605,9.951026916503906
27,-0.4591159224510193,-2.1649534702301025,-0.030062271282076836,36.7151614,3.182391,52.57,-5.51,-8.26,-1.63,84,235,10.072288513183594,9.938533782958984
28,-0.4567108750343323,-2.1645619869232178,0.03847373276948929,36.715074,3.1822279,55.49,-5.5,-8.28,-1.64,84,235,10.082873344421387,9.947991371154785
29,-0.2290659248828888,-2.168863534927368,-0.004130598623305559,36.7150029,3.1820959,57.89,-4.79,-7.11,-1.43,83,235,8.691747665405273,8.573188781738281
30,-0.09420370310544968,-2.1639175415039062,-0.00691114692017436,36.7149493,3.1819957,59.63,-3.13,-4.75,-0.77,83,236,5.744919300079346,5.692953586578369
31,-0.12299183011054993,-2.1180419921875,-0.008253454230725765,36.7149095,3.1819166,60.39,-2.2,-3.7,-0.15,83,238,4.318838596343994,4.316033363342285
32,-0.18531295657157898,-2.1018755435943604,0.017714012414216995,36.7148811,3.1818553,60.45,-2.08,-3.67,0.0,82,239,4.227646350860596,4.227644920349121
33,-0.012670988216996193,-2.103851795196533,-0.031147537752985954,36.7148495,3.1817868,60.43,-1.71,-3.02,0.06,82,239,3.4796488285064697,3.4790897369384766
34,0.022689634934067726,-2.3028924465179443,-0.02057659812271595,36.7148302,3.1817499,59.67,-1.21,-1.45,1.08,82,228,2.1832118034362793,1.8938437700271606
35,-0.0346357561647892,-2.483604907989502,-0.02699323184788227,36.7148151,3.1817328,57.47,-1.02,-0.79,1.46,81,217,1.9579049348831177,1.3019670248031616
36,-0.010547168552875519,-2.470965623855591,0.008405794389545918,36.7147988,3.1817175,54.86,-1.04,-0.82,1.42,81,218,1.9515026807785034,1.331220269203186
37,-0.06251420825719833,-2.469967842102051,-0.0069175963290035725,36.7147845,3.1817034,52.62,-1.05,-0.88,1.44,81,218,1.9945917129516602,1.3776640892028809
38,-0.023185355588793755,-2.4702508449554443,-0.0226796455681324,36.7147675,3.1816865,50.0,-1.07,-0.88,1.44,80,218,2.0067152976989746,1.3892916440963745
39,-0.05465392395853996,-2.469406843185425,0.019219806417822838,36.714753,3.1816718,47.76,-1.05,-0.88,1.45,80,218,2.0048580169677734,1.3810842037200928
40,-0.05603167414665222,-2.469238758087158,-0.01728787086904049,36.7147361,3.1816547,45.14,-1.06,-0.88,1.46,79,218,2.013795852661133,1.3867433071136475
41,-0.02113751694560051,-2.469204902648926,0.0247205700725317,36.7147214,3.18164,42.89,-1.06,-0.88,1.46,79,218,2.0149214267730713,1.384800910949707
42,-0.04696839675307274,-2.4695191383361816,-0.02243727818131447,36.7147068,3.1816254,40.65,-1.07,-0.89,1.46,79,218,2.0239651203155518,1.395033836364746
43,-0.00884702242910862,-2.469562530517578,-0.006723940372467041,36.7146898,3.1816082,38.03,-1.06,-0.88,1.47,78,218,2.0219507217407227,1.3864269256591797
44,-0.06304733455181122,-2.4694998264312744,0.006830580532550812,36.7146753,3.1815935,35.78,-1.05,-0.89,1.47,78,218,2.018549680709839,1.3775341510772705
45,-0.037854619324207306,-2.4695801734924316,-0.026433000341057777,36.7146583,3.1815763,33.16,-1.06,-0.88,1.48,78,218,2.029198169708252,1.3881953954696655
46,-0.040038201957941055,-2.4699037075042725,0.028648236766457558,36.7146437,3.1815615,30.92,-1.06,-0.88,1.48,77,218,2.0277140140533447,1.3815187215805054
47,-0.06135757640004158,-2.4694149494171143,-0.006137937773019075,36.7146266,3.1815444,28.29,-1.07,-0.88,1.47,77,218,2.031696081161499,1.3923224210739136
48,-0.016031254082918167,-2.4688832759857178,0.021909816190600395,36.7146121,3.1815297,26.04,-1.05,-0.88,1.47,76,218,2.0170586109161377,1.3742682933807373
49,-0.058944884687662125,-2.469491481781006,-0.015211583115160465,36.7145975,3.181515,23.78,-1.05,-0.88,1.47,76,218,2.019768714904785,1.3792240619659424
50,-0.09555628150701523,-3.057706594467163,-0.12272556871175766,36.714577,3.1815009,21.25,-1.81,-0.23,1.16,76,184,2.1669979095458984,1.8269305229187012
51,-0.2517494559288025,2.6675899028778076,-0.0036575018893927336,36.7145421,3.1815128,20.45,-3.37,1.59,-0.01,75,152,3.7375125885009766,3.7374842166900635
52,-0.17215748131275177,2.6719014644622803,-0.03263028338551521,36.7144813,3.1815507,20.56,-4.0,2.04,0.02,75,153,4.498057842254639,4.4980010986328125
53,-0.020130090415477753,2.9574265480041504,0.20578980445861816,36.7144287,3.181578,20.5,-3.56,0.65,0.05,75,169,3.6269516944885254,3.6265296936035156
54,-0.35763779282569885,-2.249228000640869,0.11083715409040451,36.7143858,3.1815594,20.48,-2.96,-3.17,0.02,74,231,4.33939266204834,4.339328289031982
55,-0.45919856429100037,-2.1502315998077393,0.025822989642620087,36.7143308,3.1814595,20.48,-4.22,-6.64,0.0,74,236,7.874587059020996,7.874582290649414
56,-0.4498623311519623,-2.1531691551208496,-0.034699369221925735,36.7142679,3.1813369,20.49,-4.94,-7.67,0.0,73,236,9.126264572143555,9.126264572143555
57,-0.3278038203716278,-2.1568737030029297,0.025654254481196404,36.7141898,3.1811872,20.51,-4.71,-7.2,0.0,73,236,8.609420776367188,8.609416007995605
58,-0.2248578816652298,-2.149202585220337,-0.011863970197737217,36.7141315,3.1810755,20.51,-3.86,-6.02,0.03,73,236,7.162607669830322,7.162529945373535
59,-0.26216500997543335,-2.114332675933838,0.04075071960687637,36.7140757,3.1809624,20.48,-3.34,-5.66,0.01,72,238,6.580917835235596,6.580909252166748
60,-0.2724129855632782,-2.1001856327056885,-0.019838958978652954,36.7140315,3.1808673,20.49,-3.21,-5.65,0.01,72,239,6.508248805999756,6.50823974609375
61,-0.20647408068180084,-2.099712610244751,0.016604268923401833,36.7139882,3.1807724,20.49,-3.06,-5.4,0.0,71,239,6.213782787322998,6.21378231048584
62,0.12815719842910767,-2.100512981414795,-0.02449975721538067,36.7139485,3.1806862,20.46,-1.66,-2.89,0.03,71,239,3.336125612258911,3.335935592651367
63,0.12520430982112885,-2.1004860401153564,0.0260172039270401,36.7139367,3.1806602,20.47,-0.22,-0.41,-0.02,71,239,0.4753275215625763,0.4748399257659912
64,-0.03628688305616379,-2.1028056144714355,0.06270799040794373,36.7139373,3.180661,20.45,0.21,0.05,0.03,70,239,0.22415702044963837,0.22079123556613922
