timestamp,pitch,yaw,roll,lat,lon,alt,velocity_x,velocity_y,velocity_z,battery,heading,airspeed,groundspeed
0,-0.017089862376451492,0.014599808491766453,0.025925984606146812,36.7156066,3.1846299,20.4,-0.01,0.02,0.0,96,0,0.030925940722227097,0.03089183196425438
1,-0.10296229273080826,0.04701996594667435,0.09348521381616592,36.7156083,3.1846331,20.35,0.41,0.68,0.0,95,2,0.7994240522384644,0.7994081377983093
2,-0.1731640100479126,1.4641674757003784,-0.10738659650087357,36.7156222,3.18466,20.33,1.71,2.63,-0.03,95,83,3.1413228511810303,3.1411664485931396
3,-0.15004456043243408,0.9837705492973328,0.022737959399819374,36.7156561,3.1847239,20.37,2.37,3.58,-0.03,95,56,4.2968244552612305,4.29668664932251
4,0.0499168336391449,0.9709898233413696,-0.03307017683982849,36.7156875,3.1847821,20.39,1.98,2.95,-0.01,94,55,3.556295871734619,3.5562546253204346
5,0.355194628238678,1.0279263257980347,0.05656977742910385,36.7157005,3.1848052,20.38,-0.49,-0.71,0.0,94,58,0.8680915832519531,0.8680588006973267
6,-0.08273586630821228,2.91729736328125,0.16248364746570587,36.7156752,3.1847596,20.42,-2.23,-3.17,-0.02,93,167,3.8856821060180664,3.8856289386749268
7,-0.07583332061767578,-1.9342714548110962,0.007433804217725992,36.715645,3.1847039,20.41,-2.16,-3.26,0.0,93,249,3.920248031616211,3.920238971710205
8,-0.07353010028600693,-1.419188380241394,0.2781600058078766,36.7156267,3.1846423,20.39,0.39,-2.83,0.0,93,278,2.858834743499756,2.8588225841522217
9,-0.40313172340393066,-0.6531636118888855,0.043014902621507645,36.7156579,3.184594,20.39,4.16,-3.19,0.0,92,322,5.250748634338379,5.250746250152588
10,-0.5022624135017395,-0.6257196068763733,0.04598736763000488,36.7157489,3.184514,20.39,7.05,-4.87,-0.01,92,324,8.580788612365723,8.580774307250977
11,-0.4571475088596344,-0.6156436800956726,-0.020242422819137573,36.7158518,3.1844254,20.41,7.88,-5.49,-0.01,91,324,9.612946510314941,9.612939834594727
12,-0.41489744186401367,-0.619907021522522,-0.011524529196321964,36.7159579,3.1843323,20.43,7.57,-5.38,-0.02,91,324,9.29342269897461,9.29339599609375
13,-0.008834680542349815,-0.6278014183044434,-0.02672046422958374,36.7160622,3.1842402,20.45,5.14,-3.72,0.04,91,324,6.347858905792236,6.347731113433838
14,-0.01924617774784565,-1.1719878911972046,-0.277066171169281,36.7161074,3.1841869,20.57,1.15,-2.88,-0.25,90,292,3.115894317626953,3.1051204204559326
15,-0.38894978165626526,-2.1367197036743164,-0.08339708298444748,36.7160881,3.1841173,21.68,-3.24,-4.67,-0.98,90,237,5.773622989654541,5.689041614532471
16,-0.513438880443573,-2.157155990600586,-0.0021587342489510775,36.7160309,3.184017,23.59,-4.92,-7.1,-1.47,89,236,8.767231941223145,8.64291763305664
17,-0.4245504140853882,-2.1647121906280518,0.018219199031591415,36.7159459,3.1838646,26.41,-5.56,-8.07,-1.61,89,235,9.941112518310547,9.809863090515137
18,-0.4480699300765991,-2.1653294563293457,-0.021422188729047775,36.7158705,3.1837261,28.87,-5.53,-8.22,-1.58,88,235,10.044118881225586,9.918778419494629
19,-0.4908517599105835,-2.1626100540161133,-0.008800243027508259,36.7157955,3.1835865,31.33,-5.53,-8.25,-1.59,88,236,10.065093040466309,9.938486099243164
20,-0.4219708740711212,-2.164811611175537,0.016451241448521614,36.7157081,3.1834238,34.22,-5.51,-8.25,-1.6,87,235,10.057394981384277,9.927781105041504
21,-0.44754448533058167,-2.1661458015441895,-0.02271203324198723,36.7156334,3.1832847,36.71,-5.5,-8.25,-1.61,87,235,10.054465293884277,9.924427032470703
22,-0.48532959818840027,-2.164100170135498,0.019816434010863304,36.7155464,3.1831217,39.63,-5.51,-8.26,-1.61,87,236,10.066755294799805,9.936116218566895
23,-0.42638877034187317,-2.1642839908599854,0.02288646250963211,36.7154716,3.182982,42.12,-5.52,-8.28,-1.62,86,236,10.085821151733398,9.953574180603027
24,-0.4857056140899658,-2.1633026599884033,-0.02169632352888584,36.7153844,3.1828189,45.03,-5.51,-8.3,-1.63,86,236,10.102073669433594,9.969573020935059
25,-0.4773150086402893,-2.16721510887146,0.03544023260474205,36.7153097,3.1826792,47.54,-5.5,-8.28,-1.63,85,235,10.078317642211914,9.944737434387207
26,-0.4453669786453247,-2.1630797386169434,0.02645433507859707,36.7152352,3.1825397,50.03,-5.53,-8.3,-1.64,85,236,10.119559288024902,9.984508514404297
27,-0.47700920701026917,-2.1649186611175537,-0.018097255378961563,36.7151477,3.182376,52.96,-5.52,-8.29,-1.63,84,235,10.096705436706543,9.96285629272461
28,-0.47107791900634766,-2.164013624191284,0.02398555912077427,36.7150729,3.1822362,55.46,-5.49,-8.26,-1.63,84,236,10.061942100524902,9.927407264709473
29,-0.18690519034862518,-2.1676218509674072,-0.020630033686757088,36.7149915,3.1820851,58.21,-4.51,-6.72,-1.34,83,235,8.207859992980957,8.096657752990723
30,-0.09292501211166382,-2.1603989601135254,0.01742163673043251,36.7149419,3.1819921,59.75,-2.88,-4.41,-0.64,83,236,5.316697597503662,5.2769575119018555
31,-0.11648774147033691,-2.1170058250427246,0.02077779546380043,36.7149091,3.1819263,60.33,-2.2,-3.7,-0.15,83,238,4.310656547546387,4.308008193969727
32,-0.1759418398141861,-2.1016592979431152,0.02245876006782055,36.7148759,3.1818545,60.37,-2.08,-3.68,-0.01,82,239,4.235989093780518,4.235976696014404
33,0.021037034690380096,-2.1039905548095703,-0.02106223814189434,36.7148491,3.1817964,60.36,-1.7,-2.99,0.06,82,239,3.4415647983551025,3.4408810138702393
34,0.02332279644906521,-2.3682684898376465,-0.014409700408577919,36.7148273,3.1817562,59.26,-1.18,-1.25,1.28,82,224,2.1526894569396973,1.7286313772201538
35,-0.02405078522861004,-2.4725279808044434,-0.023211736232042313,36.7148126,3.1817409,57.0,-1.04,-0.79,1.44,81,218,1.9567880630493164,1.3144173622131348
36,-0.01219154242426157,-2.4695117473602295,0.01365657988935709,36.7147962,3.1817253,54.39,-1.04,-0.83,1.43,81,218,1.9604942798614502,1.3361502885818481
37,-0.05502767115831375,-2.4695777893066406,-0.020262744277715683,36.7147818,3.1817112,52.14,-1.06,-0.87,1.44,81,218,1.9948848485946655,1.3805365562438965
38,-0.021601708605885506,-2.4700517654418945,0.022357963025569916,36.7147673,3.1816967,49.9,-1.05,-0.87,1.44,80,218,1.9937782287597656,1.3720240592956543
39,-0.060602083802223206,-2.4701502323150635,0.012020424008369446,36.7147504,3.1816797,47.28,-1.06,-0.89,1.45,80,218,2.0149011611938477,1.393139123916626
40,-0.006662959698587656,-2.4698057174682617,0.002341174054890871,36.7147358,3.1816649,45.03,-1.07,-0.88,1.45,79,218,2.0195982456207275,1.3977429866790771
41,-0.047493480145931244,-2.469900369644165,0.027949731796979904,36.7147187,3.1816478,42.42,-1.07,-0.88,1.46,79,218,2.019231081008911,1.3885736465454102
42,-0.020065048709511757,-2.4702093601226807,-0.019262021407485008,36.7147042,3.1816332,40.18,-1.06,-0.88,1.47,79,218,2.0211453437805176,1.3860011100769043
43,-0.02054223045706749,-2.470085382461548,0.02456318400800228,36.7146873,3.181616,37.56,-1.07,-0.89,1.48,78,218,2.040119171142578,1.4012235403060913
44,-0.03946228697896004,-2.4698266983032227,-0.02449790947139263,36.7146726,3.1816013,35.31,-1.07,-0.88,1.48,78,218,2.0337579250335693,1.3933855295181274
45,-0.03363439440727234,-2.4698126316070557,0.02810722589492798,36.714658,3.1815865,33.06,-1.05,-0.88,1.47,78,218,2.0200421810150146,1.3749840259552002
46,-0.06129635125398636,-2.469578504562378,-0.01119428500533104,36.714641,3.1815694,30.43,-1.06,-0.88,1.47,77,218,2.025153160095215,1.3840664625167847
47,-0.009351246058940887,-2.4697062969207764,0.01700400933623314,36.7146264,3.1815547,28.18,-1.06,-0.87,1.47,77,218,2.020937919616699,1.3790334463119507
48,-0.061102818697690964,-2.469984769821167,0.017681550234556198,36.7146094,3.1815376,25.55,-1.06,-0.88,1.47,77,218,2.0186710357666016,1.3817163705825806
49,-0.008672632277011871,-2.4700491428375244,-0.009736519306898117,36.7145949,3.1815228,23.3,-1.06,-0.88,1.47,76,218,2.0218379497528076,1.3852899074554443
50,-0.15370237827301025,-3.0665347576141357,-0.10351861268281937,36.7145766,3.1815114,21.16,-1.83,-0.2,1.15,76,184,2.176999807357788,1.8465275764465332
51,-0.22358500957489014,2.6686785221099854,-0.04140866920351982,36.7145335,3.1815286,20.4,-3.55,1.77,-0.05,75,152,3.9774739742279053,3.9770469665527344
52,-0.18287630379199982,2.671565294265747,0.026470476761460304,36.7144808,3.1815616,20.49,-4.02,2.05,0.02,75,153,4.520756244659424,4.520699501037598
53,-0.04829486832022667,3.1072254180908203,0.20009450614452362,36.7144201,3.1815899,20.42,-3.41,0.11,0.04,75,178,3.413557529449463,3.413245677947998
54,-0.3853670060634613,-2.2011637687683105,0.13876700401306152,36.7143784,3.1815596,20.41,-3.03,-3.86,0.01,74,233,4.908154010772705,4.908123016357422
55,-0.47058388590812683,-2.152681350708008,-0.01778220944106579,36.71433,3.1814688,20.41,-4.24,-6.67,0.01,74,236,7.907994270324707,7.907985687255859
56,-0.4658459722995758,-2.156449556350708,0.03169509023427963,36.7142557,3.1813242,20.42,-4.97,-7.71,0.0,73,236,9.175779342651367,9.17577838897705
57,-0.30001750588417053,-2.156676769256592,-0.0006773259956389666,36.7141889,3.1811961,20.44,-4.69,-7.17,0.0,73,236,8.575631141662598,8.575626373291016
58,-0.2646288275718689,-2.1456801891326904,0.033967722207307816,36.7141223,3.1810679,20.43,-3.7,-5.85,0.03,73,237,6.932816982269287,6.932742118835449
59,-0.24476219713687897,-2.1131088733673096,0.013486160896718502,36.7140751,3.1809715,20.41,-3.33,-5.65,0.01,72,238,6.5624895095825195,6.562479496002197
60,-0.3042689263820648,-2.100259304046631,-0.01588784158229828,36.7140311,3.1808766,20.41,-3.23,-5.64,0.01,72,239,6.506021976470947,6.506014347076416
61,-0.12387081980705261,-2.1000399589538574,0.010138538666069508,36.7139808,3.1807672,20.42,-2.96,-5.2,0.0,71,239,5.989538669586182,5.989538669586182
62,0.11921900510787964,-2.100904703140259,-0.007804455701261759,36.7139482,3.1806961,20.39,-1.63,-2.85,0.03,71,239,3.291987180709839,3.2917933464050293
63,0.1165396124124527,-2.100597620010376,-0.019968926906585693,36.7139363,3.1806698,20.4,-0.07,-0.16,-0.01,71,239,0.17872796952724457,0.17798975110054016
64,-0.02926476113498211,-2.103057384490967,0.0813342034816742,36.7139374,3.1806715,20.38,0.22,0.05,0.04,70,239,0.23205764591693878,0.2285691648721695
