timestamp,pitch,yaw,roll,lat,lon,alt,velocity_x,velocity_y,velocity_z,battery,heading,airspeed,groundspeed
0,0.018336834385991096,0.03521696478128433,-0.022764479741454124,36.7156067,3.1846299,17.93,-0.04,0.02,0.0,96,2,0.047352585941553116,0.04727313295006752
1,-0.08463747799396515,0.029789039865136147,0.12998268008232117,36.7156077,3.184632,17.97,0.32,0.53,-0.01,95,1,0.6245256066322327,0.6242868900299072
2,-0.23513010144233704,1.3758865594863892,-0.06742794811725616,36.7156247,3.1846619,17.93,1.84,2.67,-0.02,95,78,3.24739670753479,3.247265338897705
3,-0.13253282010555267,0.9415012001991272,-0.025035349652171135,36.715654,3.1847146,17.97,2.34,3.38,-0.03,95,53,4.116800785064697,4.1166815757751465
4,0.1568601280450821,0.9501886367797852,0.025030100718140602,36.7156892,3.1847761,17.99,1.65,2.26,0.0,94,54,2.807710886001587,2.8077025413513184
5,0.2799783945083618,0.5311117768287659,-0.14698494970798492,36.7156947,3.1847836,17.98,-1.08,-1.65,0.0,94,30,1.972549557685852,1.9725323915481567
6,-0.07775018364191055,-1.4204270839691162,-0.12143594026565552,36.715665,3.1847292,18.02,-2.3,-3.3,0.0,93,278,4.025595664978027,4.025595188140869
7,-0.054372407495975494,-2.3417809009552,0.10536465793848038,36.7156352,3.1846732,18.01,-1.91,-3.24,0.01,93,225,3.7724361419677734,3.7724006175994873
8,-0.09335260093212128,-1.358191728591919,0.23033224046230316,36.7156243,3.1846209,17.99,0.69,-2.77,0.01,93,282,2.86025333404541,2.8602330684661865
9,-0.42986947298049927,-0.6420959830284119,0.06146284192800522,36.7156703,3.1845625,17.99,4.96,-3.51,0.0,92,323,6.085096836090088,6.085096836090088
10,-0.5215746164321899,-0.623655378818512,-0.020200256258249283,36.7157541,3.18449,17.99,7.2,-4.97,-0.01,92,324,8.751314163208008,8.751307487487793
11,-0.47444501519203186,-0.6164553761482239,0.028823068365454674,36.7158759,3.1843844,18.01,7.87,-5.53,0.0,91,324,9.631990432739258,9.631989479064941
12,-0.31120145320892334,-0.6204569339752197,-0.022638553753495216,36.7159804,3.1842925,18.05,7.24,-5.13,-0.01,91,324,8.882473945617676,8.88245964050293
13,0.02123313769698143,-0.6603972315788269,-0.05128886178135872,36.7160753,3.184208,18.05,4.29,-3.36,0.02,91,322,5.459542274475098,5.459469318389893
14,-0.15602536499500275,-1.5589940547943115,-0.30792954564094543,36.7161063,3.1841573,18.31,0.0,-3.01,-0.39,90,270,3.0404415130615234,3.0149128437042236
15,-0.42375147342681885,-2.144404411315918,-0.008384687826037407,36.716081,3.1840933,19.42,-3.44,-4.89,-1.03,90,237,6.0731611251831055,5.984950065612793
16,-0.49586349725723267,-2.1656744480133057,-0.027770109474658966,36.7160102,3.1839688,21.79,-5.2,-7.5,-1.52,89,235,9.259897232055664,9.132704734802246
17,-0.48341819643974304,-2.16558837890625,0.016404487192630768,36.715936,3.1838348,24.23,-5.51,-8.06,-1.59,89,235,9.900748252868652,9.771746635437012
18,-0.42693328857421875,-2.162696361541748,-0.010330519638955593,36.7158484,3.1836731,27.1,-5.54,-8.21,-1.58,88,236,10.034331321716309,9.908482551574707
19,-0.478749543428421,-2.163480281829834,-0.025704242289066315,36.7157732,3.1835339,29.57,-5.56,-8.25,-1.58,88,236,10.0836820602417,9.9580078125
20,-0.47820356488227844,-2.1640079021453857,0.03222004696726799,36.7156983,3.1833943,32.05,-5.5,-8.26,-1.6,88,236,10.06208610534668,9.93382453918457
21,-0.4298180043697357,-2.165118932723999,-0.015620719641447067,36.7156111,3.1832315,34.95,-5.52,-8.23,-1.61,87,235,10.051299095153809,9.920293807983398
22,-0.48736047744750977,-2.1654884815216064,-0.018478386104106903,36.7155365,3.1830924,37.45,-5.51,-8.28,-1.61,87,235,10.078058242797852,9.948030471801758
23,-0.42998307943344116,-2.1641159057617188,0.030001100152730942,36.7154493,3.1829291,40.36,-5.52,-8.31,-1.62,86,236,10.12020206451416,9.988683700561523
24,-0.4385184049606323,-2.163893461227417,-0.02348209172487259,36.7153745,3.182789,42.86,-5.51,-8.27,-1.63,86,236,10.075247764587402,9.942375183105469
25,-0.47607868909835815,-2.167729377746582,0.03760874271392822,36.7152872,3.1826263,45.78,-5.51,-8.28,-1.63,85,235,10.09586238861084,9.96347713470459
26,-0.43332141637802124,-2.1631386280059814,0.03299033269286156,36.7152127,3.1824865,48.29,-5.51,-8.32,-1.63,85,236,10.121251106262207,9.988614082336426
27,-0.4484502971172333,-2.164719581604004,-0.03118465654551983,36.7151379,3.1823463,50.79,-5.52,-8.29,-1.63,84,235,10.097800254821777,9.964045524597168
28,-0.41643577814102173,-2.165067434310913,0.027341164648532867,36.7150506,3.1821837,53.71,-5.44,-8.12,-1.61,84,235,9.915552139282227,9.782508850097656
29,-0.14949245750904083,-2.1677334308624268,-0.005164224188774824,36.7149829,3.182058,56.0,-4.37,-6.52,-1.28,83,235,7.9599223136901855,7.855025291442871
30,-0.07538076490163803,-2.1517271995544434,0.043686624616384506,36.7149291,3.1819565,57.58,-2.58,-4.04,-0.49,83,236,5.136717796325684,5.10279655456543
31,-0.12491371482610703,-2.1104965209960938,-0.009752768091857433,36.7148983,3.1818933,57.96,-2.13,-3.67,-0.08,83,239,4.250024795532227,4.2491559982299805
32,-0.18484830856323242,-2.102414131164551,0.01647951267659664,36.7148703,3.1818322,57.97,-2.09,-3.7,-0.01,82,239,4.2610955238342285,4.261058807373047
33,0.02572009526193142,-2.1178624629974365,-0.04263782128691673,36.7148402,3.1817673,57.89,-1.53,-2.59,0.21,82,238,3.0242185592651367,3.0162899494171143
34,0.019875964149832726,-2.395265817642212,-0.00913284532725811,36.7148226,3.1817373,56.68,-1.15,-1.15,1.35,82,222,2.1288530826568604,1.6387863159179688
35,-0.05846727266907692,-2.4628117084503174,-0.003860512049868703,36.7148059,3.1817206,54.01,-1.02,-0.79,1.42,81,218,1.9277557134628296,1.3021117448806763
36,-0.00998664554208517,-2.4687020778656006,0.007914330810308456,36.7147918,3.1817072,51.78,-1.05,-0.84,1.42,81,218,1.9607813358306885,1.3474445343017578
37,-0.046181485056877136,-2.469458818435669,0.022110996767878532,36.7147749,3.1816904,49.16,-1.06,-0.87,1.44,81,218,1.9946420192718506,1.3789886236190796
38,-0.023502957075834274,-2.4701168537139893,-0.02142658829689026,36.7147604,3.1816758,46.92,-1.07,-0.87,1.44,80,218,2.0054516792297363,1.387814998626709
39,-0.05597786605358124,-2.4692165851593018,0.019279494881629944,36.7147459,3.1816612,44.68,-1.05,-0.88,1.45,80,218,2.0033111572265625,1.3818691968917847
40,-0.05471475422382355,-2.46931529045105,-0.016937516629695892,36.7147289,3.1816441,42.06,-1.07,-0.88,1.46,79,218,2.0190200805664062,1.391198754310608
41,-0.023174142464995384,-2.469268321990967,0.025385938584804535,36.7147143,3.1816294,39.82,-1.06,-0.88,1.46,79,218,2.017007350921631,1.3853800296783447
42,-0.05925678461790085,-2.4699063301086426,0.014259862713515759,36.7146972,3.1816123,37.19,-1.06,-0.89,1.46,79,218,2.0211546421051025,1.3921496868133545
43,-0.011101462878286839,-2.4697039127349854,-0.005285919178277254,36.7146827,3.1815976,34.95,-1.07,-0.88,1.47,78,218,2.026550769805908,1.3904474973678589
44,-0.06264621764421463,-2.4696972370147705,0.003884471021592617,36.7146681,3.1815828,32.7,-1.06,-0.89,1.47,78,218,2.028968334197998,1.3885807991027832
45,-0.01242009922862053,-2.469125270843506,0.014811623841524124,36.7146536,3.1815682,30.45,-1.06,-0.88,1.47,78,218,2.0254969596862793,1.3897020816802979
46,-0.04363809525966644,-2.4698526859283447,0.02827313542366028,36.7146365,3.1815509,27.83,-1.06,-0.88,1.47,77,218,2.020825147628784,1.3812203407287598
47,-0.05789466202259064,-2.469646692276001,-0.012453584931790829,36.7146195,3.1815338,25.21,-1.05,-0.88,1.48,77,218,2.023752450942993,1.3784750699996948
48,-0.018533378839492798,-2.4690821170806885,0.020776057615876198,36.7146049,3.1815191,22.95,-1.05,-0.87,1.47,77,218,2.016146421432495,1.3744068145751953
49,-0.0721687600016594,-2.4880127906799316,-0.011878511868417263,36.7145879,3.1815019,20.33,-1.11,-0.86,1.47,76,217,2.0413007736206055,1.4135466814041138
50,-0.15145207941532135,2.971935510635376,-0.11998210847377777,36.7145665,3.1814941,18.37,-2.18,0.25,0.82,76,170,2.3539772033691406,2.2044765949249268
51,-0.24741606414318085,2.67732834815979,0.013007854111492634,36.7145256,3.1815137,18.0,-3.69,1.82,-0.06,75,153,4.125046253204346,4.12455940246582
52,-0.13129960000514984,2.6830008029937744,0.002712343819439411,36.7144623,3.1815527,18.07,-4.02,1.98,0.05,75,153,4.491684436798096,4.491339683532715
53,-0.04190490394830704,-3.103294610977173,0.27566543221473694,36.714411,3.1815729,18.02,-3.33,-0.12,0.04,75,182,3.3414409160614014,3.341182231903076
54,-0.46497631072998047,-2.191464424133301,0.07190699130296707,36.7143626,3.1815259,18.01,-3.19,-4.69,0.02,74,234,5.6769700050354,5.676935195922852
55,-0.4796774685382843,-2.1563708782196045,0.03814951702952385,36.7143109,3.1814246,18.01,-4.44,-7.07,0.0,74,236,8.357714653015137,8.35771369934082
56,-0.42432305216789246,-2.1510281562805176,-0.01363325770944357,36.7142464,3.1812979,18.02,-4.95,-7.71,0.0,73,236,9.170757293701172,9.170756340026855
57,-0.31921911239624023,-2.153505563735962,0.03096289001405239,36.71417,3.1811506,18.05,-4.48,-6.9,0.0,73,236,8.23198413848877,8.231980323791504
58,-0.22243644297122955,-2.139561176300049,0.0016805853229016066,36.7141151,3.1810436,18.03,-3.65,-5.83,0.03,73,237,6.88164758682251,6.881565570831299
59,-0.2779165506362915,-2.10866641998291,0.04021414741873741,36.714061,3.1809314,18.01,-3.27,-5.65,0.01,72,239,6.538162708282471,6.538154602050781
60,-0.260721892118454,-2.0995824337005615,-0.01592171937227249,36.7140172,3.1808362,18.02,-3.21,-5.66,0.0,72,239,6.519562244415283,6.51955509185791
61,-0.09112553298473358,-2.1000161170959473,0.02998209185898304,36.7139683,3.1807295,18.02,-2.74,-4.8,0.0,71,239,5.8499226570129395,5.849922180175781
62,0.15968811511993408,-2.1006131172180176,-0.027862681075930595,36.7139403,3.1806688,17.99,-1.21,-2.1,0.01,71,239,2.4342613220214844,2.434206962585449
63,0.08055741339921951,-2.100635051727295,0.02651120163500309,36.713933,3.1806525,18.0,-0.02,-0.08,-0.01,71,239,0.08913259208202362,0.08823957294225693
64,-0.04254258796572685,-2.104396343231201,0.09124556183815002,36.7139352,3.1806545,17.96,0.41,-0.11,0.01,70,239,0.4343852400779724,0.4342209994792938
