timestamp,pitch,yaw,roll,lat,lon,alt,velocity_x,velocity_y,velocity_z,battery,heading,airspeed,groundspeed
0,0.030405214056372643,-0.0035619756672531366,0.01515715941786766,36.7156067,3.1846299,22.46,-0.03,0.02,-0.09,96,359,0.10545684397220612,0.045278917998075485
1,-0.09271442145109177,-0.01092300284653902,0.08241630345582962,36.7156077,3.1846319,22.44,0.31,0.5,-0.03,95,359,0.5980607271194458,0.5971488356590271
2,-0.20159979164600372,1.4118667840957642,-0.12796282768249512,36.715624,3.1846606,22.48,1.86,2.55,-0.03,95,80,3.164983034133911,3.1647396087646484
3,-0.14117279648780823,0.8893992304801941,0.020120929926633835,36.7156543,3.1847119,22.48,2.45,3.37,-0.01,95,50,4.179194450378418,4.179171562194824
4,0.057149190455675125,0.9281455278396606,0.013645540922880173,36.7156922,3.1847753,22.47,1.93,2.6,0.0,94,53,3.2489750385284424,3.2489748001098633
5,0.34932130575180054,0.5108595490455627,-0.1642424315214157,36.7157029,3.1847909,22.49,-0.72,-1.15,-0.01,94,29,1.3666752576828003,1.3665577173233032
6,-0.07980596274137497,-1.3631573915481567,-0.09133755415678024,36.7156759,3.1847411,22.46,-2.27,-3.27,0.02,93,281,3.987628698348999,3.9875636100769043
7,-0.10089563578367233,-2.3679983615875244,0.0423181876540184,36.7156456,3.1846855,22.52,-2.1,-3.25,0.01,93,224,3.8711860179901123,3.8711729049682617
8,-0.022615130990743637,-1.5617808103561401,0.2676459550857544,36.7156296,3.1846325,22.47,0.14,-2.86,0.02,93,270,2.8689262866973877,2.868819236755371
9,-0.44881927967071533,-0.660477876663208,0.0841887891292572,36.7156669,3.1845752,22.46,4.49,-3.3,0.0,92,322,5.575129985809326,5.575130462646484
10,-0.4763651490211487,-0.626555860042572,0.013559451326727867,36.7157458,3.1845064,22.46,6.98,-4.8,-0.01,92,324,8.47411060333252,8.474103927612305
11,-0.5173277854919434,-0.6186285614967346,0.000944270403124392,36.7158657,3.1844028,22.48,7.88,-5.5,0.0,91,324,9.620755195617676,9.620755195617676
12,-0.35032162070274353,-0.6194549202919006,0.02570544369518757,36.7159714,3.1843101,22.51,7.46,-5.27,-0.02,91,324,9.135481834411621,9.135456085205078
13,-0.047357067465782166,-0.6243168115615845,-0.04518731310963631,36.7160604,3.1842316,22.53,5.37,-3.84,0.04,91,324,6.609636306762695,6.609471321105957
14,-0.014937163330614567,-1.3301098346710205,-0.2812142074108124,36.7161117,3.184169,22.69,0.7,-2.91,-0.3,90,283,3.01298189163208,2.9972031116485596
15,-0.42349374294281006,-2.1273906230926514,-0.08727797865867615,36.7160943,3.1841093,23.66,-3.04,-4.52,-0.93,90,238,5.530097961425781,5.450196266174316
16,-0.45204871892929077,-2.1612911224365234,0.007761327549815178,36.7160276,3.1839921,25.9,-5.09,-7.25,-1.49,89,236,8.985441207885742,8.860274314880371
17,-0.439797043800354,-2.164137601852417,-0.026212789118289948,36.7159541,3.1838602,28.32,-5.54,-8.06,-1.6,89,236,9.912687301635742,9.78229808807373
18,-0.4615221917629242,-2.163121223449707,0.03859006613492966,36.7158664,3.183699,31.18,-5.54,-8.2,-1.59,88,236,10.029848098754883,9.9029541015625
19,-0.42391008138656616,-2.16410756111145,-0.0006596371531486511,36.7157911,3.1835598,33.65,-5.55,-8.25,-1.59,88,236,10.08006477355957,9.952919006347656
20,-0.4869946241378784,-2.1644539833068848,0.0035846629180014133,36.7157161,3.1834202,36.13,-5.51,-8.27,-1.59,88,235,10.072690963745117,9.945068359375
21,-0.449442058801651,-2.164698839187622,0.03670049458742142,36.7156291,3.1832572,39.02,-5.49,-8.26,-1.62,87,235,10.058622360229492,9.926738739013672
22,-0.42955464124679565,-2.1632986068725586,-0.0001345324271824211,36.7155546,3.1831179,41.52,-5.51,-8.25,-1.62,87,236,10.06157112121582,9.929363250732422
23,-0.490474671125412,-2.1646575927734375,0.011247518472373486,36.7154674,3.1829552,44.44,-5.53,-8.29,-1.62,86,235,10.106032371520996,9.974370002746582
24,-0.44391345977783203,-2.1661436557769775,0.040596820414066315,36.7153923,3.1828152,46.94,-5.51,-8.29,-1.63,86,235,10.092779159545898,9.958826065063477
25,-0.4251807928085327,-2.1650166511535645,-0.009174585342407227,36.7153178,3.1826753,49.44,-5.5,-8.31,-1.63,85,235,10.107582092285156,9.973845481872559
26,-0.49011996388435364,-2.163494348526001,0.010425069369375706,36.7152308,3.1825122,52.36,-5.52,-8.3,-1.63,85,236,10.10853385925293,9.975606918334961
27,-0.44096750020980835,-2.1640372276306152,0.03863948583602905,36.7151559,3.1823724,54.86,-5.51,-8.27,-1.64,84,236,10.079239845275879,9.944000244140625
28,-0.43914079666137695,-2.1643974781036377,-0.03574781119823456,36.7150685,3.1822094,57.79,-5.5,-8.23,-1.62,84,235,10.039068222045898,9.906036376953125
29,-0.2426505982875824,-2.167835235595703,0.024929305538535118,36.7149989,3.1820799,60.14,-4.61,-6.89,-1.37,83,235,8.412910461425781,8.300210952758789
30,-0.06519504636526108,-2.1569740772247314,-0.014404019340872765,36.7149413,3.1819715,61.92,-2.77,-4.26,-0.58,83,236,5.122808456420898,5.08881950378418
31,-0.1465214043855667,-2.114715814590454,0.04030536115169525,36.7149091,3.1819069,62.41,-2.16,-3.67,-0.12,83,238,4.271938800811768,4.270053386688232
32,-0.13761098682880402,-2.1021196842193604,-0.014426195994019508,36.7148808,3.1818458,62.44,-2.07,-3.68,0.0,82,239,4.22476053237915,4.2247514724731445
33,0.025274986401200294,-2.10762619972229,0.009938746690750122,36.71485,3.1817786,62.41,-1.62,-2.83,0.11,82,239,3.269692897796631,3.2676005363464355
34,0.0038372783455997705,-2.3448994159698486,-0.06419169902801514,36.7148315,3.1817449,61.46,-1.2,-1.33,1.22,82,225,2.173948287963867,1.7985140085220337
35,-0.004038267303258181,-2.4662275314331055,0.006478306837379932,36.7148144,3.1817267,58.84,-1.03,-0.8,1.43,81,218,1.9437452554702759,1.307185411453247
36,-0.06572724878787994,-2.4702587127685547,0.0043822298757731915,36.7148003,3.1817135,56.6,-1.04,-0.83,1.43,81,218,1.958701729774475,1.335585117340088
37,-0.010399576276540756,-2.4698379039764404,0.009968443773686886,36.714786,3.1816994,54.37,-1.06,-0.87,1.44,81,218,1.9977080821990967,1.3749256134033203
38,-0.04894692450761795,-2.4702625274658203,0.02724389359354973,36.7147691,3.1816823,51.75,-1.07,-0.88,1.45,80,218,2.012256383895874,1.3906676769256592
39,-0.015578377060592175,-2.4693071842193604,-0.015074655413627625,36.7147546,3.1816677,49.5,-1.08,-0.88,1.45,80,218,2.0193984508514404,1.3994810581207275
40,-0.017561448737978935,-2.4692578315734863,0.021650059148669243,36.7147376,3.1816506,46.89,-1.07,-0.88,1.46,79,218,2.019031286239624,1.3865339756011963
41,-0.048569537699222565,-2.4692952632904053,-0.027172721922397614,36.7147229,3.1816359,44.64,-1.07,-0.88,1.47,79,218,2.026761770248413,1.394864559173584
42,-0.008829979225993156,-2.469653606414795,-0.004830028861761093,36.714706,3.1816188,42.01,-1.07,-0.88,1.46,79,218,2.024338483810425,1.3930226564407349
43,-0.06676315516233444,-2.4697091579437256,0.004483833443373442,36.7146914,3.1816041,39.78,-1.06,-0.89,1.47,78,218,2.0303688049316406,1.3931896686553955
44,-0.008715404197573662,-2.4695489406585693,0.005539679434150457,36.7146768,3.1815893,37.52,-1.06,-0.88,1.48,78,218,2.028313398361206,1.3857197761535645
45,-0.04519972950220108,-2.4697489738464355,0.02550545148551464,36.7146597,3.1815721,34.9,-1.06,-0.88,1.47,78,218,2.024606227874756,1.3863096237182617
46,-0.02062954008579254,-2.46999454498291,-0.01873481273651123,36.7146452,3.1815575,32.65,-1.06,-0.87,1.47,77,218,2.024836540222168,1.3843683004379272
47,-0.014137638732790947,-2.4696638584136963,0.021784307435154915,36.7146282,3.1815402,30.03,-1.05,-0.88,1.48,77,218,2.024406909942627,1.377342700958252
48,-0.04395725950598717,-2.469116687774658,-0.026245512068271637,36.7146136,3.1815255,27.77,-1.07,-0.87,1.47,76,218,2.0270659923553467,1.3859097957611084
49,-0.023203829303383827,-2.4694199562072754,0.025282694026827812,36.714599,3.1815108,25.52,-1.07,-0.87,1.47,76,218,2.0234053134918213,1.3866428136825562
50,-0.17444810271263123,3.115419387817383,-0.10645096004009247,36.7145772,3.1814981,23.06,-1.96,-0.03,1.04,76,178,2.220069408416748,1.9608975648880005
51,-0.19761371612548828,2.6674652099609375,-0.022213298827409744,36.7145398,3.1815138,22.46,-3.48,1.72,-0.04,75,152,3.891364812850952,3.8910744190216064
52,-0.16521970927715302,2.6719043254852295,0.028752073645591736,36.7144782,3.1815521,22.55,-4.0,2.04,0.03,75,153,4.492943286895752,4.492794036865234
53,-0.014926509000360966,3.052938461303711,0.177409365773201,36.7144264,3.1815765,22.49,-3.46,0.32,0.04,75,174,3.478729248046875,3.478454351425171
54,-0.3863394856452942,-2.1881344318389893,0.11968858540058136,36.7143776,3.1815395,22.48,-3.07,-4.2,0.01,74,234,5.2149658203125,5.2149481773376465
55,-0.4875056743621826,-2.1532998085021973,-0.017694467678666115,36.714328,3.1814442,22.48,-4.31,-6.86,0.0,74,236,8.111021995544434,8.111017227172852
56,-0.4900825023651123,-2.1494338512420654,0.00665036216378212,36.7142646,3.1813192,22.49,-4.92,-7.71,0.0,73,236,9.155860900878906,9.15585994720459
57,-0.3028607964515686,-2.153050422668457,-0.013072776608169079,36.7141878,3.1811705,22.51,-4.58,-7.06,0.0,73,236,8.418709754943848,8.418708801269531
58,-0.275364488363266,-2.1454102993011475,0.015422513708472252,36.7141312,3.181061,22.5,-3.76,-5.92,0.03,73,237,7.022797584533691,7.022730827331543
59,-0.2531385123729706,-2.117053270339966,-0.010856504552066326,36.7140758,3.1809479,22.48,-3.35,-5.65,0.0,72,238,6.575992584228516,6.575987339019775
60,-0.3106675148010254,-2.1081225872039795,0.010814189910888672,36.7140312,3.1808528,22.48,-3.27,-5.63,0.0,72,239,6.51601505279541,6.516008377075195
61,-0.13882212340831757,-2.1085593700408936,0.01427715364843607,36.7139873,3.1807592,22.49,-3.06,-5.23,0.0,71,239,6.065354347229004,6.065354824066162
62,0.13857054710388184,-2.109299898147583,0.02506975829601288,36.7139494,3.1806785,22.46,-1.47,-2.53,0.02,71,239,2.930992364883423,2.9308741092681885
63,0.12373782694339752,-2.108905076980591,-0.018893180415034294,36.7139396,3.1806571,22.47,-0.13,-0.25,-0.01,71,239,0.28913575410842896,0.28848063945770264
64,0.007552699185907841,-2.1084485054016113,0.10372434556484222,36.7139407,3.1806584,22.44,0.3,0.0,0.03,70,239,0.30369117856025696,0.30200254917144775
