timestamp,pitch,yaw,roll,lat,lon,alt,velocity_x,velocity_y,velocity_z,battery,heading,airspeed,groundspeed
0,0.03630105406045914,0.03846120089292526,0.00464694295078516,36.7156066,3.1846299,17.51,-0.03,0.02,-0.03,96,2,0.05294884741306305,0.039485614746809006
1,-0.10124672204256058,0.04258604347705841,0.09410632401704788,36.715608,3.1846327,17.57,0.38,0.58,0.0,95,2,0.7013452649116516,0.701321005821228
2,-0.18038389086723328,1.369472622871399,-0.09907354414463043,36.7156216,3.1846564,17.53,1.69,2.4,-0.01,95,78,2.9403035640716553,2.940255641937256
3,-0.1286182850599289,0.956519365310669,0.010589751414954662,36.7156556,3.1847161,17.56,2.41,3.36,-0.02,95,54,4.141417980194092,4.1413254737854
4,0.055797312408685684,0.934890627861023,-0.03151800483465195,36.7156874,3.1847705,17.57,1.99,2.72,-0.01,94,53,3.3778841495513916,3.377868890762329
5,0.3261689245700836,0.46120044589042664,-0.15892775356769562,36.7156983,3.1847865,17.56,-1.02,-1.54,0.0,94,26,1.854446291923523,1.8544371128082275
6,-0.11414211988449097,-1.1832231283187866,-0.13306842744350433,36.715674,3.1847423,17.6,-2.23,-3.25,-0.01,93,292,3.951885461807251,3.951852321624756
7,-0.07219552993774414,-2.3265185356140137,0.042894598096609116,36.7156391,3.1846772,17.59,-1.96,-3.26,0.01,93,226,3.810873031616211,3.810842990875244
8,-0.08449878543615341,-1.3976722955703735,0.2910887598991394,36.7156271,3.184625,17.57,0.59,-2.8,0.01,93,279,2.86875319480896,2.868725299835205
9,-0.41423627734184265,-0.6590402126312256,0.040387433022260666,36.7156614,3.1845761,17.57,4.37,-3.25,0.0,92,322,5.4504852294921875,5.4504852294921875
10,-0.5034213662147522,-0.6259756684303284,0.04243980348110199,36.7157549,3.1844945,17.57,7.15,-4.93,-0.01,92,324,8.692045211791992,8.692036628723145
11,-0.4558411240577698,-0.6172266602516174,-0.013936739414930344,36.7158583,3.184405,17.59,7.88,-5.5,0.0,91,324,9.612082481384277,9.612079620361328
12,-0.3686889111995697,-0.6204679012298584,0.01847063936293125,36.7159806,3.1842978,17.62,7.32,-5.19,-0.01,91,324,8.979029655456543,8.97901439666748
13,0.012126618064939976,-0.632221519947052,-0.03178761154413223,36.7160664,3.1842218,17.63,4.97,-3.64,0.04,91,323,6.163264274597168,6.16310977935791
14,-0.13443268835544586,-1.5164347887039185,-0.255855530500412,36.7161095,3.184161,17.87,0.12,-2.97,-0.38,90,288,3.027059555053711,3.013455867767334
15,-0.3899385333061218,-2.142061710357666,-0.06488462537527084,36.7160856,3.1840978,18.96,-3.39,-4.81,-1.01,90,237,5.974663257598877,5.887213230133057
16,-0.5166236758232117,-2.1606321334838867,-0.010233239270746708,36.716027,3.1839953,20.91,-5.02,-7.18,-1.48,89,236,8.890644073486328,8.765401840209961
17,-0.42541179060935974,-2.167022466659546,0.03363773971796036,36.7159412,3.1838414,23.75,-5.55,-8.06,-1.59,89,235,9.918126106262207,9.78844165802002
18,-0.4385961592197418,-2.1642322540283203,-0.020742934197187424,36.7158662,3.1837032,26.2,-5.52,-8.23,-1.57,88,236,10.040899276733398,9.916375160217285
19,-0.487709641456604,-2.162928342819214,-0.02808280475437641,36.7157911,3.1835636,28.66,-5.56,-8.27,-1.59,88,236,10.101325035095215,9.975040435791016
20,-0.4306228756904602,-2.1658782958984375,0.03418491408228874,36.7157034,3.1834008,31.55,-5.51,-8.25,-1.61,87,235,10.054851531982422,9.92485523223877
21,-0.4355936050415039,-2.1640360355377197,-0.014208092354238033,36.715629,3.1832616,34.04,-5.49,-8.26,-1.61,87,236,10.058450698852539,9.928101539611816
22,-0.4900050163269043,-2.165131092071533,0.012404859066009521,36.7155419,3.1830987,36.95,-5.51,-8.3,-1.62,87,235,10.09864616394043,9.967840194702148
23,-0.4478260278701782,-2.1646196842193604,0.03904096409678459,36.7154669,3.1829586,39.45,-5.52,-8.27,-1.63,86,235,10.086386680603027,9.953680992126465
24,-0.4481983482837677,-2.1638293266296387,-0.02941953018307686,36.7153796,3.1827954,42.38,-5.49,-8.26,-1.62,86,236,10.060834884643555,9.928646087646484
25,-0.49781015515327454,-2.1631994247436523,0.011371374130249023,36.7153054,3.1826564,44.87,-5.51,-8.31,-1.63,85,236,10.11434555053711,9.981639862060547
26,-0.4677083492279053,-2.1644935607910156,0.04128500446677208,36.7152304,3.1825161,47.38,-5.55,-8.31,-1.63,85,235,10.129995346069336,9.996476173400879
27,-0.450630784034729,-2.1638288497924805,-0.03139510378241539,36.715143,3.1823527,50.3,-5.5,-8.27,-1.63,84,236,10.076157569885254,9.942513465881348
28,-0.4688284695148468,-2.1625638008117676,-0.0045277089811861515,36.7150684,3.1822132,52.8,-5.48,-8.25,-1.62,84,236,10.041574478149414,9.90883731842041
29,-0.1561993807554245,-2.1674044132232666,0.001990347635000944,36.7149878,3.1820637,55.51,-4.43,-6.58,-1.31,83,235,8.046503067016602,7.9379563331604
30,-0.08825881779193878,-2.1588199138641357,-0.004242920782417059,36.7149395,3.1819729,56.99,-2.81,-4.33,-0.61,83,236,5.202155590057373,5.166135787963867
31,-0.11152683943510056,-2.1112046241760254,0.01440547313541174,36.7149022,3.1818975,57.54,-2.14,-3.66,-0.09,83,239,4.248508930206299,4.247547149658203
32,-0.18157729506492615,-2.1025774478912354,-0.0034288852475583553,36.714874,3.1818363,57.55,-2.07,-3.68,-0.01,82,239,4.22756814956665,4.227546215057373
33,0.028852269053459167,-2.1058335304260254,0.004439568612724543,36.7148476,3.1817789,57.53,-1.65,-2.89,0.09,82,239,3.3373911380767822,3.336005449295044
34,-0.004034919664263725,-2.387631893157959,-0.023018378764390945,36.7148263,3.1817405,56.31,-1.16,-1.19,1.34,82,223,2.1423423290252686,1.670446753501892
35,-0.0027838540263473988,-2.468318223953247,0.004879331216216087,36.7148117,3.1817257,54.03,-1.03,-0.8,1.44,81,218,1.9474352598190308,1.3086117506027222
36,-0.04460776969790459,-2.469306707382202,0.03189869225025177,36.7147953,3.1817102,51.42,-1.03,-0.84,1.43,81,218,1.960228443145752,1.3373445272445679
37,-0.023681404069066048,-2.4694647789001465,-0.018405551090836525,36.714781,3.1816959,49.18,-1.06,-0.88,1.43,81,218,1.9945247173309326,1.3843363523483276
38,-0.05408907309174538,-2.470435619354248,0.02004666067659855,36.7147665,3.1816813,46.94,-1.07,-0.88,1.45,80,218,2.010946273803711,1.391822099685669
39,-0.042673252522945404,-2.4695746898651123,-0.021061569452285767,36.7147494,3.1816643,44.32,-1.07,-0.89,1.45,80,218,2.017930269241333,1.39641273021698
40,-0.03590783476829529,-2.4694738388061523,0.029489124193787575,36.7147349,3.1816495,42.08,-1.06,-0.87,1.46,79,218,2.0079078674316406,1.3782618045806885
41,-0.0640457421541214,-2.4691965579986572,-0.007503134198486805,36.7147179,3.1816325,39.46,-1.06,-0.88,1.47,79,218,2.0244669914245605,1.3916330337524414
42,-0.013543621636927128,-2.469405174255371,0.018187273293733597,36.7147033,3.1816177,37.22,-1.07,-0.88,1.47,79,218,2.028348445892334,1.3902864456176758
43,-0.05743788927793503,-2.4699361324310303,0.019269738346338272,36.7146862,3.1816005,34.59,-1.07,-0.88,1.47,78,218,2.0245113372802734,1.3875662088394165
44,-0.007697945926338434,-2.4692444801330566,0.006849291268736124,36.7146717,3.1815858,32.34,-1.06,-0.87,1.47,78,218,2.018441915512085,1.3775590658187866
45,-0.06034526228904724,-2.4696455001831055,0.001097335247322917,36.7146571,3.1815711,30.1,-1.06,-0.89,1.48,78,218,2.0310497283935547,1.3894473314285278
46,-0.020129956305027008,-2.4695425033569336,-0.017722677439451218,36.7146401,3.1815539,27.47,-1.06,-0.88,1.47,77,218,2.024290084838867,1.3832013607025146
47,-0.05403909087181091,-2.4699697494506836,0.01971747726202011,36.7146255,3.1815392,25.22,-1.06,-0.88,1.47,77,218,2.025378942489624,1.385329246520996
48,-0.033691588789224625,-2.4693984985351562,-0.023925499990582466,36.7146085,3.1815221,22.6,-1.06,-0.88,1.47,76,218,2.0252153873443604,1.384529948234558
49,-0.05980069935321808,-2.4693148136138916,-0.0005673375562764704,36.7145963,3.1815098,20.72,-1.05,-0.89,1.47,76,218,2.0193839073181152,1.3781259059906006
50,-0.20608925819396973,2.9952402114868164,-0.12024237960577011,36.7145704,3.1814967,17.97,-2.15,0.21,0.85,76,171,2.330120325088501,2.166914701461792
51,-0.196987584233284,2.669102191925049,0.009539281018078327,36.7145305,3.1815159,17.58,-3.63,1.81,-0.06,75,152,4.063799858093262,4.063288688659668
52,-0.1619023233652115,2.671874761581421,-0.02924373187124729,36.714477,3.1815494,17.66,-4.0,2.04,0.03,75,153,4.49800443649292,4.497848987579346
53,-0.018872283399105072,-3.099228620529175,0.24960099160671234,36.7144172,3.1815753,17.6,-3.32,-0.11,0.04,75,182,3.330108404159546,3.329815149307251
54,-0.44109684228897095,-2.2006912231445312,0.08614616096019745,36.7143759,3.1815407,17.59,-3.09,-4.09,0.02,74,233,5.129939079284668,5.129888534545898
55,-0.459031343460083,-2.1613221168518066,0.012597568333148956,36.7143163,3.1814274,17.59,-4.48,-7.04,0.0,74,236,8.347829818725586,8.347827911376953
56,-0.46527761220932007,-2.156147003173828,-0.028994310647249222,36.7142514,3.1813013,17.61,-4.99,-7.7,0.0,73,236,9.177815437316895,9.177815437316895
57,-0.3508048355579376,-2.156015634536743,0.014937056228518486,36.714185,3.1811739,17.62,-4.65,-7.11,0.0,73,236,8.5037202835083,8.503719329833984
58,-0.23668277263641357,-2.1437110900878906,-0.0066489302553236485,36.714119,3.1810471,17.61,-3.69,-5.82,0.03,73,237,6.896247863769531,6.896181106567383
59,-0.29214751720428467,-2.1138575077056885,0.029684415087103844,36.7140719,3.1809507,17.59,-3.31,-5.65,0.0,72,238,6.552209377288818,6.552203178405762
60,-0.27044251561164856,-2.1002469062805176,-0.02290474995970726,36.7140209,3.18084,17.59,-3.21,-5.66,0.0,72,239,6.514035701751709,6.514029026031494
61,-0.15800228714942932,-2.099898099899292,0.006158451549708843,36.7139783,3.1807469,17.6,-2.91,-5.1,0.0,71,239,5.877254962921143,5.877254486083984
62,0.16243915259838104,-2.100944757461548,-0.027931248769164085,36.7139437,3.1806718,17.56,-1.21,-2.13,0.01,71,239,2.456603527069092,2.45656156539917
63,0.07043569535017014,-2.1002001762390137,0.02699335664510727,36.7139363,3.1806552,17.58,-0.03,-0.09,-0.01,71,239,0.10130883753299713,0.10023767501115799
64,0.008268012665212154,-2.100234031677246,0.04782683774828911,36.7139376,3.1806569,17.55,0.26,0.02,0.03,70,239,0.2685815691947937,0.2661907970905304
