timestamp,pitch,yaw,roll,lat,lon,alt,velocity_x,velocity_y,velocity_z,battery,heading,airspeed,groundspeed
0,0.02870561182498932,-0.026604732498526573,0.014595170505344868,36.7156065,3.1846299,20.66,-0.02,0.03,-0.01,96,358,0.04299544170498848,0.038246288895606995
1,-0.09018675982952118,-0.03257334977388382,0.09709957242012024,36.7156077,3.1846322,20.64,0.32,0.55,-0.02,95,358,0.6436638236045837,0.6430767774581909
2,-0.20796912908554077,1.5078709125518799,-0.13909219205379486,36.7156234,3.1846627,20.64,1.79,2.72,-0.02,95,86,3.2658092975616455,3.2656755447387695
3,-0.13501949608325958,0.8883214592933655,0.018680237233638763,36.7156528,3.1847175,20.66,2.37,3.55,-0.02,95,50,4.272816181182861,4.2727274894714355
4,0.0512726828455925,0.9688718914985657,0.02889406308531761,36.7156895,3.1847845,20.67,1.87,2.77,0.0,94,55,3.350571632385254,3.3505663871765137
5,0.3699492812156677,1.0285694599151611,0.004180075600743294,36.7157001,3.1848031,20.65,-0.7,-1.01,0.0,94,58,1.236764907836914,1.236733078956604
6,-0.03175037354230881,3.000601053237915,0.1512320637702942,36.7156731,3.1847546,20.69,-2.26,-3.19,-0.01,93,171,3.9198620319366455,3.919825792312622
7,-0.12902694940567017,-1.910960078239441,0.020598946139216423,36.7156428,3.1846984,20.67,-2.11,-3.24,0.0,93,250,3.8715436458587646,3.871540069580078
8,-0.01576169766485691,-1.564697265625,0.23259390890598297,36.7156262,3.1846456,20.66,0.07,-2.88,0.0,93,270,2.8839476108551025,2.883936643600464
9,-0.4211789667606354,-0.6472397446632385,0.08999291062355042,36.7156623,3.1845889,20.66,4.42,-3.28,0.0,92,322,5.511394500732422,5.5113935470581055
10,-0.4880235493183136,-0.6246432065963745,-0.014552980661392212,36.7157405,3.1845205,20.66,6.89,-4.8,-0.01,92,324,8.40532398223877,8.405315399169922
11,-0.5062328577041626,-0.6184868812561035,0.024345196783542633,36.7158596,3.1844173,20.68,7.89,-5.53,0.0,91,324,9.641539573669434,9.641538619995117
12,-0.3429918587207794,-0.6201959252357483,0.0005741675850003958,36.7159657,3.1843241,20.71,7.49,-5.31,-0.02,91,324,9.192357063293457,9.192331314086914
13,-0.07186440378427505,-0.622963547706604,-0.03764054551720619,36.716056,3.1842446,20.73,5.4,-3.86,0.04,91,324,6.648189067840576,6.648005962371826
14,-0.016481077298521996,-1.2885918617248535,-0.31022679805755615,36.7161085,3.1841821,20.88,0.78,-2.89,-0.29,90,286,3.010221481323242,2.996033191680908
15,-0.4207880198955536,-2.129493474960327,-0.043086808174848557,36.7160921,3.1841238,21.82,-2.98,-4.49,-0.92,90,237,5.469892978668213,5.3916544914245605
16,-0.4682009220123291,-2.159529209136963,-0.03219563513994217,36.7160256,3.1840069,24.03,-5.0,-7.23,-1.49,89,236,8.924628257751465,8.798177719116211
17,-0.48141181468963623,-2.1632866859436035,-0.00465766666457057,36.7159526,3.1838753,26.46,-5.5,-8.04,-1.6,89,236,9.87964153289795,9.748651504516602
18,-0.4561290740966797,-2.163459539413452,0.032994724810123444,36.7158776,3.1837376,28.93,-5.53,-8.19,-1.57,88,236,10.017924308776855,9.893796920776367
19,-0.46485772728919983,-2.163799285888672,-0.030194029211997986,36.7157897,3.1835747,31.79,-5.56,-8.26,-1.58,88,236,10.089774131774902,9.96393871307373
20,-0.485310435295105,-2.163011312484741,0.014209091663360596,36.7157149,3.1834352,34.27,-5.5,-8.25,-1.59,88,236,10.052282333374023,9.924352645874023
21,-0.42817530035972595,-2.1654152870178223,-0.0035384967923164368,36.7156279,3.1832729,37.18,-5.54,-8.27,-1.6,87,235,10.093057632446289,9.964868545532227
22,-0.4755946397781372,-2.1640799045562744,-0.02495228871703148,36.7155529,3.1831331,39.67,-5.51,-8.3,-1.61,87,236,10.096016883850098,9.96667766571045
23,-0.43502330780029297,-2.163133382797241,0.026553906500339508,36.7154658,3.1829698,42.58,-5.5,-8.28,-1.63,86,236,10.078856468200684,9.945672035217285
24,-0.43282070755958557,-2.165330410003662,-0.018385279923677444,36.7153911,3.1828305,45.09,-5.53,-8.29,-1.62,86,235,10.104819297790527,9.973045349121094
25,-0.4888893961906433,-2.1618711948394775,-0.016706574708223343,36.7153163,3.1826905,47.59,-5.48,-8.29,-1.62,85,236,10.075607299804688,9.943909645080566
26,-0.44000962376594543,-2.1623153686523438,0.02414153330028057,36.7152291,3.182527,50.5,-5.53,-8.27,-1.64,85,236,10.086773872375488,9.9522123336792
27,-0.44432157278060913,-2.166217803955078,-0.01994648016989231,36.7151541,3.1823873,53.01,-5.51,-8.27,-1.63,84,235,10.07708740234375,9.94354248046875
28,-0.45381543040275574,-2.1638991832733154,0.03279823437333107,36.7150675,3.1822248,55.94,-5.49,-8.27,-1.62,84,236,10.063728332519531,9.931342124938965
29,-0.1929377168416977,-2.1683976650238037,0.0020779690239578485,36.7149969,3.1820939,58.29,-4.67,-6.92,-1.39,83,235,8.468214988708496,8.352880477905273
30,-0.0787678137421608,-2.161778688430786,-0.007469492498785257,36.7149451,3.1819974,59.93,-2.98,-4.56,-0.7,83,236,5.496025085449219,5.450183868408203
31,-0.1226658895611763,-2.114778757095337,-0.004181379918009043,36.7149067,3.1819204,60.61,-2.17,-3.71,-0.13,83,238,4.301262378692627,4.2992963790893555
32,-0.1825648546218872,-2.1009604930877686,0.010727922432124615,36.7148785,3.1818589,60.64,-2.08,-3.69,-0.01,82,239,4.241678237915039,4.241661548614502
33,0.006863686256110668,-2.1059014797210693,-0.036099035292863846,36.7148473,3.1817913,60.61,-1.65,-2.88,0.1,82,239,3.326951503753662,3.3254098892211914
34,0.015921296551823616,-2.3370237350463867,-0.02233269438147545,36.7148287,3.1817568,59.7,-1.2,-1.33,1.19,82,226,2.1589341163635254,1.799536943435669
35,-0.057074323296546936,-2.4677555561065674,-0.006718867924064398,36.7148115,3.1817387,57.08,-1.03,-0.8,1.43,81,218,1.940312147140503,1.311128854751587
36,-0.011703378520905972,-2.470344066619873,0.008748259395360947,36.7147975,3.1817255,54.85,-1.04,-0.84,1.42,81,218,1.9610766172409058,1.3450520038604736
37,-0.06125802546739578,-2.4702870845794678,-0.008849822916090488,36.7147832,3.1817113,52.6,-1.06,-0.88,1.43,81,218,1.9916167259216309,1.3857927322387695
38,-0.02059764601290226,-2.470557689666748,-0.01879752054810524,36.7147662,3.1816943,49.98,-1.08,-0.87,1.44,80,218,2.0030741691589355,1.3918944597244263
39,-0.055666469037532806,-2.4697225093841553,0.018671948462724686,36.7147517,3.1816797,47.75,-1.06,-0.88,1.45,80,218,2.0055530071258545,1.3810402154922485
40,-0.0564996711909771,-2.4696996212005615,-0.01766134798526764,36.7147347,3.1816627,45.13,-1.06,-0.88,1.45,79,218,2.0111241340637207,1.3832160234451294
41,-0.019543185830116272,-2.469545841217041,0.027813443914055824,36.7147201,3.181648,42.88,-1.07,-0.89,1.45,79,218,2.0173001289367676,1.3925014734268188
42,-0.0579465888440609,-2.4700591564178467,0.013455454260110855,36.714703,3.1816307,40.27,-1.06,-0.88,1.47,79,218,2.023136615753174,1.3873540163040161
43,-0.009427642449736595,-2.469810962677002,-0.006462651304900646,36.7146884,3.1816161,38.02,-1.06,-0.88,1.47,78,218,2.02166485786438,1.3844172954559326
44,-0.06141430884599686,-2.4698617458343506,0.008418489247560501,36.7146739,3.1816015,35.77,-1.05,-0.89,1.47,78,218,2.019009590148926,1.3838024139404297
45,-0.038768310099840164,-2.470097541809082,-0.02361595630645752,36.7146569,3.1815842,33.15,-1.05,-0.88,1.47,78,218,2.0220115184783936,1.38060462474823
46,-0.03608277440071106,-2.470317840576172,0.02649974450469017,36.7146423,3.1815694,30.9,-1.06,-0.88,1.47,77,218,2.023941993713379,1.3846431970596313
47,-0.05909401923418045,-2.469914197921753,-0.003241158789023757,36.7146253,3.1815524,28.27,-1.07,-0.89,1.47,77,218,2.027137279510498,1.395563006401062
48,-0.008297907188534737,-2.4694948196411133,0.01782209239900112,36.7146106,3.1815377,26.02,-1.05,-0.88,1.47,76,218,2.0159249305725098,1.3774001598358154
49,-0.05942731723189354,-2.4699010848999023,-0.00845782645046711,36.7145961,3.1815229,23.78,-1.06,-0.87,1.47,76,218,2.02047061920166,1.3761917352676392
50,-0.11992235481739044,3.1315131187438965,-0.13216401636600494,36.7145747,3.18151,21.29,-1.94,-0.07,1.05,76,179,2.2122111320495605,1.9429296255111694
51,-0.2438170313835144,2.6681950092315674,0.006097876001149416,36.7145378,3.1815247,20.65,-3.48,1.7,-0.04,75,152,3.8812472820281982,3.8809332847595215
52,-0.16597789525985718,2.6720809936523438,-0.01959608495235443,36.7144761,3.1815634,20.76,-3.99,2.04,0.03,75,153,4.491581916809082,4.491405963897705
53,-0.015773752704262733,3.034116268157959,0.23269887268543243,36.7144242,3.1815884,20.7,-3.47,0.38,0.05,75,173,3.49544620513916,3.4950480461120605
54,-0.3831650912761688,-2.21614933013916,0.09396632760763168,36.7143821,3.1815638,20.68,-3.0,-3.55,0.02,74,233,4.649081707000732,4.649029731750488
55,-0.4619362950325012,-2.1533315181732178,0.019584782421588898,36.7143255,3.1814582,20.68,-4.32,-6.8,0.0,74,236,8.06045913696289,8.060456275939941
56,-0.4552009105682373,-2.153972864151001,-0.03381936252117157,36.7142615,3.1813337,20.69,-4.98,-7.67,0.0,73,236,9.152386665344238,9.152386665344238
57,-0.3193801939487457,-2.1573266983032227,0.03179125115275383,36.7141837,3.1811852,20.72,-4.64,-7.08,0.0,73,236,8.471694946289062,8.471694946289062
58,-0.23173974454402924,-2.147310972213745,-0.013110793195664883,36.7141265,3.1810751,20.71,-3.76,-5.93,0.03,73,236,7.0310821533203125,7.030994892120361
59,-0.25594693422317505,-2.1116445064544678,0.037681154906749725,36.7140713,3.1809624,20.69,-3.31,-5.65,0.01,72,239,6.553802013397217,6.553786754608154
60,-0.2858768701553345,-2.1003451347351074,-0.020315561443567276,36.7140275,3.1808678,20.69,-3.23,-5.67,0.01,72,239,6.527307987213135,6.527289867401123
61,-0.10772634297609329,-2.0998451709747314,0.0198835339397192,36.7139776,3.1807588,20.69,-2.89,-5.08,0.0,71,239,5.849850177764893,5.849850654602051
62,0.1355268359184265,-2.1010384559631348,-0.019912563264369965,36.7139464,3.1806909,20.66,-1.48,-2.59,0.03,71,239,2.9840612411499023,2.983898401260376
63,0.12323102355003357,-2.1003832817077637,0.023445075377821922,36.7139364,3.180669,20.67,-0.14,-0.26,-0.01,71,239,0.3006066083908081,0.30009666085243225
64,-0.036649081856012344,-2.1040072441101074,0.09287990629673004,36.7139377,3.1806706,20.64,0.27,0.0,0.03,70,239,0.27741745114326477,0.2755134105682373
