timestamp,pitch,yaw,roll,lat,lon,alt,velocity_x,velocity_y,velocity_z,battery,heading,airspeed,groundspeed
0,0.016636373475193977,0.0324169360101223,-0.02107825130224228,36.7156067,3.1846299,22.53,-0.03,0.02,-0.11,96,1,0.12209704518318176,0.04404491186141968
1,-0.08053019642829895,0.02547663077712059,0.12625445425510406,36.7156076,3.184632,22.54,0.3,0.52,-0.03,95,1,0.6075030565261841,0.6063903570175171
2,-0.2399825006723404,1.4191213846206665,-0.08149019628763199,36.7156238,3.1846616,22.58,1.8,2.68,-0.04,95,81,3.2303876876831055,3.2300710678100586
3,-0.15485002100467682,0.9348053932189941,-0.024830497801303864,36.7156534,3.1847159,22.57,2.42,3.56,-0.01,95,53,4.311269760131836,4.31123685836792
4,0.07399363070726395,0.9620007276535034,0.02331986092031002,36.715691,3.1847832,22.56,2.0,2.85,0.0,94,55,3.489518165588379,3.4895179271698
5,0.3494962155818939,0.860757052898407,-0.054589346051216125,36.7157038,3.1848043,22.58,-0.55,-0.87,-0.02,94,49,1.0343296527862549,1.0340348482131958
6,-0.014609835110604763,-0.8420757055282593,-0.1646822690963745,36.7156829,3.1847658,22.56,-2.18,-3.14,0.05,93,311,3.8285295963287354,3.8281266689300537
7,-0.0871373862028122,-2.426657199859619,0.0883600041270256,36.7156474,3.1847013,22.6,-2.15,-3.24,0.0,93,220,3.896721363067627,3.896712064743042
8,-0.03221026062965393,-1.595441460609436,0.18723057210445404,36.7156297,3.1846479,22.56,-0.12,-2.89,0.02,93,268,2.90055775642395,2.900430917739868
9,-0.3852171003818512,-0.6518234610557556,0.0764479711651802,36.7156628,3.1845913,22.55,4.25,-3.2,0.0,92,322,5.325326442718506,5.325324058532715
10,-0.5296657085418701,-0.6243752837181091,-0.009921003133058548,36.7157392,3.1845244,22.55,6.8,-4.72,0.0,92,324,8.288294792175293,8.288291931152344
11,-0.5103636384010315,-0.6157490015029907,0.022278226912021637,36.7158401,3.1844372,22.57,7.84,-5.47,0.0,91,324,9.566046714782715,9.566045761108398
12,-0.3777739703655243,-0.619070827960968,-0.02841065265238285,36.7159636,3.1843289,22.6,7.57,-5.35,-0.02,91,324,9.276583671569824,9.276561737060547
13,-0.09659802168607712,-0.6226791143417358,0.006488264538347721,36.7160552,3.184248,22.62,5.57,-3.98,0.04,91,324,6.853579998016357,6.853435039520264
14,-0.01866818033158779,-1.208630919456482,-0.3021654486656189,36.716111,3.1841844,22.75,1.01,-2.86,-0.26,90,290,3.053245782852173,3.0418148040771484
15,-0.3750053346157074,-2.1290626525878906,-0.04826686903834343,36.7160972,3.1841271,23.64,-2.83,-4.35,-0.89,90,238,5.27517032623291,5.199038982391357
16,-0.5082277655601501,-2.1616299152374268,-0.016216997057199478,36.7160323,3.1840131,25.81,-4.97,-7.14,-1.47,89,236,8.827825546264648,8.702977180480957
17,-0.4751855134963989,-2.163067102432251,0.01969313435256481,36.7159597,3.1838821,28.22,-5.5,-8.01,-1.6,89,236,9.855716705322266,9.723539352416992
18,-0.430405855178833,-2.1639626026153564,0.01461423933506012,36.7158845,3.1837445,30.69,-5.53,-8.18,-1.57,88,236,10.006830215454102,9.881998062133789
19,-0.4867348074913025,-2.163869857788086,-0.010523605160415173,36.7157968,3.1835815,33.56,-5.55,-8.25,-1.58,88,236,10.077044486999512,9.951761245727539
20,-0.4611864387989044,-2.1654677391052246,0.03884030506014824,36.7157219,3.1834423,36.04,-5.51,-8.23,-1.59,88,235,10.035715103149414,9.907358169555664
21,-0.4531136155128479,-2.1664485931396484,-0.02413354068994522,36.7156349,3.1832802,38.95,-5.55,-8.31,-1.6,87,235,10.12479019165039,9.997268676757812
22,-0.49057647585868835,-2.165726661682129,0.0015954992268234491,36.7155598,3.18314,41.44,-5.51,-8.29,-1.6,87,235,10.087291717529297,9.958276748657227
23,-0.42069730162620544,-2.1632797718048096,0.002040803898125887,36.7154729,3.1829769,44.35,-5.49,-8.28,-1.62,86,236,10.073426246643066,9.94169807434082
24,-0.45938336849212646,-2.1656546592712402,-0.024935884401202202,36.715398,3.1828375,46.84,-5.52,-8.29,-1.62,86,235,10.094938278198242,9.963261604309082
25,-0.49147355556488037,-2.165435791015625,0.014712010510265827,36.7153232,3.1826976,49.34,-5.5,-8.31,-1.63,85,235,10.109312057495117,9.975935935974121
26,-0.4190647006034851,-2.162717342376709,0.007836132310330868,36.7152361,3.1825342,52.27,-5.5,-8.27,-1.63,85,236,10.071473121643066,9.937829971313477
27,-0.47607773542404175,-2.1643643379211426,-0.02748456597328186,36.7151615,3.1823946,54.78,-5.52,-8.27,-1.63,84,236,10.081459045410156,9.948760986328125
28,-0.4352550804615021,-2.1642847061157227,0.03645928576588631,36.7150741,3.1822314,57.7,-5.51,-8.27,-1.63,84,236,10.079071044921875,9.945698738098145
29,-0.22413095831871033,-2.168846845626831,-0.014904201030731201,36.7150034,3.1821002,60.07,-4.72,-7.02,-1.4,83,235,8.583749771118164,8.467428207397461
30,-0.09719521552324295,-2.1631245613098145,0.004715644288808107,36.7149508,3.1820018,61.77,-3.08,-4.68,-0.73,83,236,5.65573787689209,5.6077656745910645
31,-0.13183259963989258,-2.1160123348236084,-0.012453555129468441,36.7149114,3.1819233,62.49,-2.18,-3.71,-0.14,83,238,4.3124494552612305,4.310135841369629
32,-0.17461852729320526,-2.10148286819458,0.02711218222975731,36.714883,3.181862,62.53,-2.07,-3.67,0.0,82,239,4.225193023681641,4.225185871124268
33,-0.017037762328982353,-2.1039907932281494,-0.02812154032289982,36.7148517,3.1817938,62.51,-1.68,-2.96,0.07,82,239,3.408534049987793,3.4076952934265137
34,0.029982516542077065,-2.3190419673919678,-0.027218574658036232,36.7148328,3.1817581,61.68,-1.21,-1.4,1.13,82,227,2.175304889678955,1.8554490804672241
35,-0.04603857174515724,-2.4816222190856934,-0.025191321969032288,36.7148178,3.1817415,59.47,-1.03,-0.8,1.46,81,217,1.9597742557525635,1.3063873052597046
36,-0.011355959810316563,-2.4712636470794678,-0.0017736749723553658,36.7148014,3.1817261,56.85,-1.05,-0.83,1.42,81,218,1.9592775106430054,1.342859148979187
37,-0.06322137266397476,-2.4706971645355225,0.004324287176132202,36.7147871,3.181712,54.61,-1.05,-0.87,1.43,81,218,1.985990047454834,1.3731969594955444
38,-0.03123132884502411,-2.470445394515991,-0.021236274391412735,36.7147702,3.1816951,51.99,-1.07,-0.88,1.44,80,218,2.005037546157837,1.3948895931243896
39,-0.05123119056224823,-2.4698164463043213,0.02810305915772915,36.7147556,3.1816805,49.75,-1.06,-0.88,1.44,80,218,2.004758596420288,1.385157585144043
40,-0.06008481979370117,-2.469653606414795,-0.00971490703523159,36.7147386,3.1816634,47.14,-1.06,-0.89,1.45,79,218,2.018646717071533,1.3952114582061768
41,-0.01743834838271141,-2.469486951828003,0.02474871650338173,36.714724,3.1816487,44.9,-1.07,-0.88,1.46,79,218,2.018927574157715,1.3878237009048462
42,-0.05392811447381973,-2.470039129257202,-0.013652518391609192,36.7147094,3.181634,42.65,-1.07,-0.88,1.47,79,218,2.028411865234375,1.3908319473266602
43,-0.006606851704418659,-2.47001051902771,-0.00980137288570404,36.7146924,3.1816169,40.03,-1.06,-0.88,1.47,78,218,2.024646282196045,1.3867802619934082
44,-0.059699878096580505,-2.470147132873535,0.014585024677217007,36.7146778,3.1816022,37.78,-1.05,-0.89,1.47,78,218,2.0254855155944824,1.3879578113555908
45,-0.04100475832819939,-2.469853401184082,-0.023990632966160774,36.7146608,3.181585,35.15,-1.06,-0.89,1.47,78,218,2.02677059173584,1.3892006874084473
46,-0.03445374593138695,-2.470276117324829,0.029115064069628716,36.7146463,3.1815703,32.9,-1.05,-0.88,1.47,77,218,2.018733024597168,1.3777498006820679
47,-0.061669331043958664,-2.469984769821167,-0.000387555017368868,36.7146292,3.1815532,30.28,-1.06,-0.89,1.47,77,218,2.0224335193634033,1.3872148990631104
48,-0.00931395310908556,-2.4696385860443115,0.012500272132456303,36.7146146,3.1815384,28.03,-1.05,-0.87,1.47,76,218,2.012741804122925,1.3724433183670044
49,-0.058623455464839935,-2.469938039779663,-0.009429910220205784,36.7146001,3.1815237,25.78,-1.06,-0.88,1.47,76,218,2.0218770503997803,1.3833948373794556
50,-0.11365395039319992,-3.099301338195801,-0.12807971239089966,36.7145792,3.1815101,23.27,-1.86,-0.16,1.12,76,182,2.1841368675231934,1.8730500936508179
51,-0.2450089454650879,2.667217493057251,0.004151229280978441,36.7145433,3.1815233,22.54,-3.41,1.65,-0.02,75,152,3.7924373149871826,3.792362928390503
52,-0.1749286949634552,2.6717700958251953,-0.023654324933886528,36.7144822,3.1815616,22.64,-4.0,2.05,0.02,75,153,4.497950553894043,4.497862339019775
53,-0.013633315451443195,2.99058198928833,0.21873997151851654,36.7144299,3.1815879,22.59,-3.51,0.54,0.05,75,171,3.5580787658691406,3.5576767921447754
54,-0.37187182903289795,-2.2268643379211426,0.10622318834066391,36.7143875,3.1815665,22.57,-2.95,-3.34,0.02,74,232,4.462310791015625,4.462265491485596
55,-0.4608613848686218,-2.146090507507324,0.020335910841822624,36.7143324,3.1814641,22.57,-4.23,-6.72,0.0,74,237,7.9467291831970215,7.946725368499756
56,-0.46275997161865234,-2.1484642028808594,-0.03534945473074913,36.7142698,3.1813408,22.58,-4.94,-7.71,0.0,73,236,9.16521167755127,9.165210723876953
57,-0.3224624991416931,-2.1515164375305176,0.027046337723731995,36.7141923,3.1811908,22.6,-4.63,-7.15,0.0,73,236,8.52777099609375,8.527767181396484
58,-0.22658540308475494,-2.1460132598876953,-0.013638244941830635,36.7141349,3.1810796,22.6,-3.8,-5.97,0.03,73,237,7.088268756866455,7.088194370269775
59,-0.29468727111816406,-2.123098850250244,0.03049464151263237,36.7140868,3.1809825,22.57,-3.39,-5.66,0.01,72,238,6.611098289489746,6.611077308654785
60,-0.2812337279319763,-2.1087074279785156,-0.023886624723672867,36.7140345,3.1808719,22.58,-3.29,-5.64,0.01,72,239,6.530567646026611,6.530555725097656
61,-0.19923195242881775,-2.1087610721588135,0.021637797355651855,36.7139904,3.1807776,22.58,-3.1,-5.35,0.0,71,239,6.188728332519531,6.188727855682373
62,0.13302657008171082,-2.1093950271606445,-0.02079026773571968,36.7139508,3.1806933,22.55,-1.61,-2.75,0.03,71,239,3.1890196800231934,3.188832998275757
63,0.12205980718135834,-2.1090190410614014,0.025410844013094902,36.7139397,3.1806693,22.56,-0.18,-0.34,-0.02,71,239,0.39177873730659485,0.3912525177001953
64,-0.03601572662591934,-2.1120452880859375,0.07907099276781082,36.7139406,3.1806704,22.53,0.24,0.04,0.03,70,238,0.2535077631473541,0.25088998675346375
