timestamp,pitch,yaw,roll,lat,lon,alt,velocity_x,velocity_y,velocity_z,battery,heading,airspeed,groundspeed
0,0.02733692340552807,-0.05139869451522827,-0.003266650252044201,36.7156067,3.1846299,17.71,-0.03,0.02,-0.01,96,357,0.04253985360264778,0.040841616690158844
1,-0.0764288678765297,-0.0581786148250103,0.10020802915096283,36.7156075,3.1846318,17.76,0.26,0.48,-0.01,95,356,0.553153395652771,0.5529005527496338
2,-0.21575713157653809,1.5174787044525146,-0.12703238427639008,36.7156213,3.184659,17.72,1.61,2.5,-0.02,95,86,2.982867956161499,2.9827892780303955
3,-0.14859938621520996,0.8508228063583374,0.019952362403273582,36.7156483,3.184711,17.75,2.24,3.5,-0.03,95,48,4.162601470947266,4.1624836921691895
4,0.021119682118296623,0.97206711769104,0.022627616301178932,36.7156838,3.1847787,17.77,1.96,2.98,-0.01,94,55,3.573667526245117,3.5736453533172607
5,0.36728599667549133,1.0920383930206299,0.016991864889860153,36.7156973,3.1848036,17.76,-0.38,-0.54,0.01,94,62,0.664849042892456,0.6647148728370667
6,-0.04533018544316292,2.702615976333618,0.22609442472457886,36.7156782,3.1847689,17.79,-2.11,-3.03,-0.03,93,154,3.7001736164093018,3.7000198364257812
7,-0.14336951076984406,-1.9368400573730469,0.0013706691097468138,36.7156431,3.1847047,17.79,-2.2,-3.28,0.0,93,249,3.9538424015045166,3.9538309574127197
8,0.013813834637403488,-1.7066208124160767,0.21051879227161407,36.7156233,3.1846507,17.77,-0.32,-2.97,0.0,93,262,2.99018931388855,2.9901747703552246
9,-0.4139976501464844,-0.6540348529815674,0.10515766590833664,36.7156524,3.1845941,17.77,4.03,-3.13,0.0,92,322,5.112035274505615,5.112033367156982
10,-0.48382872343063354,-0.6229045391082764,-0.004910738207399845,36.7157262,3.1845291,17.77,6.71,-4.63,0.0,92,324,8.16421890258789,8.164215087890625
11,-0.5268685817718506,-0.6187967658042908,-0.012589821591973305,36.7158264,3.1844427,17.78,7.82,-5.44,0.0,91,324,9.535772323608398,9.53576946258545
12,-0.3686191737651825,-0.6197243928909302,0.013576745986938477,36.7159505,3.1843341,17.81,7.62,-5.4,-0.02,91,324,9.344867706298828,9.344825744628906
13,-0.10206162184476852,-0.621945858001709,-0.02566751465201378,36.7160436,3.1842521,17.84,5.76,-4.09,0.03,91,324,7.075963973999023,7.075890064239502
14,0.05966073274612427,-1.135558009147644,-0.2728751003742218,36.7161033,3.1841872,17.94,1.34,-2.87,-0.23,90,294,3.1867263317108154,3.1778831481933594
15,-0.41047364473342896,-2.1244566440582275,-0.0908292829990387,36.7160933,3.1841311,18.77,-2.62,-4.19,-0.85,90,238,5.017112731933594,4.94428014755249
16,-0.4502844512462616,-2.1610469818115234,-0.009664825163781643,36.7160306,3.1840204,20.88,-4.91,-7.03,-1.45,89,236,8.701515197753906,8.578631401062012
17,-0.4617577791213989,-2.1623711585998535,-0.03530903905630112,36.7159583,3.1838904,23.27,-5.51,-8.02,-1.61,89,236,9.866518020629883,9.733722686767578
18,-0.48829197883605957,-2.1647937297821045,0.026647208258509636,36.7158833,3.1837535,25.73,-5.53,-8.19,-1.58,88,235,10.012852668762207,9.886115074157715
19,-0.4314287304878235,-2.164738655090332,-0.016803855076432228,36.7157954,3.1835909,28.61,-5.55,-8.24,-1.59,88,235,10.064970016479492,9.937582969665527
20,-0.4822131097316742,-2.165996789932251,-0.02087262272834778,36.7157204,3.1834514,31.08,-5.5,-8.27,-1.6,88,235,10.067398071289062,9.938511848449707
21,-0.43406394124031067,-2.1647696495056152,0.033072829246520996,36.7156333,3.1832882,33.98,-5.52,-8.28,-1.62,87,235,10.087691307067871,9.95639419555664
22,-0.43314164876937866,-2.1642074584960938,-0.0165454912930727,36.7155588,3.1831489,36.48,-5.52,-8.26,-1.62,87,236,10.073652267456055,9.942007064819336
23,-0.4914320409297943,-2.163900852203369,-0.01604248210787773,36.7154843,3.1830097,38.97,-5.5,-8.29,-1.62,86,236,10.091657638549805,9.960502624511719
24,-0.43671274185180664,-2.165621280670166,0.0355762280523777,36.7153967,3.1828464,41.89,-5.51,-8.26,-1.63,86,235,10.073766708374023,9.939416885375977
25,-0.4367882013320923,-2.1659634113311768,-0.015237747691571712,36.715322,3.1827067,44.4,-5.53,-8.31,-1.63,85,235,10.12285327911377,9.990102767944336
26,-0.48959073424339294,-2.164534568786621,0.01878482848405838,36.7152347,3.182543,47.32,-5.52,-8.29,-1.63,85,235,10.097749710083008,9.964827537536621
27,-0.436125785112381,-2.164039134979248,0.028064856305718422,36.7151602,3.1824036,49.81,-5.51,-8.3,-1.64,84,236,10.102654457092285,9.967998504638672
28,-0.44094282388687134,-2.163506507873535,-0.023795029148459435,36.7150854,3.1822635,52.32,-5.5,-8.26,-1.64,84,236,10.062601089477539,9.927936553955078
29,-0.2798762023448944,-2.1695210933685303,0.032526932656764984,36.7150016,3.1821081,55.14,-4.84,-7.16,-1.43,83,235,8.76637077331543,8.647589683532715
30,-0.04095073044300079,-2.1640164852142334,0.005149001255631447,36.7149472,3.1820065,56.9,-3.18,-4.81,-0.79,83,236,5.828868389129639,5.774318218231201
31,-0.1434851586818695,-2.118942975997925,0.039404891431331635,36.7149069,3.1819268,57.69,-2.2,-3.7,-0.17,83,238,4.310601711273193,4.307218074798584
32,-0.13524839282035828,-2.102011203765869,-0.023521920666098595,36.7148784,3.1818655,57.76,-2.06,-3.64,0.0,82,239,4.19574499130249,4.195741653442383
33,0.008027197793126106,-2.103257417678833,0.01714986190199852,36.7148469,3.181797,57.74,-1.72,-3.04,0.04,82,239,3.49704909324646,3.496715545654297
34,0.00810188613831997,-2.292973756790161,-0.06703276932239532,36.7148276,3.1817594,57.02,-1.22,-1.5,1.05,82,228,2.2046287059783936,1.9360743761062622
35,-0.02309938333928585,-2.484682083129883,0.02511891908943653,36.7148123,3.1817419,54.85,-1.04,-0.8,1.47,81,217,1.9741407632827759,1.3140978813171387
36,-0.06439928710460663,-2.471881151199341,0.007544586434960365,36.7147959,3.1817267,52.23,-1.03,-0.82,1.43,81,218,1.9500874280929565,1.3233062028884888
37,-0.010651972144842148,-2.470061779022217,0.006720799952745438,36.7147817,3.1817127,49.99,-1.05,-0.87,1.44,81,218,1.994357943534851,1.3723692893981934
38,-0.0484466515481472,-2.4702882766723633,0.027105281129479408,36.7147648,3.1816956,47.37,-1.07,-0.88,1.44,80,218,2.007988452911377,1.392106533050537
39,-0.01599891297519207,-2.4692893028259277,-0.01696709915995598,36.7147502,3.1816809,45.13,-1.08,-0.88,1.45,80,218,2.0140159130096436,1.3958224058151245
40,-0.05395108461380005,-2.4696426391601562,0.018127232789993286,36.7147357,3.1816663,42.89,-1.07,-0.89,1.46,79,218,2.0255868434906006,1.3987149000167847
41,-0.04777213931083679,-2.469233989715576,-0.027520693838596344,36.7147186,3.1816492,40.27,-1.07,-0.88,1.47,79,218,2.0241546630859375,1.3895857334136963
42,-0.02892223186790943,-2.4695181846618652,0.0287936944514513,36.714704,3.1816345,38.02,-1.06,-0.88,1.47,79,218,2.0233657360076904,1.3887615203857422
43,-0.06303516030311584,-2.46940279006958,0.002060482045635581,36.714687,3.1816173,35.41,-1.06,-0.89,1.47,78,218,2.030409574508667,1.3906238079071045
44,-0.008792380802333355,-2.469336748123169,0.005548655055463314,36.7146725,3.1816026,33.15,-1.06,-0.87,1.48,78,218,2.0274665355682373,1.3844571113586426
45,-0.05898900330066681,-2.469109058380127,-0.013315576128661633,36.7146579,3.1815879,30.9,-1.06,-0.88,1.47,78,218,2.0283701419830322,1.3888583183288574
46,-0.01942712627351284,-2.469816207885742,-0.019351549446582794,36.7146408,3.1815707,28.28,-1.07,-0.88,1.48,77,218,2.028838872909546,1.3868471384048462
47,-0.054318077862262726,-2.469775438308716,0.0216301791369915,36.7146262,3.181556,26.03,-1.06,-0.88,1.47,77,218,2.0244300365448,1.381373643875122
48,-0.040049321949481964,-2.469266891479492,-0.023867400363087654,36.7146093,3.1815388,23.4,-1.07,-0.88,1.47,76,218,2.024413824081421,1.3882029056549072
49,-0.029359394684433937,-2.469243049621582,0.028099479153752327,36.7145947,3.181524,21.15,-1.07,-0.88,1.47,76,218,2.0244908332824707,1.3874938488006592
50,-0.14589719474315643,-3.0205788612365723,-0.10897830873727798,36.7145744,3.1815096,18.61,-1.76,-0.27,1.2,76,186,2.1548991203308105,1.7896859645843506
51,-0.20589376986026764,2.673999786376953,-0.02616853080689907,36.7145399,3.1815208,17.76,-3.34,1.55,0.0,75,153,3.691713809967041,3.691713571548462
52,-0.19597923755645752,2.679967164993286,-0.019396696239709854,36.714488,3.1815523,17.86,-4.07,2.03,-0.02,75,153,4.5562214851379395,4.556171417236328
53,-0.012613865546882153,2.9253182411193848,0.14172059297561646,36.7144253,3.1815862,17.81,-3.65,0.8,0.05,75,167,3.7462923526763916,3.745893955230713
54,-0.3785744607448578,-2.282287836074829,0.1751129925251007,36.7143818,3.181571,17.79,-2.92,-2.94,0.02,74,229,4.15718936920166,4.157114505767822
55,-0.4792974293231964,-2.1422479152679443,-0.026523679494857788,36.714328,3.1814743,17.79,-4.11,-6.55,0.01,74,237,7.740725040435791,7.740715026855469
56,-0.4964269995689392,-2.146606206893921,-0.004833180923014879,36.7142661,3.1813521,17.8,-4.86,-7.66,0.0,73,237,9.079652786254883,9.07965087890625
57,-0.30621081590652466,-2.1516432762145996,-0.0145234614610672,36.7141887,3.1812021,17.82,-4.7,-7.26,-0.01,73,236,8.65793514251709,8.657927513122559
58,-0.2677184045314789,-2.146355152130127,0.009481151588261127,36.7141305,3.1810895,17.82,-3.86,-6.08,0.03,73,237,7.213921070098877,7.213853359222412
59,-0.25438496470451355,-2.118046760559082,0.038051899522542953,36.7140821,3.1809914,17.79,-3.38,-5.68,0.01,72,238,6.614734649658203,6.614712238311768
60,-0.3071843087673187,-2.100703239440918,0.003957358188927174,36.7140303,3.1808801,17.79,-3.23,-5.65,0.0,72,239,6.511629104614258,6.511621952056885
61,-0.17951399087905884,-2.0998826026916504,0.02356470376253128,36.7139869,3.1807854,17.79,-3.1,-5.44,0.0,71,239,6.270259380340576,6.270259380340576
62,0.10518287867307663,-2.100982904434204,0.014400159940123558,36.7139464,3.1806974,17.77,-1.74,-3.05,0.03,71,239,3.515049695968628,3.514845609664917
63,0.146943137049675,-2.1005139350891113,-0.008885243907570839,36.7139337,3.1806694,17.78,-0.27,-0.49,-0.02,71,239,0.5682066082954407,0.567715048789978
64,-0.0021775865461677313,-2.1010639667510986,0.07839541137218475,36.7139339,3.1806694,17.76,0.18,0.09,0.04,70,239,0.21424059569835663,0.21032491326332092
