timestamp,pitch,yaw,roll,lat,lon,alt,velocity_x,velocity_y,velocity_z,battery,heading,airspeed,groundspeed
0,0.028881937265396118,0.03978975489735603,0.01571877859532833,36.7156067,3.1846299,18.12,-0.03,0.03,0.02,96,2,0.050876885652542114,0.04666943475604057
1,-0.09314220398664474,0.06493911147117615,0.1307193636894226,36.7156082,3.1846331,18.14,0.42,0.65,0.0,95,3,0.7826774716377258,0.7826750874519348
2,-0.22033201158046722,1.3852171897888184,-0.11601778864860535,36.7156226,3.1846585,18.1,1.74,2.53,-0.02,95,79,3.079333782196045,3.079244613647461
3,-0.1311253011226654,0.9823237657546997,-0.026849817484617233,36.7156572,3.1847206,18.15,2.44,3.49,-0.03,95,56,4.2618865966796875,4.261763572692871
4,0.013869833201169968,0.9486128091812134,-0.0008938528480939567,36.7156897,3.1847773,18.17,2.06,2.87,-0.01,94,54,3.541328191757202,3.5412981510162354
5,0.3929024338722229,0.7832117080688477,-0.05145638808608055,36.7157037,3.1847998,18.16,-0.44,-0.71,0.01,94,44,0.8473042249679565,0.847201943397522
6,-0.06198611110448837,-1.0585646629333496,-0.12323176115751266,36.7156788,3.1847541,18.2,-2.23,-3.23,-0.02,93,299,3.930422067642212,3.930366277694702
7,-0.10465529561042786,-2.423367977142334,0.03153626248240471,36.7156484,3.1846986,18.19,-2.17,-3.28,0.01,93,221,3.9393529891967773,3.939337968826294
8,-0.04799477010965347,-1.4668586254119873,0.24409858882427216,36.7156298,3.1846366,18.17,0.38,-2.82,0.01,93,275,2.84751033782959,2.847489833831787
9,-0.4418583810329437,-0.6602319478988647,0.0768391415476799,36.7156613,3.1845882,18.17,4.18,-3.17,0.0,92,322,5.2514472007751465,5.251445770263672
10,-0.48273730278015137,-0.6259948015213013,-0.003870414337143302,36.7157525,3.1845084,18.17,7.05,-4.87,-0.01,92,324,8.57436466217041,8.574356079101562
11,-0.5075033903121948,-0.6181118488311768,-0.022404339164495468,36.7158552,3.1844195,18.19,7.88,-5.5,0.0,91,324,9.617286682128906,9.61728572845459
12,-0.40060409903526306,-0.6198208928108215,0.026935847476124763,36.7159613,3.1843265,18.22,7.56,-5.34,-0.01,91,324,9.26796817779541,9.267951965332031
13,-0.028929147869348526,-0.6273452043533325,-0.06140672788023949,36.7160654,3.1842345,18.24,5.14,-3.72,0.05,91,324,6.3552069664001465,6.355008125305176
14,0.009439075365662575,-1.1826229095458984,-0.24556908011436462,36.7161104,3.1841813,18.36,1.14,-2.87,-0.25,90,292,3.10715389251709,3.096827268600464
15,-0.44333982467651367,-2.131626605987549,-0.06769733130931854,36.7160916,3.1841116,19.47,-3.22,-4.69,-0.97,90,237,5.780757904052734,5.697852611541748
16,-0.4781838655471802,-2.1620500087738037,0.041907552629709244,36.7160342,3.1840114,21.38,-4.99,-7.1,-1.47,89,236,8.80508804321289,8.681154251098633
17,-0.44847023487091064,-2.1648330688476562,-0.02923685871064663,36.7159488,3.183858,24.2,-5.51,-8.05,-1.6,89,235,9.887235641479492,9.756255149841309
18,-0.4957306385040283,-2.1624767780303955,-0.0025420035235583782,36.7158737,3.18372,26.66,-5.53,-8.2,-1.57,88,236,10.022960662841797,9.898432731628418
19,-0.45506012439727783,-2.163886308670044,0.03765994310379028,36.7157985,3.1835805,29.13,-5.54,-8.23,-1.59,88,236,10.053997039794922,9.927301406860352
20,-0.45542046427726746,-2.163294792175293,-0.02909211441874504,36.7157111,3.1834178,32.02,-5.52,-8.26,-1.59,87,236,10.067605972290039,9.940011024475098
21,-0.4938780963420868,-2.163249969482422,0.0005563653539866209,36.7156363,3.1832785,34.5,-5.5,-8.26,-1.6,87,236,10.055549621582031,9.926722526550293
22,-0.42826899886131287,-2.163099765777588,0.023458028212189674,36.7155491,3.1831157,37.42,-5.5,-8.28,-1.61,87,236,10.073384284973145,9.942416191101074
23,-0.4498133659362793,-2.165555238723755,-0.02091488614678383,36.7154744,3.182976,39.91,-5.52,-8.28,-1.62,86,235,10.093926429748535,9.962908744812012
24,-0.4952719807624817,-2.1649482250213623,0.0043993014842271805,36.7153999,3.1828363,42.4,-5.51,-8.3,-1.62,86,235,10.10384750366211,9.972115516662598
25,-0.4287019371986389,-2.166027307510376,0.022123584523797035,36.7153127,3.1826732,45.32,-5.54,-8.31,-1.64,85,235,10.127817153930664,9.993106842041016
26,-0.43168434500694275,-2.165128231048584,-0.023806067183613777,36.7152376,3.182533,47.83,-5.5,-8.29,-1.63,85,235,10.092031478881836,9.957987785339355
27,-0.4773518741130829,-2.1655170917510986,0.03487768769264221,36.7151505,3.1823698,50.75,-5.51,-8.28,-1.63,84,235,10.088613510131836,9.954540252685547
28,-0.4144023060798645,-2.1639389991760254,0.01633419841527939,36.7150758,3.1822301,53.26,-5.51,-8.26,-1.63,84,236,10.068082809448242,9.933791160583496
29,-0.22780358791351318,-2.1678977012634277,-0.004995931405574083,36.7149943,3.182079,55.99,-4.5,-6.73,-1.34,83,235,8.212958335876465,8.102131843566895
30,-0.05549873784184456,-2.1599178314208984,0.034721627831459045,36.7149449,3.181986,57.54,-2.88,-4.4,-0.64,83,236,5.307758331298828,5.2685136795043945
31,-0.14107125997543335,-2.117447853088379,-0.013813778758049011,36.7149121,3.1819204,58.1,-2.19,-3.7,-0.15,83,238,4.303887844085693,4.301192760467529
32,-0.13368600606918335,-2.1015665531158447,0.017725100740790367,36.7148791,3.181849,58.15,-2.07,-3.68,-0.01,82,239,4.232120037078857,4.232098579406738
33,-0.020652921870350838,-2.1039483547210693,-0.02748575247824192,36.7148523,3.1817908,58.13,-1.71,-3.0,0.06,82,239,3.4576406478881836,3.457045793533325
34,0.03815135732293129,-2.3707733154296875,-0.049625981599092484,36.7148303,3.1817506,57.03,-1.18,-1.23,1.29,82,224,2.1445326805114746,1.712271809577942
35,-0.05693226680159569,-2.471616744995117,-0.006268430966883898,36.7148157,3.1817353,54.76,-1.02,-0.79,1.44,81,218,1.9406235218048096,1.2960960865020752
36,-0.012730498798191547,-2.470855951309204,0.013248649425804615,36.7148017,3.1817222,52.52,-1.04,-0.82,1.42,81,218,1.9515925645828247,1.3311940431594849
37,-0.051767945289611816,-2.469844341278076,0.02486753650009632,36.714785,3.1817057,49.91,-1.06,-0.88,1.43,81,218,1.991275668144226,1.3788093328475952
38,-0.013519955798983574,-2.4703240394592285,-0.016753124073147774,36.7147705,3.1816911,47.66,-1.07,-0.88,1.44,80,218,2.002476692199707,1.3899033069610596
39,-0.027133846655488014,-2.4692602157592773,0.027067814022302628,36.7147534,3.1816741,45.05,-1.06,-0.87,1.45,80,218,2.0039145946502686,1.380062222480774
40,-0.03957081958651543,-2.469352960586548,-0.02412557229399681,36.7147389,3.1816595,42.81,-1.06,-0.88,1.46,79,218,2.013298749923706,1.3861182928085327
41,-0.04743737354874611,-2.4693398475646973,0.028949430212378502,36.7147244,3.1816448,40.57,-1.06,-0.89,1.46,79,218,2.0247080326080322,1.3947986364364624
42,-0.05771249160170555,-2.4696288108825684,-0.010840192437171936,36.7147073,3.1816276,37.95,-1.07,-0.88,1.47,79,218,2.0330874919891357,1.3953779935836792
43,-0.013201717287302017,-2.4693033695220947,0.02378215081989765,36.7146927,3.1816129,35.7,-1.05,-0.87,1.47,78,218,2.017385482788086,1.3741191625595093
44,-0.060781080275774,-2.469252586364746,0.0061998129822313786,36.7146758,3.1815957,33.07,-1.06,-0.89,1.47,78,218,2.026538610458374,1.3877097368240356
45,-0.007041586562991142,-2.4694087505340576,0.0020064048003405333,36.7146612,3.1815809,30.82,-1.07,-0.88,1.47,78,218,2.0277867317199707,1.3901046514511108
46,-0.060675885528326035,-2.4694325923919678,-0.0017475042259320617,36.7146465,3.1815662,28.57,-1.06,-0.88,1.47,77,218,2.025482177734375,1.3867284059524536
47,-0.02026931755244732,-2.469860553741455,-0.020813537761569023,36.7146296,3.1815491,25.95,-1.06,-0.88,1.47,77,218,2.0218796730041504,1.3859175443649292
48,-0.05903085321187973,-2.4696500301361084,0.01787594147026539,36.714615,3.1815344,23.7,-1.06,-0.89,1.47,77,218,2.026595115661621,1.3918496370315552
49,-0.011812862940132618,-2.469477415084839,-0.00852195080369711,36.7146004,3.1815196,21.45,-1.06,-0.87,1.47,76,218,2.016472578048706,1.3763407468795776
50,-0.12367051839828491,-3.0747556686401367,-0.07595223933458328,36.7145797,3.1815058,18.93,-1.83,-0.2,1.14,76,183,2.1739275455474854,1.8453468084335327
51,-0.2507677674293518,2.6688594818115234,-0.011533665470778942,36.7145366,3.1815231,18.18,-3.59,1.78,-0.05,75,152,4.009167671203613,4.00874137878418
52,-0.13376879692077637,2.6720004081726074,0.014480122365057468,36.7144834,3.1815563,18.27,-4.0,2.04,0.02,75,153,4.495629787445068,4.495555400848389
53,-0.04698950797319412,2.966257095336914,0.15983594954013824,36.714431,3.1815832,18.21,-3.54,0.6,0.05,75,169,3.5981905460357666,3.597792387008667
54,-0.36734819412231445,-2.1930642127990723,0.09384191781282425,36.7143817,3.1815534,18.19,-3.02,-3.87,0.01,74,234,4.916499137878418,4.916467666625977
55,-0.5104635953903198,-2.1477210521698,-0.007656194269657135,36.7143335,3.1814623,18.19,-4.2,-6.69,0.01,74,236,7.908877372741699,7.908866882324219
56,-0.42443063855171204,-2.1503965854644775,0.013752059079706669,36.7142598,3.1813173,18.2,-4.91,-7.72,0.0,73,236,9.157569885253906,9.15756893157959
57,-0.32805824279785156,-2.1527788639068604,-0.02871652878820896,36.7141938,3.1811892,18.22,-4.65,-7.17,0.0,73,236,8.554943084716797,8.55494213104248
58,-0.26217228174209595,-2.147008180618286,0.03407055512070656,36.7141361,3.1810778,18.22,-3.82,-6.01,0.03,73,236,7.1262688636779785,7.126201629638672
59,-0.2722368538379669,-2.118899345397949,-0.013989769853651524,36.7140803,3.1809646,18.19,-3.38,-5.68,0.01,72,238,6.616692543029785,6.616676330566406
60,-0.3061148524284363,-2.1084606647491455,0.026686809957027435,36.7140354,3.1808695,18.2,-3.29,-5.65,0.01,72,239,6.54601526260376,6.54600715637207
61,-0.13316422700881958,-2.1084189414978027,-0.022151876240968704,36.7139842,3.1807599,18.2,-3.0,-5.15,0.0,71,239,5.965322494506836,5.965322971343994
62,0.1367790549993515,-2.1091525554656982,0.029100043699145317,36.7139513,3.1806899,18.17,-1.63,-2.79,0.03,71,239,3.2438344955444336,3.2436423301696777
63,0.07550997287034988,-2.108234405517578,-0.02180931158363819,36.7139395,3.1806643,18.18,-0.07,-0.15,-0.01,71,239,0.16913114488124847,0.16834086179733276
64,0.010331922210752964,-2.1081011295318604,0.08674424886703491,36.7139406,3.1806659,18.15,0.22,0.05,0.03,70,239,0.23272079229354858,0.22956615686416626
