timestamp,pitch,yaw,roll,lat,lon,alt,velocity_x,velocity_y,velocity_z,battery,heading,airspeed,groundspeed
0,-0.014908900484442711,0.0391104631125927,-0.016994541510939598,36.7156066,3.18463,21.42,-0.02,0.02,-0.03,96,2,0.051240287721157074,0.033908575773239136
1,-0.06597716361284256,0.08072715252637863,0.07972659915685654,36.7156086,3.1846334,21.37,0.44,0.68,-0.04,95,4,0.8155598640441895,0.8144777417182922
2,-0.2172127664089203,1.3824248313903809,-0.05568813905119896,36.7156233,3.1846592,21.4,1.73,2.51,-0.04,95,79,3.0504982471466064,3.0502045154571533
3,-0.17309802770614624,0.9182398319244385,-0.027977358549833298,36.7156519,3.1847107,21.41,2.36,3.39,-0.01,95,52,4.140530586242676,4.1404829025268555
4,0.09858191013336182,0.9461652636528015,-0.0018008695915341377,36.7156885,3.1847744,21.41,1.95,2.67,0.0,94,54,3.313979148864746,3.3139734268188477
5,0.3114880621433258,0.7058282494544983,-0.0806170403957367,36.7156998,3.184792,21.44,-0.65,-1.03,-0.02,94,40,1.2255213260650635,1.2252525091171265
6,-0.02310304529964924,-0.9631486535072327,-0.1754188984632492,36.7156783,3.1847522,21.42,-2.18,-3.16,0.05,93,304,3.8458945751190186,3.845507860183716
7,-0.06312857568264008,-2.4198453426361084,0.09145453572273254,36.7156431,3.1846878,21.47,-2.11,-3.26,0.0,93,221,3.8919484615325928,3.8919479846954346
8,-0.05996899679303169,-1.5866800546646118,0.20619486272335052,36.7156265,3.1846344,21.42,0.03,-2.88,0.02,93,269,2.8852694034576416,2.8851499557495117
9,-0.39211490750312805,-0.6582735776901245,0.05071428418159485,36.7156623,3.1845772,21.41,4.39,-3.26,0.0,92,322,5.476819038391113,5.4768171310424805
10,-0.5399606823921204,-0.6275420188903809,0.008417998440563679,36.7157402,3.1845092,21.41,6.9,-4.76,0.0,92,324,8.385807037353516,8.3858060836792
11,-0.46090033650398254,-0.6180038452148438,0.0020710951648652554,36.7158593,3.1844063,21.43,7.9,-5.51,0.0,91,324,9.640759468078613,9.640758514404297
12,-0.39097774028778076,-0.6196009516716003,-0.026009535416960716,36.715965,3.1843137,21.46,7.51,-5.33,-0.01,91,324,9.214546203613281,9.214526176452637
13,0.003229576162993908,-0.6329725384712219,-0.027632374316453934,36.7160671,3.1842233,21.47,4.92,-3.61,0.04,91,323,6.109455108642578,6.109321594238281
14,-0.05398115888237953,-1.2709890604019165,-0.29685136675834656,36.7161085,3.1841708,21.63,0.83,-2.88,-0.29,90,287,3.01595401763916,3.0014569759368896
15,-0.39459335803985596,-2.1432650089263916,-0.06701108068227768,36.7160849,3.184099,22.81,-3.43,-4.85,-1.02,90,237,6.036404132843018,5.948474884033203
16,-0.5165221095085144,-2.1628007888793945,0.00227035372518003,36.716026,3.183996,24.78,-5.02,-7.2,-1.49,89,236,8.911198616027832,8.785687446594238
17,-0.46121400594711304,-2.1638307571411133,0.029675569385290146,36.715953,3.1838646,27.21,-5.52,-8.02,-1.6,89,236,9.87277603149414,9.741655349731445
18,-0.45432406663894653,-2.1654067039489746,-0.02964848279953003,36.7158652,3.1837037,30.07,-5.54,-8.23,-1.57,88,235,10.049585342407227,9.9258451461792
19,-0.4928358495235443,-2.1633763313293457,0.002163978759199381,36.7157901,3.1835639,32.54,-5.54,-8.26,-1.58,88,236,10.077311515808105,9.951563835144043
20,-0.42491772770881653,-2.1628475189208984,0.003718710970133543,36.7157028,3.1834011,35.42,-5.52,-8.24,-1.6,87,236,10.048203468322754,9.918583869934082
21,-0.4643581509590149,-2.1644015312194824,-0.027479631826281548,36.7156282,3.1832623,37.9,-5.52,-8.25,-1.62,87,235,10.066506385803223,9.935163497924805
22,-0.48971936106681824,-2.1646921634674072,0.00829386804252863,36.7155533,3.1831225,40.41,-5.51,-8.29,-1.62,87,235,10.092395782470703,9.961102485656738
23,-0.42479315400123596,-2.1649985313415527,0.002929248148575425,36.7154659,3.1829591,43.32,-5.51,-8.28,-1.63,86,235,10.086217880249023,9.953536987304688
24,-0.4690003991127014,-2.161693572998047,-0.03339303657412529,36.7153915,3.1828193,45.82,-5.5,-8.28,-1.63,86,236,10.079255104064941,9.946352005004883
25,-0.44948986172676086,-2.1672327518463135,0.043781403452157974,36.7153042,3.1826566,48.74,-5.52,-8.26,-1.63,85,235,10.075284004211426,9.94146728515625
26,-0.43134233355522156,-2.1650137901306152,0.0034940727055072784,36.7152293,3.1825169,51.25,-5.53,-8.3,-1.63,85,235,10.110963821411133,9.978554725646973
27,-0.4761142432689667,-2.1645090579986572,-0.024765711277723312,36.7151546,3.1823767,53.76,-5.51,-8.3,-1.62,84,235,10.104296684265137,9.972487449645996
28,-0.42411667108535767,-2.163175106048584,0.03316698223352432,36.7150677,3.1822136,56.67,-5.5,-8.23,-1.63,84,236,10.040522575378418,9.906693458557129
29,-0.21379585564136505,-2.169201612472534,-0.01328652910888195,36.7149973,3.1820835,59.03,-4.68,-6.92,-1.39,83,235,8.479351043701172,8.364063262939453
30,-0.06562372297048569,-2.15781831741333,0.040464695543050766,36.7149391,3.1819745,60.84,-2.8,-4.32,-0.61,83,236,5.192601203918457,5.156364440917969
31,-0.13218165934085846,-2.1150474548339844,-0.011645892634987831,36.7149068,3.1819092,61.36,-2.18,-3.7,-0.13,83,238,4.302978038787842,4.300911903381348
32,-0.1325092613697052,-2.10188364982605,0.02030903287231922,36.7148738,3.1818375,61.39,-2.08,-3.67,-0.01,82,239,4.226325035095215,4.226303577423096
33,-0.010134363546967506,-2.1054816246032715,-0.030030997470021248,36.7148474,3.1817804,61.36,-1.65,-2.88,0.1,82,239,3.326896905899048,3.325272798538208
34,0.024861764162778854,-2.3358376026153564,-0.024559225887060165,36.7148289,3.1817459,60.46,-1.21,-1.35,1.19,82,226,2.1721935272216797,1.8168389797210693
35,-0.060649625957012177,-2.468096971511841,0.0023386983666568995,36.7148116,3.1817275,57.85,-1.03,-0.8,1.43,81,218,1.9461166858673096,1.312188744544983
36,-0.012142653577029705,-2.4703588485717773,9.102096373680979e-05,36.7147976,3.1817142,55.61,-1.04,-0.82,1.43,81,218,1.9570950269699097,1.334044337272644
37,-0.047481268644332886,-2.4700095653533936,0.02961263433098793,36.7147808,3.1816977,53.0,-1.06,-0.87,1.44,80,218,1.9968892335891724,1.37980055809021
38,-0.025341344997286797,-2.4705100059509277,-0.022313740104436874,36.7147663,3.1816832,50.76,-1.07,-0.88,1.45,80,218,2.017153024673462,1.394758701324463
39,-0.053555265069007874,-2.4700264930725098,0.0200048740953207,36.7147517,3.1816686,48.52,-1.06,-0.87,1.46,80,218,2.0099844932556152,1.3804543018341064
40,-0.05527013912796974,-2.4699957370758057,-0.014845256693661213,36.7147347,3.1816516,45.9,-1.06,-0.88,1.46,79,218,2.0185763835906982,1.3884508609771729
41,-0.019197769463062286,-2.469561815261841,0.024069560691714287,36.7147202,3.1816368,43.65,-1.06,-0.88,1.46,79,218,2.0153183937072754,1.379356861114502
42,-0.05964117869734764,-2.470285415649414,0.014587696641683578,36.7147031,3.1816197,41.03,-1.06,-0.89,1.47,79,218,2.028022527694702,1.3928331136703491
43,-0.01119115762412548,-2.4699347019195557,-0.0062207868322730064,36.7146886,3.181605,38.78,-1.07,-0.88,1.47,78,218,2.0232298374176025,1.3878639936447144
44,-0.04341627657413483,-2.4698362350463867,0.026649650186300278,36.7146715,3.1815878,36.16,-1.06,-0.88,1.47,78,218,2.024379253387451,1.3860676288604736
45,-0.02889133431017399,-2.4699175357818604,-0.025019124150276184,36.7146569,3.1815731,33.91,-1.06,-0.88,1.47,78,218,2.02653431892395,1.3866803646087646
46,-0.048132866621017456,-2.4702751636505127,0.026435595005750656,36.7146424,3.1815584,31.66,-1.05,-0.88,1.47,77,218,2.0229241847991943,1.3803069591522217
47,-0.05638411268591881,-2.4700512886047363,-0.012678084895014763,36.7146254,3.1815413,29.05,-1.07,-0.89,1.48,77,218,2.038303852081299,1.3953285217285156
48,-0.01743423566222191,-2.4695053100585938,0.02700164169073105,36.7146107,3.1815265,26.79,-1.05,-0.88,1.48,76,218,2.0205042362213135,1.3749604225158691
49,-0.06468194723129272,-2.470935583114624,0.011487804353237152,36.7145938,3.1815094,24.16,-1.06,-0.87,1.47,76,218,2.022406578063965,1.3803781270980835
50,-0.11257266998291016,3.1364917755126953,-0.11934268474578857,36.7145748,3.1814988,22.05,-1.92,-0.09,1.07,76,179,2.2013421058654785,1.9237239360809326
51,-0.2524697184562683,2.6684250831604004,-0.005762751214206219,36.714538,3.1815136,21.4,-3.47,1.68,-0.04,75,152,3.8582983016967773,3.8580596446990967
52,-0.14654724299907684,2.672057867050171,-0.028617139905691147,36.7144765,3.1815519,21.5,-4.0,2.04,0.03,75,153,4.494433879852295,4.494325637817383
53,-0.038263823837041855,3.0240936279296875,0.22775383293628693,36.7144245,3.1815769,21.44,-3.49,0.4,0.04,75,173,3.5175254344940186,3.5172111988067627
54,-0.4299508333206177,-2.1988682746887207,0.0784001499414444,36.7143754,3.1815418,21.43,-3.1,-4.1,0.01,74,234,5.150271415710449,5.15023946762085
55,-0.48520296812057495,-2.155304431915283,0.04255460947751999,36.7143257,3.1814478,21.43,-4.32,-6.79,0.0,74,236,8.05397891998291,8.053972244262695
56,-0.43998438119888306,-2.153318166732788,-0.01727471873164177,36.7142622,3.1813241,21.44,-4.99,-7.72,0.0,73,236,9.201057434082031,9.201057434082031
57,-0.3464829623699188,-2.1572518348693848,0.021080419421195984,36.7141842,3.1811747,21.46,-4.65,-7.1,0.0,73,236,8.495414733886719,8.495412826538086
58,-0.20790189504623413,-2.1467971801757812,0.008761432021856308,36.7141269,3.1810645,21.45,-3.77,-5.91,0.02,73,237,7.015581130981445,7.015527725219727
59,-0.2842554748058319,-2.113381862640381,0.038259107619524,36.7140716,3.180952,21.43,-3.31,-5.63,0.0,72,238,6.539048671722412,6.539045333862305
60,-0.25573888421058655,-2.099660873413086,-0.0071872384287416935,36.7140277,3.1808571,21.43,-3.2,-5.63,0.0,72,239,6.4783101081848145,6.478307723999023
61,-0.19516965746879578,-2.1004090309143066,-0.005826245062053204,36.7139846,3.1807629,21.43,-3.02,-5.3,0.0,71,239,6.107687473297119,6.107686519622803
62,0.1658649742603302,-2.1015591621398926,-0.028044015169143677,36.7139467,3.1806805,21.41,-1.5,-2.62,0.02,71,239,3.028172492980957,3.0280354022979736
63,0.08942177146673203,-2.1007869243621826,0.022725991904735565,36.7139365,3.180658,21.42,-0.16,-0.3,-0.02,71,239,0.34596818685531616,0.34533506631851196
64,-0.028275951743125916,-2.1024255752563477,0.04874620959162712,36.7139375,3.180659,21.39,0.26,0.03,0.03,70,239,0.2693350315093994,0.26675650477409363
