timestamp,pitch,yaw,roll,lat,lon,alt,velocity_x,velocity_y,velocity_z,battery,heading,airspeed,groundspeed
0,0.013426752761006355,0.004281057044863701,-0.021888429298996925,36.7156067,3.18463,21.15,-0.02,0.02,-0.03,96,0,0.04880186542868614,0.035887353122234344
1,-0.05472909286618233,-0.0028282292187213898,0.1247968077659607,36.7156076,3.1846321,21.09,0.27,0.51,-0.02,95,359,0.5830854773521423,0.5825925469398499
2,-0.22901256382465363,1.5422483682632446,-0.08872772008180618,36.7156214,3.1846604,21.13,1.54,2.62,-0.04,95,88,3.044806718826294,3.044508934020996
3,-0.15762834250926971,0.9076617956161499,-0.016709202900528908,36.715647,3.1847142,21.14,2.09,3.56,-0.02,95,52,4.1327009201049805,4.1326375007629395
4,0.08589908480644226,1.0112621784210205,0.018756045028567314,36.7156802,3.1847823,21.14,1.76,2.89,-0.01,94,57,3.390045404434204,3.3900301456451416
5,0.313469797372818,1.3716497421264648,0.13023987412452698,36.7156909,3.1848045,21.17,-0.61,-0.81,-0.02,94,78,1.0180845260620117,1.0177299976348877
6,-0.07960344851016998,-3.05594539642334,0.09484277665615082,36.715665,3.1847577,21.14,-2.25,-3.19,0.04,93,184,3.9086549282073975,3.9083900451660156
7,-0.1052701324224472,-1.945328950881958,0.048593636602163315,36.7156346,3.1847015,21.18,-2.16,-3.21,-0.02,93,248,3.878040075302124,3.8779714107513428
8,-0.04295215383172035,-1.6034091711044312,0.19783014059066772,36.7156166,3.1846484,21.15,-0.1,-2.91,0.02,93,268,2.919464111328125,2.919374465942383
9,-0.38663527369499207,-0.6493123769760132,0.07562209665775299,36.7156493,3.1845918,21.14,4.25,-3.24,0.0,92,322,5.345986366271973,5.345984935760498
10,-0.5325660705566406,-0.625906765460968,-0.009032323956489563,36.7157256,3.1845245,21.14,6.8,-4.74,0.0,92,324,8.29345417022705,8.293452262878418
11,-0.46474677324295044,-0.6209685802459717,0.0194547176361084,36.7158442,3.1844213,21.16,7.86,-5.55,0.0,91,324,9.628284454345703,9.62828254699707
12,-0.38034966588020325,-0.6233221292495728,-0.025151973590254784,36.7159498,3.184328,21.19,7.51,-5.36,-0.01,91,324,9.23292064666748,9.23291015625
13,-0.003237213473767042,-0.6335755586624146,-0.015578346326947212,36.7160527,3.1842367,21.21,4.99,-3.67,0.05,91,324,6.786327362060547,6.786156177520752
14,-0.037045348435640335,-1.234781265258789,-0.30076298117637634,36.7160955,3.1841839,21.35,0.92,-2.9,-0.27,90,289,3.0637714862823486,3.051649808883667
15,-0.3736984133720398,-2.132749557495117,-0.03723069280385971,36.7160804,3.1841263,22.26,-2.92,-4.42,-0.9,90,237,5.381198883056641,5.303981781005859
16,-0.5175615549087524,-2.161973476409912,-0.007150460500270128,36.7160148,3.184011,24.44,-4.96,-7.2,-1.48,89,236,8.874316215515137,8.749422073364258
17,-0.4560945928096771,-2.1626899242401123,0.027006711810827255,36.7159418,3.1838792,26.86,-5.48,-8.02,-1.61,89,236,9.853421211242676,9.719879150390625
18,-0.46075695753097534,-2.1640396118164062,-0.03264499083161354,36.7158544,3.1837186,29.75,-5.54,-8.21,-1.56,88,236,10.032746315002441,9.909364700317383
19,-0.465961754322052,-2.1624667644500732,-0.032709814608097076,36.7157918,3.1836022,31.8,-5.56,-8.27,-1.57,88,236,10.090924263000488,9.966846466064453
20,-0.44246137142181396,-2.1661598682403564,0.03580508008599281,36.7157042,3.1834393,34.68,-5.53,-8.24,-1.6,88,235,10.05403995513916,9.925494194030762
21,-0.47013166546821594,-2.164503812789917,-0.028428982943296432,36.715617,3.1832767,37.59,-5.5,-8.28,-1.6,87,235,10.081506729125977,9.952592849731445
22,-0.4850391149520874,-2.1626312732696533,0.02149723656475544,36.7155425,3.1831373,40.08,-5.52,-8.29,-1.61,87,236,10.09322738647461,9.963891983032227
23,-0.43121689558029175,-2.165055751800537,-0.012865270487964153,36.715455,3.1829742,43.0,-5.53,-8.29,-1.62,86,235,10.10528564453125,9.973578453063965
24,-0.48045748472213745,-2.1617627143859863,-0.025525562465190887,36.7153803,3.1828341,45.5,-5.5,-8.29,-1.62,86,236,10.085844993591309,9.95444393157959
25,-0.4826502203941345,-2.165902853012085,0.03656373918056488,36.7153058,3.1826948,48.01,-5.53,-8.26,-1.62,85,235,10.077774047851562,9.946414947509766
26,-0.43247151374816895,-2.1644883155822754,-0.011718189343810081,36.7152183,3.1825314,50.92,-5.52,-8.31,-1.63,85,235,10.122440338134766,9.989347457885742
27,-0.48445388674736023,-2.16373610496521,-0.009375191293656826,36.7151436,3.1823912,53.43,-5.5,-8.28,-1.63,84,236,10.082442283630371,9.949767112731934
28,-0.40698814392089844,-2.1640372276306152,0.011810616590082645,36.7150565,3.1822288,56.35,-5.51,-8.25,-1.62,84,236,10.06428050994873,9.93189811706543
29,-0.23587901890277863,-2.16742205619812,-0.02828311361372471,36.7149859,3.1820975,58.72,-4.68,-6.99,-1.39,83,235,8.532271385192871,8.417962074279785
30,-0.07674776762723923,-2.1615772247314453,0.02840946801006794,36.7149335,3.1819997,60.38,-3.01,-4.59,-0.72,83,236,5.544034481048584,5.49589204788208
31,-0.16041810810565948,-2.103896141052246,-0.0016382079338654876,36.7148953,3.1819226,61.08,-2.1,-3.7,-0.13,83,239,4.261552333831787,4.259287357330322
32,-0.14226572215557098,-2.0856704711914062,0.027078310027718544,36.7148681,3.1818613,61.12,-2.01,-3.7,-0.01,82,240,4.2196831703186035,4.219657897949219
33,-0.01928221434354782,-2.0899367332458496,-0.004842167720198631,36.7148378,3.1817928,61.09,-1.61,-2.93,0.08,82,240,3.3540451526641846,3.3528401851654053
34,0.046893395483493805,-2.3256168365478516,-0.05041798576712608,36.7148194,3.1817575,60.21,-1.19,-1.35,1.17,82,226,2.1564598083496094,1.8113764524459839
35,-0.041909001767635345,-2.468470573425293,0.02688591182231903,36.7148022,3.1817394,57.6,-1.02,-0.79,1.43,81,218,1.9321564435958862,1.298892855644226
36,-0.009885597042739391,-2.4721248149871826,0.005256080534309149,36.7147906,3.1817284,55.74,-1.05,-0.82,1.41,81,218,1.9507331848144531,1.338388204574585
37,-0.04234059900045395,-2.4701085090637207,0.028243694454431534,36.7147739,3.1817119,53.12,-1.06,-0.87,1.43,81,218,1.9869425296783447,1.3774222135543823
38,-0.05839361995458603,-2.4696452617645264,-0.007892250083386898,36.7147569,3.1816949,50.5,-1.07,-0.88,1.43,80,218,1.998491883277893,1.3915255069732666
39,-0.01333988644182682,-2.468897581100464,0.020394189283251762,36.7147423,3.1816802,48.27,-1.07,-0.87,1.44,80,218,2.0051357746124268,1.385190725326538
40,-0.047292884439229965,-2.4696929454803467,0.026825111359357834,36.7147253,3.1816632,45.65,-1.06,-0.88,1.45,79,218,2.0080010890960693,1.3814911842346191
41,-0.013456149958074093,-2.469496965408325,-0.017696179449558258,36.7147107,3.1816486,43.4,-1.07,-0.88,1.45,79,218,2.0126142501831055,1.3888903856277466
42,-0.05093778297305107,-2.470060110092163,0.021213842555880547,36.7146962,3.1816338,41.16,-1.06,-0.89,1.46,79,218,2.0187740325927734,1.3914088010787964
43,-0.05256645381450653,-2.469237804412842,-0.019994953647255898,36.7146792,3.1816167,38.54,-1.07,-0.89,1.47,78,218,2.0297653675079346,1.394512414932251
44,-0.01877707801759243,-2.4692819118499756,0.023905932903289795,36.7146646,3.1816019,36.29,-1.06,-0.88,1.47,78,218,2.020334005355835,1.3857203722000122
45,-0.05901223048567772,-2.4699344635009766,0.01661592349410057,36.7146475,3.1815848,33.67,-1.06,-0.88,1.47,78,218,2.0209202766418457,1.386149525642395
46,-0.008086641319096088,-2.4695725440979004,-0.007043877616524696,36.714633,3.18157,31.42,-1.06,-0.88,1.47,77,218,2.024899482727051,1.3833380937576294
47,-0.028674378991127014,-2.4697909355163574,0.026799775660037994,36.714616,3.1815529,28.8,-1.05,-0.88,1.47,77,218,2.018538236618042,1.3766158819198608
48,-0.030346551910042763,-2.469379186630249,-0.02749844454228878,36.7146014,3.1815381,26.54,-1.06,-0.88,1.47,76,218,2.021294593811035,1.3868682384490967
49,-0.03159945830702782,-2.469484567642212,0.029766514897346497,36.7145868,3.1815234,24.29,-1.06,-0.88,1.47,76,218,2.025575876235962,1.3860055208206177
50,-0.16801871359348297,-3.121526002883911,-0.1164732426404953,36.7145655,3.1815101,21.8,-1.9,-0.11,1.08,76,181,2.1986277103424072,1.9128540754318237
51,-0.20378242433071136,2.674731731414795,-0.019669998437166214,36.7145291,3.181524,21.12,-3.48,1.68,-0.05,75,153,3.8693575859069824,3.869023323059082
52,-0.17163008451461792,2.6789705753326416,0.024803612381219864,36.7144668,3.1815622,21.23,-4.06,2.03,0.03,75,153,4.557117462158203,4.557116508483887
53,-0.010101579129695892,2.9970059394836426,0.16282589733600616,36.7144139,3.1815884,21.18,-3.55,0.51,0.05,75,171,3.5889892578125,3.588609218597412
54,-0.3992670774459839,-2.232937812805176,0.15560682117938995,36.7143714,3.1815671,21.16,-2.94,-3.37,0.02,74,232,4.479838848114014,4.479773998260498
55,-0.4851411283016205,-2.148271083831787,-0.02430862933397293,36.7143163,3.1814641,21.16,-4.23,-6.74,0.01,74,236,7.967912673950195,7.967905521392822
56,-0.47977927327156067,-2.1474289894104004,0.007251707371324301,36.7142534,3.1813399,21.17,-4.89,-7.67,0.0,73,236,9.101293563842773,9.101292610168457
57,-0.3102877736091614,-2.1527161598205566,-0.02197187952697277,36.7141762,3.181191,21.2,-4.64,-7.13,0.0,73,236,8.519953727722168,8.519952774047852
58,-0.2588161528110504,-2.145111322402954,0.029697831720113754,36.7141187,3.1810798,21.19,-3.77,-5.98,0.03,73,237,7.076946258544922,7.076846122741699
59,-0.26140785217285156,-2.112144947052002,-0.012916134670376778,36.7140636,3.1809669,21.17,-3.3,-5.65,0.01,72,238,6.554190158843994,6.554162979125977
60,-0.305176317691803,-2.100114583969116,0.027788609266281128,36.7140198,3.1808721,21.17,-3.22,-5.66,0.01,72,239,6.51806640625,6.51804780960083
61,-0.1516963690519333,-2.100041389465332,-0.0018290526932105422,36.7139766,3.1807777,21.17,-3.06,-5.36,0.0,71,239,6.18244743347168,6.18244743347168
62,0.15935571491718292,-2.1007437705993652,0.029998933896422386,36.7139376,3.1806932,21.14,-1.56,-2.73,0.03,71,239,3.1473569869995117,3.147143602371216
63,0.11298925429582596,-2.1004652976989746,-0.026650119572877884,36.7139269,3.1806693,21.15,-0.17,-0.32,-0.01,71,239,0.3658876419067383,0.36549681425094604
64,0.01828898675739765,-2.0992493629455566,0.07359562069177628,36.713928,3.1806707,21.12,0.23,0.03,0.03,70,239,0.24262061715126038,0.23966938257217407
