timestamp,pitch,yaw,roll,lat,lon,alt,velocity_x,velocity_y,velocity_z,battery,heading,airspeed,groundspeed
0,0.009246534667909145,0.04299873486161232,0.028064493089914322,36.7156066,3.1846299,21.65,-0.02,0.02,-0.05,96,2,0.0684194266796112,0.037130750715732574
1,-0.09939900785684586,0.0695033147931099,0.10797525197267532,36.7156083,3.1846332,21.6,0.39,0.66,-0.04,95,3,0.7777579426765442,0.7764788866043091
2,-0.18843476474285126,1.43555748462677,-0.11753667891025543,36.7156216,3.1846583,21.64,1.62,2.5,-0.04,95,82,2.9859704971313477,2.985661268234253
3,-0.17719538509845734,0.9190934896469116,0.033077750355005264,36.7156491,3.1847108,21.65,2.31,3.54,-0.02,95,52,4.229395389556885,4.229341506958008
4,-0.007194307167083025,0.9751096367835999,-0.015193325467407703,36.7156858,3.1847792,21.65,2.05,3.06,0.0,94,55,3.6891820430755615,3.6891744136810303
5,0.39262712001800537,1.0163921117782593,0.04012778028845787,36.7157009,3.1848061,21.67,-0.28,-0.42,-0.03,94,58,0.51096510887146,0.509880006313324
6,-0.062174614518880844,2.8308162689208984,0.20396095514297485,36.7156778,3.1847639,21.64,-2.19,-3.13,0.04,93,162,3.833087921142578,3.832859754562378
7,-0.1077573224902153,-1.9822839498519897,-0.021753014996647835,36.7156473,3.1847083,21.69,-2.22,-3.26,-0.02,93,246,3.950378179550171,3.9502949714660645
8,-0.004702557343989611,-1.7850046157836914,0.23287643492221832,36.7156267,3.1846542,21.65,-0.43,-3.0,0.02,93,257,3.0322728157043457,3.03212571144104
9,-0.4232701361179352,-0.6596240997314453,0.0747438371181488,36.7156536,3.1845979,21.64,3.91,-3.09,0.0,92,322,4.991666793823242,4.991663455963135
10,-0.4853522479534149,-0.6214616894721985,0.03901201859116554,36.7157262,3.1845337,21.64,6.62,-4.59,0.0,92,324,8.062751770019531,8.062747955322266
11,-0.5229253172874451,-0.6180918216705322,-0.021362679079174995,36.715843,3.1844328,21.66,7.86,-5.47,0.0,91,324,9.58496379852295,9.584962844848633
12,-0.4127466082572937,-0.6196560859680176,0.027835622429847717,36.7159499,3.1843394,21.68,7.65,-5.41,-0.02,91,324,9.380906105041504,9.380868911743164
13,-0.049221910536289215,-0.6239842772483826,-0.04979037493467331,36.7160567,3.1842452,21.7,5.39,-3.86,0.04,91,324,6.631842136383057,6.631696701049805
14,0.050719697028398514,-1.0831172466278076,-0.22957061231136322,36.7161059,3.1841909,21.8,1.5,-2.88,-0.21,90,297,3.2618274688720703,3.2546396255493164
15,-0.3774220049381256,-2.126735210418701,-0.12174668908119202,36.7160979,3.1841357,22.59,-2.51,-4.11,-0.82,90,238,4.891223430633545,4.820695877075195
16,-0.4651581645011902,-2.160719871520996,0.03367118909955025,36.7160364,3.1840267,24.66,-4.86,-6.94,-1.45,89,236,8.60009479522705,8.476567268371582
17,-0.41909387707710266,-2.164149284362793,-0.0041007986292243,36.7159642,3.1838975,27.04,-5.52,-8.02,-1.61,89,236,9.872138977050781,9.738863945007324
18,-0.48934194445610046,-2.162609815597534,0.016365475952625275,36.7158768,3.1837372,29.92,-5.54,-8.22,-1.57,88,236,10.041886329650879,9.91694450378418
19,-0.44113463163375854,-2.163526773452759,0.032124876976013184,36.7158017,3.1835982,32.38,-5.52,-8.23,-1.59,88,236,10.04215145111084,9.914600372314453
20,-0.4803820252418518,-2.164672613143921,-0.021760951727628708,36.7157143,3.1834356,35.27,-5.51,-8.27,-1.6,87,235,10.0713472366333,9.943049430847168
21,-0.4791507124900818,-2.165938377380371,0.025705909356474876,36.7156392,3.1832953,37.76,-5.53,-8.28,-1.61,87,235,10.09036922454834,9.960223197937012
22,-0.43750694394111633,-2.1632213592529297,0.025450151413679123,36.7155647,3.183156,40.25,-5.51,-8.28,-1.62,87,236,10.07861042022705,9.946441650390625
23,-0.4805770516395569,-2.1635751724243164,-0.022876759991049767,36.7154778,3.1829933,43.16,-5.51,-8.29,-1.62,86,236,10.091959953308105,9.959781646728516
24,-0.4869246780872345,-2.1665546894073486,0.03611720725893974,36.7154029,3.1828537,45.67,-5.5,-8.26,-1.62,86,235,10.062175750732422,9.929280281066895
25,-0.42817649245262146,-2.166996479034424,-0.014614655636250973,36.7153156,3.1826904,48.58,-5.54,-8.31,-1.64,85,235,10.125300407409668,9.991270065307617
26,-0.4737870395183563,-2.1649892330169678,-0.024076415225863457,36.7152406,3.1825502,51.09,-5.52,-8.3,-1.64,85,235,10.113561630249023,9.979515075683594
27,-0.48077791929244995,-2.1641814708709717,0.031767770648002625,36.7151662,3.1824106,53.6,-5.5,-8.31,-1.63,84,236,10.10385799407959,9.97053337097168
28,-0.4323863089084625,-2.1637685298919678,-0.01811782270669937,36.7150792,3.1822477,56.52,-5.51,-8.25,-1.62,84,236,10.061450958251953,9.928807258605957
29,-0.3011974096298218,-2.16912841796875,-0.0050522442907094955,36.7150073,3.1821144,58.92,-4.9,-7.24,-1.45,83,235,8.863804817199707,8.743266105651855
30,-0.03845404461026192,-2.161944627761841,-0.0006097872974351048,36.7149449,3.1819979,60.92,-3.0,-4.56,-0.7,83,236,5.514310359954834,5.469223976135254
31,-0.16721802949905396,-2.121155023574829,0.013699883595108986,36.7149111,3.181931,61.56,-2.2,-3.71,-0.17,83,238,4.3218560218811035,4.318206787109375
32,-0.14674143493175507,-2.1016736030578613,-0.02260037511587143,36.7148781,3.1818596,61.62,-2.06,-3.67,0.0,82,239,4.193511486053467,4.193508148193359
33,-0.03427489474415779,-2.102917432785034,0.016450252383947372,36.7148511,3.1818005,61.61,-1.75,-3.1,0.03,82,239,3.5707221031188965,3.570568799972534
34,0.041855353862047195,-2.2798960208892822,-0.0646653026342392,36.7148313,3.1817619,60.95,-1.24,-1.53,1.0,82,229,2.218798875808716,1.979539394378662
35,-0.027921533212065697,-2.4775173664093018,0.028231197968125343,36.7148136,3.1817419,58.43,-1.02,-0.79,1.45,81,218,1.9546891450881958,1.3020908832550049
36,-0.04539906978607178,-2.47244930267334,-0.020886318758130074,36.7147997,3.1817289,56.18,-1.04,-0.82,1.43,81,218,1.951331615447998,1.325269341468811
37,-0.007435966748744249,-2.46976900100708,0.009701037779450417,36.7147831,3.1817124,53.56,-1.05,-0.87,1.43,80,218,1.987365961074829,1.3694113492965698
38,-0.06163556128740311,-2.4700827598571777,-0.003363599069416523,36.7147686,3.1816978,51.33,-1.08,-0.88,1.44,80,218,2.0158817768096924,1.4026013612747192
39,-0.01612948440015316,-2.4694464206695557,0.020228110253810883,36.7147539,3.1816831,49.08,-1.07,-0.87,1.45,80,218,2.011082887649536,1.388623833656311
40,-0.054721612483263016,-2.4701077938079834,0.022227158769965172,36.7147369,3.1816661,46.46,-1.07,-0.87,1.45,79,218,2.0122711658477783,1.3853540420532227
41,-0.012058129534125328,-2.4698002338409424,-0.011667206883430481,36.7147224,3.1816515,44.22,-1.06,-0.88,1.46,79,218,2.0145139694213867,1.3857536315917969
42,-0.025191785767674446,-2.4701197147369385,0.025796223431825638,36.7147054,3.1816343,41.61,-1.06,-0.88,1.47,79,218,2.0274763107299805,1.3894016742706299
43,-0.036055080592632294,-2.469834804534912,-0.029685521498322487,36.7146907,3.1816195,39.35,-1.07,-0.88,1.47,78,218,2.027651071548462,1.391922950744629
44,-0.0385943166911602,-2.470069408416748,0.030510377138853073,36.7146761,3.1816049,37.1,-1.06,-0.87,1.47,78,218,2.0160884857177734,1.3765544891357422
45,-0.06048526242375374,-2.4694013595581055,-0.008488100953400135,36.7146593,3.1815878,34.49,-1.05,-0.88,1.47,78,218,2.0247669219970703,1.3824397325515747
46,-0.013276441022753716,-2.4700095653533936,0.014731192030012608,36.7146447,3.181573,32.24,-1.06,-0.87,1.48,77,218,2.0283122062683105,1.3818576335906982
47,-0.0532156340777874,-2.470475673675537,0.022637054324150085,36.7146275,3.1815557,29.61,-1.06,-0.88,1.47,77,218,2.0259528160095215,1.386509895324707
48,-0.006499304436147213,-2.469728708267212,-0.0039444295689463615,36.7146129,3.1815411,27.36,-1.06,-0.87,1.47,76,218,2.021226406097412,1.3776252269744873
49,-0.059571053832769394,-2.470350980758667,0.009958154521882534,36.7145984,3.1815265,25.11,-1.06,-0.86,1.48,76,218,2.0198678970336914,1.3718044757843018
50,-0.11381431668996811,-2.9890096187591553,-0.13428185880184174,36.7145786,3.1815117,22.55,-1.72,-0.33,1.23,76,188,2.145089626312256,1.7558764219284058
51,-0.22193825244903564,2.6682915687561035,-0.003507028566673398,36.7145448,3.1815218,21.63,-3.27,1.52,0.02,75,152,3.61169171333313,3.6116158962249756
52,-0.19139882922172546,2.672598123550415,-0.014195848256349564,36.7144848,3.181559,21.73,-4.02,2.04,0.0,75,153,4.518228054046631,4.518225193023682
53,-0.006888501811772585,2.9147586822509766,0.18369576334953308,36.7144319,3.1815878,21.68,-3.62,0.84,0.05,75,167,3.724968910217285,3.724512815475464
54,-0.40887418389320374,-2.21779465675354,0.13770432770252228,36.7143818,3.1815645,21.66,-2.99,-3.57,0.02,74,232,4.660967826843262,4.660916805267334
55,-0.45449572801589966,-2.1447954177856445,0.0038232365623116493,36.7143345,3.1814773,21.66,-4.13,-6.5,0.01,74,237,7.710648536682129,7.710640907287598
56,-0.46613559126853943,-2.151066541671753,-0.03858854994177818,36.714272,3.1813555,21.67,-4.92,-7.65,0.0,73,236,9.104145050048828,9.104144096374512
57,-0.3193797171115875,-2.1565356254577637,0.024066848680377007,36.7141938,3.1812056,21.69,-4.75,-7.28,-0.01,73,236,8.699068069458008,8.699060440063477
58,-0.23672440648078918,-2.1504523754119873,-0.013614951632916927,36.714135,3.181093,21.69,-3.9,-6.1,0.03,73,236,7.245382785797119,7.2453083992004395
59,-0.25859248638153076,-2.1155359745025635,0.03663549944758415,36.7140787,3.180979,21.66,-3.35,-5.65,0.01,72,238,6.5702290534973145,6.570214748382568
60,-0.27606576681137085,-2.1007065773010254,-0.02052481658756733,36.7140343,3.1808837,21.66,-3.23,-5.63,0.0,72,239,6.499287128448486,6.499282360076904
61,-0.22124969959259033,-2.100114583969116,0.02062228135764599,36.713991,3.1807891,21.66,-3.1,-5.47,0.0,71,239,6.296728134155273,6.296727180480957
62,0.11316816508769989,-2.1010565757751465,-0.02538396790623665,36.7139501,3.1807002,21.64,-1.78,-3.12,0.03,71,239,3.5931384563446045,3.5929336547851562
63,0.13528089225292206,-2.1004130840301514,0.024950508028268814,36.7139369,3.1806713,21.64,-0.29,-0.52,-0.02,71,239,0.6025994420051575,0.6021277904510498
64,-0.032980095595121384,-2.102391004562378,0.050251904875040054,36.7139371,3.1806714,21.63,0.18,0.1,0.03,70,239,0.2147769182920456,0.21125830709934235
