timestamp,pitch,yaw,roll,lat,lon,alt,velocity_x,velocity_y,velocity_z,battery,heading,airspeed,groundspeed
0,0.037480879575014114,-0.01480989158153534,-0.009126825258135796,36.7156066,3.1846299,20.94,-0.02,0.03,-0.01,96,359,0.041920460760593414,0.03941601142287254
1,-0.09361593425273895,-0.006327865645289421,0.10947994142770767,36.7156079,3.1846328,20.88,0.34,0.62,-0.03,95,359,0.713050127029419,0.7122418284416199
2,-0.17921462655067444,1.4914309978485107,-0.13548782467842102,36.7156202,3.1846574,20.91,1.59,2.47,-0.04,95,85,2.945188045501709,2.9447684288024902
3,-0.130496084690094,0.9263538122177124,0.005425761453807354,36.7156527,3.1847194,20.93,2.3,3.54,-0.02,95,53,4.230912685394287,4.230836391448975
4,0.0014289518585428596,0.9687771201133728,-0.01763915829360485,36.7156836,3.1847776,20.94,1.98,3.03,-0.01,94,55,3.6258647441864014,3.625845432281494
5,0.3666585087776184,1.195000171661377,0.0588294118642807,36.7156967,3.1848016,20.97,-0.83,-1.2,-0.01,94,62,0.6192207932472229,0.6182210445404053
6,-0.07392536103725433,2.904752492904663,0.191350057721138,36.7156738,3.1847605,20.95,-2.21,-3.15,0.05,93,166,3.861703634262085,3.8613104820251465
7,-0.08895468711853027,-1.9405158758163452,-0.023357169702649117,36.7156433,3.1847045,20.98,-2.2,-3.25,-0.02,93,248,3.9341626167297363,3.9340596199035645
8,-0.035593923181295395,-1.4898923635482788,0.24988572299480438,36.7156231,3.1846426,20.94,0.21,-2.85,0.02,93,274,2.8670616149902344,2.8669822216033936
9,-0.42107120156288147,-0.6540544033050537,0.05517285317182541,36.7156517,3.1845947,20.94,3.99,-3.12,0.0,92,322,5.072836875915527,5.072835445404053
10,-0.4817810356616974,-0.6252593398094177,0.026090938597917557,36.7157405,3.1845164,20.94,6.98,-4.83,-0.01,92,324,8.494729995727539,8.494719505310059
11,-0.4834156632423401,-0.616061270236969,-0.03170428052544594,36.715843,3.184428,20.96,7.87,-5.48,0.0,91,324,9.595067024230957,9.59506607055664
12,-0.4271000027656555,-0.62126624584198,0.017519215121865273,36.7159492,3.1843348,20.98,7.62,-5.41,-0.01,91,324,9.353096961975098,9.353084564208984
13,-0.02425648458302021,-0.6256726980209351,-0.044477153569459915,36.7160551,3.1842416,21.01,5.33,-3.81,0.04,91,324,6.558162212371826,6.5579962730407715
14,0.01304489653557539,-1.1079519987106323,-0.24629132449626923,36.7161033,3.1841874,21.11,1.39,-2.87,-0.22,90,296,3.2066566944122314,3.198680877685547
15,-0.4092024862766266,-2.129528045654297,-0.10199209302663803,36.7160873,3.1841193,22.15,-3.09,-4.57,-0.95,90,237,5.605304718017578,5.524098873138428
16,-0.5010371804237366,-2.1599721908569336,0.03172176703810692,36.7160312,3.1840214,24.03,-4.87,-7.02,-1.45,89,236,8.674351692199707,8.551616668701172
17,-0.42695096135139465,-2.1643543243408203,-0.015308895148336887,36.7159465,3.1838692,26.83,-5.53,-8.04,-1.6,89,236,9.866639137268066,9.733316421508789
18,-0.4803716242313385,-2.1653175354003906,-0.015788601711392403,36.7158712,3.1837311,29.3,-5.52,-8.2,-1.57,88,235,10.017828941345215,9.893340110778809
19,-0.48766806721687317,-2.1635942459106445,0.02538684941828251,36.7157963,3.1835919,31.76,-5.54,-8.26,-1.58,88,236,10.080720901489258,9.955389976501465
20,-0.42744630575180054,-2.1651864051818848,-0.013795039616525173,36.7157088,3.1834288,34.65,-5.53,-8.27,-1.6,87,235,10.082808494567871,9.95490550994873
21,-0.47650566697120667,-2.1651644706726074,-0.018422264605760574,36.7156339,3.1832894,37.13,-5.49,-8.23,-1.61,87,235,10.036654472351074,9.906068801879883
22,-0.45677679777145386,-2.163485288619995,0.027233920991420746,36.7155471,3.1831269,40.05,-5.5,-8.27,-1.62,87,236,10.068140029907227,9.936883926391602
23,-0.4254531264305115,-2.164658784866333,-0.006436107214540243,36.7154723,3.1829871,42.54,-5.54,-8.3,-1.62,86,235,10.114121437072754,9.982821464538574
24,-0.47416242957115173,-2.1645898818969727,-0.022752251476049423,36.7153974,3.1828471,45.04,-5.5,-8.29,-1.63,86,235,10.088424682617188,9.955848693847656
25,-0.4461793005466461,-2.1670966148376465,0.040789876133203506,36.7153101,3.182684,47.96,-5.5,-8.27,-1.63,85,235,10.078425407409668,9.944390296936035
26,-0.42505791783332825,-2.1642565727233887,-0.0024755389895290136,36.7152357,3.1825445,50.47,-5.51,-8.29,-1.63,85,236,10.0971040725708,9.963878631591797
27,-0.49061110615730286,-2.1656270027160645,0.009139575995504856,36.7151484,3.1823811,53.38,-5.52,-8.3,-1.63,84,235,10.117522239685059,9.984522819519043
28,-0.45110705494880676,-2.1638851165771484,0.03414449840784073,36.7150735,3.1822412,55.89,-5.51,-8.28,-1.64,84,236,10.085670471191406,9.951313972473145
29,-0.23780058324337006,-2.168816328048706,-0.004579256754368544,36.7150021,3.1821086,58.3,-4.84,-7.2,-1.43,83,235,8.797989845275879,8.67989444732666
30,-0.07574896514415741,-2.161442756652832,0.03366822749376297,36.7149406,3.1819936,60.25,-2.94,-4.49,-0.68,83,236,5.418551921844482,5.375565052032471
31,-0.11912962049245834,-2.1190907955169678,-0.001351114478893578,36.7149073,3.1819272,60.86,-2.2,-3.7,-0.17,83,238,4.313528537750244,4.310074329376221
32,-0.1565876007080078,-2.1014628410339355,0.03004462830722332,36.7148742,3.1818557,60.92,-2.08,-3.69,-0.01,82,239,4.244734764099121,4.244718551635742
33,0.000899834034498781,-2.103605270385742,-0.029706111177802086,36.7148471,3.1817968,60.91,-1.75,-3.06,0.04,82,239,3.530649185180664,3.5303964614868164
34,0.008147066459059715,-2.288965940475464,-0.029166946187615395,36.7148275,3.1817591,60.2,-1.21,-1.47,1.03,82,228,2.1770224571228027,1.9130184650421143
35,-0.04085315763950348,-2.4751436710357666,-0.027124013751745224,36.7148102,3.1817395,57.65,-1.02,-0.8,1.44,81,218,1.9503158330917358,1.306480884552002
36,-0.03210408240556717,-2.4715893268585205,0.02846982516348362,36.7147961,3.1817263,55.41,-1.05,-0.82,1.42,81,218,1.9519908428192139,1.3374229669570923
37,-0.0622544027864933,-2.4696362018585205,0.0001561898970976472,36.7147794,3.1817099,52.81,-1.06,-0.88,1.44,81,218,1.9984209537506104,1.3834151029586792
38,-0.01017557643353939,-2.4696402549743652,0.006523093208670616,36.7147649,3.1816953,50.56,-1.06,-0.87,1.44,80,218,2.0020904541015625,1.3833591938018799
39,-0.05187765508890152,-2.4691920280456543,-0.01770302839577198,36.7147503,3.1816807,48.32,-1.07,-0.88,1.44,80,218,2.0127696990966797,1.3963959217071533
40,-0.013031900860369205,-2.4696762561798096,-0.015355798415839672,36.7147334,3.1816636,45.7,-1.06,-0.88,1.46,79,218,2.0152552127838135,1.3878120183944702
41,-0.06233396753668785,-2.4692296981811523,0.00612420542165637,36.7147187,3.1816489,43.46,-1.07,-0.89,1.46,79,218,2.023043155670166,1.3948174715042114
42,-0.03451626002788544,-2.4698259830474854,-0.02385665476322174,36.7147017,3.1816318,40.83,-1.07,-0.88,1.46,79,218,2.0176916122436523,1.3889741897583008
43,-0.045956067740917206,-2.469696283340454,0.031413204967975616,36.7146872,3.1816172,38.59,-1.05,-0.89,1.47,78,218,2.02235746383667,1.3863844871520996
44,-0.05164392292499542,-2.469033718109131,-0.0178537517786026,36.7146702,3.1815999,35.97,-1.07,-0.89,1.47,78,218,2.032060384750366,1.3968188762664795
45,-0.02260391227900982,-2.469222068786621,0.02214350365102291,36.7146556,3.1815851,33.71,-1.07,-0.87,1.47,78,218,2.0253875255584717,1.3918344974517822
46,-0.04464516043663025,-2.46982479095459,-0.022528445348143578,36.7146409,3.1815705,31.47,-1.06,-0.88,1.47,77,218,2.021373987197876,1.3828761577606201
47,-0.008910524658858776,-2.469411611557007,0.0016879824688658118,36.714624,3.1815533,28.85,-1.06,-0.87,1.48,77,218,2.025775194168091,1.3814316987991333
48,-0.06119028478860855,-2.469226121902466,-0.01393530610948801,36.7146094,3.1815386,26.59,-1.06,-0.88,1.47,77,218,2.025111436843872,1.3850362300872803
49,-0.016122136265039444,-2.469578742980957,-0.020002562552690506,36.7145924,3.1815213,23.97,-1.06,-0.88,1.47,76,218,2.0202789306640625,1.3830904960632324
50,-0.14144185185432434,-3.011094808578491,-0.087247334420681,36.7145746,3.1815093,21.8,-1.76,-0.29,1.2,76,187,2.160644769668579,1.7916052341461182
51,-0.24243749678134918,2.6752688884735107,-0.04109539836645126,36.7145326,3.1815245,20.94,-3.53,1.72,-0.05,75,153,3.675226926803589,3.675222158432007
52,-0.17387093603610992,2.6793017387390137,0.029136497527360916,36.7144794,3.1815571,21.03,-4.07,2.04,0.01,75,153,4.561941146850586,4.5619282722473145
53,-0.01841399073600769,2.9169206619262695,0.13402239978313446,36.7144258,3.1815857,20.98,-3.66,0.83,0.05,75,167,3.7559356689453125,3.755563735961914
54,-0.35824745893478394,-2.208091974258423,0.14082461595535278,36.7143754,3.1815621,20.96,-2.97,-3.58,0.01,74,233,4.65509033203125,4.655056953430176
55,-0.48372524976730347,-2.1440680027008057,-0.023207809776067734,36.7143287,3.1814752,20.96,-4.11,-6.54,0.01,74,237,7.7313103675842285,7.7313008308410645
56,-0.4501405954360962,-2.150428533554077,0.032047830522060394,36.7142558,3.1813316,20.97,-4.91,-7.72,0.0,73,236,9.153644561767578,9.153643608093262
57,-0.3117837905883789,-2.1528844833374023,-0.013977298513054848,36.7141893,3.1812028,20.99,-4.71,-7.25,0.0,73,236,8.651841163635254,8.651837348937988
58,-0.25730398297309875,-2.1461586952209473,0.004927423782646656,36.7141309,3.1810898,20.99,-3.86,-6.09,0.03,73,237,7.222555637359619,7.2224812507629395
59,-0.2473987489938736,-2.1135430335998535,-0.0003042591270059347,36.7140751,3.180976,20.97,-3.34,-5.66,0.01,72,238,6.58267879486084,6.582657814025879
60,-0.3080965280532837,-2.1004953384399414,-0.00130983826238662,36.7140308,3.1808809,20.97,-3.22,-5.64,0.01,72,239,6.506692409515381,6.506679534912109
61,-0.14029233157634735,-2.0999491214752197,-0.002329797251150012,36.7139804,3.1807712,20.97,-3.01,-5.28,0.0,71,239,6.080565929412842,6.08056640625
62,0.10246613621711731,-2.1009271144866943,0.003628747072070837,36.7139466,3.1806976,20.95,-1.76,-3.09,0.03,71,239,3.5588412284851074,3.5586187839508057
63,0.14917941391468048,-2.1005311012268066,0.0020652655512094498,36.7139337,3.180669,20.95,-0.28,-0.5,-0.01,71,239,0.574970006942749,0.5746254324913025
64,-0.017461109906435013,-2.101745128631592,0.07288756221532822,36.713934,3.1806692,20.93,0.17,0.09,0.04,70,239,0.2038058340549469,0.19977205991744995
