timestamp,pitch,yaw,roll,lat,lon,alt,velocity_x,velocity_y,velocity_z,battery,heading,airspeed,groundspeed
0,0.010355876758694649,0.03549230471253395,-0.02039351314306259,36.7156066,3.18463,20.59,-0.02,0.02,0.0,96,2,0.036842480301856995,0.03556131571531296
1,-0.056656014174222946,0.028918787837028503,0.11238888651132584,36.7156076,3.1846318,20.56,0.26,0.48,-0.02,95,1,0.5475282073020935,0.5470297336578369
2,-0.2297513633966446,1.4665886163711548,-0.07507650554180145,36.7156211,3.184658,20.56,1.5,2.41,-0.02,95,84,2.8466367721557617,2.8465330600738525
3,-0.13672201335430145,0.9087837338447571,-0.0210634283721447,36.7156464,3.1847079,20.58,2.06,3.29,-0.02,95,52,3.892530679702759,3.8924484252929688
4,0.10987939685583115,0.9876601696014404,0.029046380892395973,36.7156785,3.18477,20.58,1.65,2.53,0.0,94,56,3.025554895401001,3.0255489349365234
5,0.3043588101863861,1.2431437969207764,0.07597842812538147,36.7156862,3.1847843,20.57,-0.84,-1.23,0.0,94,71,1.4904985427856445,1.490497350692749
6,-0.04000609740614891,2.9451096057891846,0.18861337006092072,36.7156636,3.1847431,20.61,-2.21,-3.14,-0.02,93,168,3.846275568008423,3.8461973667144775
7,-0.11352451145648956,-1.9264390468597412,0.06448005139827728,36.7156285,3.184678,20.59,-2.05,-3.23,0.0,93,249,3.835597515106201,3.8355956077575684
8,-0.06187424436211586,-1.4580308198928833,0.217599555850029,36.7156137,3.184625,20.58,0.28,-2.86,0.0,93,276,2.8780906200408936,2.8780856132507324
9,-0.4048517048358917,-0.6444976925849915,0.07614677399396896,36.7156533,3.1845673,20.58,4.61,-3.37,0.0,92,323,5.7137274742126465,5.713726043701172
10,-0.5179117918014526,-0.6276912093162537,-0.015587945468723774,36.7157331,3.1844974,20.58,6.99,-4.85,0.0,92,324,8.509182929992676,8.50917911529541
11,-0.48390600085258484,-0.6191343665122986,0.026968302205204964,36.7158529,3.1843934,20.6,7.85,-5.53,0.0,91,324,9.607390403747559,9.607389450073242
12,-0.3318602442741394,-0.6229175925254822,-0.023235907778143883,36.7159581,3.1843004,20.63,7.39,-5.27,-0.02,91,324,9.078863143920898,9.078816413879395
13,-0.06192287430167198,-0.6287225484848022,-0.027548303827643394,36.7160456,3.1842225,20.64,5.16,-3.76,0.04,91,323,6.3924880027771,6.392339706420898
14,-0.0866004154086113,-1.4021190404891968,-0.31846967339515686,36.7160932,3.1841609,20.84,0.44,-2.93,-0.34,90,279,2.9911999702453613,2.9716036319732666
15,-0.4118407070636749,-2.1369802951812744,-0.024941736832261086,36.7160726,3.1841,21.85,-3.17,-4.62,-0.97,90,237,5.691812992095947,5.607879161834717
16,-0.4918248951435089,-2.1628353595733643,-0.029690256342291832,36.7160043,3.1839797,24.13,-5.08,-7.33,-1.51,89,236,9.058810234069824,8.930672645568848
17,-0.4779615104198456,-2.164564371109009,0.01483860332518816,36.7159307,3.1838472,26.57,-5.51,-8.05,-1.6,89,235,9.897130012512207,9.766870498657227
18,-0.4434170424938202,-2.162844181060791,0.025013580918312073,36.7158561,3.1837098,29.03,-5.55,-8.24,-1.58,88,236,10.06424331665039,9.93932056427002
19,-0.4788389205932617,-2.1632823944091797,-0.027034398168325424,36.715768,3.1835466,31.9,-5.55,-8.25,-1.59,88,236,10.077874183654785,9.950491905212402
20,-0.48104342818260193,-2.164724826812744,0.02875254675745964,36.7156929,3.1834067,34.38,-5.49,-8.23,-1.61,88,235,10.035357475280762,9.90493106842041
21,-0.4295409619808197,-2.163282632827759,-0.017114490270614624,36.715606,3.1832443,37.28,-5.5,-8.26,-1.61,87,236,10.064865112304688,9.93384838104248
22,-0.4804700016975403,-2.1636688709259033,-0.024364100769162178,36.7155313,3.1831049,39.78,-5.52,-8.28,-1.62,87,236,10.087386131286621,9.956202507019043
23,-0.43353065848350525,-2.164792060852051,0.032201964408159256,36.7154439,3.1829418,42.69,-5.52,-8.3,-1.63,86,235,10.095741271972656,9.963604927062988
24,-0.4409793019294739,-2.162705183029175,-0.025676002725958824,36.7153693,3.1828018,45.2,-5.48,-8.25,-1.62,86,236,10.043272972106934,9.910558700561523
25,-0.49274352192878723,-2.1653330326080322,-0.007129121571779251,36.7152948,3.1826626,47.69,-5.54,-8.28,-1.63,85,235,10.10175895690918,9.96837043762207
26,-0.43551379442214966,-2.164659261703491,0.03224155306816101,36.7152071,3.182499,50.62,-5.54,-8.31,-1.64,85,235,10.12713623046875,9.99330997467041
27,-0.4487954378128052,-2.164599895477295,-0.02665259875357151,36.7151328,3.1823594,53.13,-5.51,-8.32,-1.62,84,235,10.117476463317871,9.985477447509766
28,-0.4432699978351593,-2.1641173362731934,0.028964819386601448,36.7150457,3.1821965,56.04,-5.46,-8.16,-1.62,84,236,9.963746070861816,9.830068588256836
29,-0.1734100580215454,-2.1682345867156982,0.003519843565300107,36.7149761,3.1820678,58.37,-4.54,-6.75,-1.36,83,235,8.255619049072266,8.142338752746582
30,-0.07738474011421204,-2.158578872680664,-0.005347594153136015,36.7149263,3.1819744,59.93,-2.88,-4.44,-0.65,83,236,5.343447208404541,5.302981853485107
31,-0.11705390363931656,-2.099635601043701,-0.0013496597530320287,36.7148891,3.1818983,60.54,-2.1,-3.7,-0.1,83,239,4.2641072273254395,4.26271390914917
32,-0.1788657009601593,-2.085482120513916,0.01096311118453741,36.7148619,3.1818367,60.56,-1.99,-3.68,0.0,82,240,4.193181037902832,4.193171977996826
33,0.01436519529670477,-2.0953474044799805,-0.04286395385861397,36.7148324,3.1817702,60.51,-1.55,-2.75,0.16,82,239,3.1668906211853027,3.162755012512207
34,0.01477417629212141,-2.3676748275756836,-0.018222136422991753,36.7148145,3.1817377,59.45,-1.19,-1.26,1.28,82,224,2.164095401763916,1.741863489151001
35,-0.023320648819208145,-2.4789228439331055,-0.02500768192112446,36.7147995,3.1817222,57.19,-1.05,-0.8,1.44,81,217,1.9635570049285889,1.3255409002304077
36,-0.015440613031387329,-2.4752442836761475,0.013560415245592594,36.714783,3.1817068,54.57,-1.06,-0.83,1.43,81,218,1.9727274179458618,1.3574248552322388
37,-0.05931716039776802,-2.4759182929992676,-0.01380939967930317,36.7147684,3.1816926,52.33,-1.07,-0.87,1.43,81,218,1.995261311531067,1.3873049020767212
38,-0.014155457727611065,-2.4765515327453613,-0.016695328056812286,36.7147513,3.1816756,49.72,-1.08,-0.88,1.45,80,218,2.017792224884033,1.4018713235855103
39,-0.05972299352288246,-2.4758763313293457,0.008172568865120411,36.7147365,3.181661,47.47,-1.07,-0.88,1.45,80,218,2.0148026943206787,1.3937921524047852
40,-0.044675081968307495,-2.4758636951446533,-0.023867256939411163,36.7147193,3.181644,44.85,-1.08,-0.89,1.45,79,218,2.0251893997192383,1.405522108078003
41,-0.031820181757211685,-2.4756531715393066,0.02292146533727646,36.7147046,3.1816292,42.61,-1.07,-0.87,1.46,79,218,2.019214391708374,1.3871098756790161
42,-0.03318057581782341,-2.476027488708496,-0.025796329602599144,36.7146897,3.1816145,40.37,-1.08,-0.89,1.47,79,218,2.0407609939575195,1.4069188833236694
43,-0.010194054804742336,-2.475485324859619,0.006093934178352356,36.7146726,3.1815974,37.74,-1.08,-0.88,1.47,78,218,2.029512405395508,1.3949402570724487
44,-0.06102108210325241,-2.4758353233337402,-0.007146225776523352,36.7146578,3.1815827,35.5,-1.07,-0.88,1.47,78,218,2.033374071121216,1.397492527961731
45,-0.021880706772208214,-2.476168394088745,-0.019775062799453735,36.7146406,3.1815656,32.87,-1.08,-0.88,1.48,78,218,2.0370607376098633,1.3981133699417114
46,-0.054144494235515594,-2.4762039184570312,0.021908704191446304,36.7146258,3.1815508,30.62,-1.07,-0.88,1.47,77,218,2.0309603214263916,1.391675353050232
47,-0.008057321421802044,-2.475850820541382,-0.010291947983205318,36.714611,3.1815361,28.37,-1.08,-0.88,1.47,77,218,2.031477689743042,1.3958393335342407
48,-0.029208462685346603,-2.475520610809326,0.02363642491400242,36.7145938,3.1815189,25.75,-1.07,-0.88,1.47,76,218,2.0289549827575684,1.3893702030181885
49,-0.042386412620544434,-2.4760990142822266,-0.02597189135849476,36.7145791,3.1815043,23.49,-1.08,-0.88,1.47,76,218,2.035541296005249,1.4014801979064941
50,-0.13190852105617523,3.0485548973083496,-0.10743017494678497,36.7145564,3.1814925,21.07,-2.04,0.08,0.94,76,174,2.258413314819336,2.0511276721954346
51,-0.24893270432949066,2.6692662239074707,-0.006930213421583176,36.7145176,3.1815101,20.58,-3.57,1.77,-0.05,75,152,3.9904861450195312,3.9900641441345215
52,-0.12353099137544632,2.673534393310547,-0.008812051266431808,36.7144554,3.1815489,20.67,-3.99,2.02,0.04,75,153,4.476714611053467,4.476454257965088
53,-0.050298143178224564,3.1075186729431152,0.2488386482000351,36.7144043,3.1815713,20.61,-3.4,0.1,0.04,75,178,3.4034101963043213,3.403095245361328
54,-0.3704935312271118,-2.1913185119628906,0.08696132898330688,36.7143629,3.1815409,20.6,-3.02,-3.84,0.01,74,234,4.888340473175049,4.888302803039551
55,-0.4920758008956909,-2.1552839279174805,0.04119092971086502,36.7143049,3.1814306,20.6,-4.36,-6.95,0.0,74,236,8.211676597595215,8.211674690246582
56,-0.41441068053245544,-2.149662733078003,-0.00041720335138961673,36.714241,3.1813048,20.61,-4.93,-7.73,0.0,73,236,9.17467212677002,9.174668312072754
57,-0.3362920582294464,-2.153378963470459,0.01952027715742588,36.7141646,3.181157,20.63,-4.54,-7.0,0.0,73,236,8.351359367370605,8.351358413696289
58,-0.22039338946342468,-2.1428332328796387,0.013894954696297646,36.7141087,3.1810486,20.62,-3.7,-5.86,0.03,73,237,6.942104339599609,6.942036151885986
59,-0.29296186566352844,-2.119873523712158,-0.004381074104458094,36.7140611,3.1809517,20.6,-3.35,-5.64,0.01,72,238,6.5665764808654785,6.56656551361084
60,-0.2537595331668854,-2.1082003116607666,0.000925665081012994,36.714009,3.1808411,20.6,-3.28,-5.65,0.0,72,239,6.540486812591553,6.540482997894287
61,-0.1676906794309616,-2.1085543632507324,-0.010136498138308525,36.7139653,3.1807477,20.61,-3.01,-5.18,0.0,71,239,5.991917610168457,5.991917133331299
62,0.1761280596256256,-2.1098759174346924,-0.026069028303027153,36.7139289,3.1806701,20.57,-1.34,-2.3,0.02,71,239,2.6671879291534424,2.6671054363250732
63,0.07440976798534393,-2.109151840209961,0.021687006577849388,36.7139202,3.1806514,20.59,-0.08,-0.17,-0.01,71,239,0.19824784994125366,0.19762590527534485
64,-0.026151692494750023,-2.1111934185028076,0.06347865611314774,36.7139219,3.1806531,20.55,0.34,-0.04,0.02,70,239,0.35279548168182373,0.3519551455974579
