timestamp,pitch,yaw,roll,lat,lon,alt,velocity_x,velocity_y,velocity_z,battery,heading,airspeed,groundspeed
0,-0.0018614005530253053,-0.029317496344447136,-0.022155461832880974,36.7156066,3.1846299,20.53,-0.02,0.02,0.01,96,358,0.037100691348314285,0.03549885377287865
1,-0.045164693146944046,-0.03383054584264755,0.11845523118972778,36.7156076,3.1846318,20.49,0.27,0.47,0.0,95,358,0.5525676012039185,0.5524827241897583
2,-0.22546996176242828,1.466062068939209,-0.08274328708648682,36.7156224,3.1846591,20.46,1.72,2.52,-0.02,95,83,3.0569777488708496,3.056863307952881
3,-0.18087171018123627,0.8523638248443604,-0.020298590883612633,36.7156512,3.1847114,20.5,2.4,3.51,-0.03,95,48,4.254773139953613,4.254644393920898
4,0.06063469499349594,0.9485998153686523,0.013110497035086155,36.7156889,3.1847789,20.52,2.08,2.98,-0.01,94,54,3.6405131816864014,3.640482187271118
5,0.3334479331970215,0.8782494068145752,-0.030624382197856903,36.7157037,3.1848037,20.51,-0.33,-0.53,0.01,94,50,0.6310926675796509,0.6309757232666016
6,-0.06459394842386246,-0.9548175930976868,-0.18804186582565308,36.7156798,3.1847599,20.55,-2.2,-3.18,-0.02,93,305,3.880640983581543,3.8805789947509766
7,-0.0955718457698822,-2.3972556591033936,0.08346732705831528,36.7156496,3.184705,20.55,-2.2,-3.29,0.01,93,222,3.9622180461883545,3.9621798992156982
8,-0.05280930548906326,-1.654255747795105,0.1781921535730362,36.7156299,3.1846509,20.53,-0.35,-2.98,0.01,93,265,3.0033440589904785,3.003312826156616
9,-0.3749504089355469,-0.6506535410881042,0.061408817768096924,36.715659,3.1845941,20.52,4.01,-3.12,0.0,92,322,5.086333751678467,5.08633279800415
10,-0.5404176115989685,-0.6228035688400269,0.011828592047095299,36.7157326,3.1845291,20.52,6.7,-4.63,0.0,92,324,8.151459693908691,8.151458740234375
11,-0.45910972356796265,-0.6172198057174683,0.001017391332425177,36.7158503,3.1844275,20.54,7.89,-5.5,0.0,91,324,9.618959426879883,9.618958473205566
12,-0.41346755623817444,-0.6199590563774109,-0.021946165710687637,36.7159566,3.1843343,20.56,7.62,-5.39,-0.01,91,324,9.343497276306152,9.34348201751709
13,-0.1110716164112091,-0.6220155358314514,0.020484378561377525,36.7160496,3.1842523,20.59,5.77,-4.1,0.03,91,324,7.082549095153809,7.082481861114502
14,0.0033530057407915592,-1.1170504093170166,-0.2722868025302887,36.7161096,3.184187,20.69,1.36,-2.88,-0.23,90,296,3.1997287273406982,3.1910130977630615
15,-0.344582200050354,-2.1296818256378174,-0.06881599128246307,36.7160997,3.1841308,21.52,-2.64,-4.17,-0.85,90,237,5.013676166534424,4.940332889556885
16,-0.5150103569030762,-2.158047676086426,-0.00042108638444915414,36.7160373,3.1840205,23.63,-4.91,-7.0,-1.45,89,236,8.675888061523438,8.553823471069336
17,-0.46168869733810425,-2.1647748947143555,0.048372507095336914,36.7159648,3.1838912,26.03,-5.54,-8.04,-1.61,89,235,9.903240203857422,9.771421432495117
18,-0.4622630476951599,-2.163788080215454,-0.024787835776805878,36.715877,3.1837302,28.89,-5.52,-8.2,-1.58,88,236,10.017370223999023,9.891936302185059
19,-0.49051806330680847,-2.164130210876465,0.015647489577531815,36.7158019,3.1835909,31.35,-5.54,-8.24,-1.59,88,236,10.062966346740723,9.9358549118042
20,-0.4405328035354614,-2.163571834564209,0.031928300857543945,36.7157272,3.1834515,33.83,-5.54,-8.29,-1.6,88,236,10.100969314575195,9.97225284576416
21,-0.47433531284332275,-2.163160800933838,-0.025953810662031174,36.7156398,3.1832884,36.73,-5.5,-8.24,-1.61,87,236,10.040539741516113,9.909293174743652
22,-0.4823215901851654,-2.165151834487915,0.02347728982567787,36.715565,3.183149,39.23,-5.5,-8.26,-1.62,87,235,10.060097694396973,9.928035736083984
23,-0.43566882610321045,-2.1645140647888184,-0.015473629347980022,36.715478,3.1829864,42.15,-5.51,-8.3,-1.62,86,235,10.099833488464355,9.96828842163086
24,-0.48690247535705566,-2.1617071628570557,-0.023073304444551468,36.7154035,3.1828464,44.64,-5.52,-8.3,-1.63,86,236,10.102202415466309,9.96963119506836
25,-0.4342905282974243,-2.1678576469421387,0.03752438724040985,36.7153159,3.1826832,47.56,-5.54,-8.27,-1.64,85,235,10.093708038330078,9.95895004272461
26,-0.43656614422798157,-2.164796829223633,-0.010502493940293789,36.7152412,3.1825436,50.07,-5.52,-8.31,-1.63,85,235,10.115047454833984,9.982561111450195
27,-0.48906323313713074,-2.163499355316162,-0.007210705429315567,36.7151667,3.1824035,52.58,-5.51,-8.3,-1.62,84,236,10.100197792053223,9.968565940856934
28,-0.4200531840324402,-2.1648664474487305,0.0193749088793993,36.7150793,3.1822405,55.49,-5.53,-8.26,-1.64,84,235,10.085175514221191,9.950260162353516
29,-0.25885799527168274,-2.168253183364868,-0.02274388261139393,36.7150079,3.1821079,57.89,-4.82,-7.18,-1.43,83,235,8.776016235351562,8.65720272064209
30,-0.04921932891011238,-2.1609344482421875,0.03258543089032173,36.7149467,3.1819934,59.84,-2.95,-4.49,-0.67,83,236,5.4175920486450195,5.37492036819458
31,-0.15207701921463013,-2.119199514389038,-0.01131161767989397,36.7149133,3.1819269,60.44,-2.2,-3.7,-0.17,83,238,4.31538724899292,4.311946392059326
32,-0.15488000214099884,-2.1020891666412354,0.03276245668530464,36.7148849,3.1818655,60.5,-2.07,-3.66,0.0,82,239,4.208375453948975,4.208367824554443
33,-0.03758150339126587,-2.1031835079193115,-0.010186886414885521,36.7148534,3.181797,60.49,-1.73,-3.06,0.04,82,239,3.5231120586395264,3.522772789001465
34,0.041201889514923096,-2.294389009475708,-0.035216204822063446,36.7148339,3.1817594,59.77,-1.23,-1.49,1.05,82,228,2.204124927520752,1.93595552444458
35,-0.05084565281867981,-2.474799871444702,0.016856862232089043,36.7148164,3.1817397,57.22,-1.02,-0.8,1.45,81,218,1.950862169265747,1.303552269935608
36,-0.018117882311344147,-2.4717233180999756,-0.015198598615825176,36.7148024,3.1817265,54.98,-1.04,-0.82,1.43,81,218,1.9533145427703857,1.3300532102584839
37,-0.021998077630996704,-2.469543218612671,0.021725600585341454,36.7147857,3.1817101,52.37,-1.06,-0.86,1.44,80,218,1.9933923482894897,1.3714628219604492
38,-0.0466250516474247,-2.469683885574341,-0.022295400500297546,36.7147711,3.1816956,50.12,-1.07,-0.88,1.45,80,218,2.0150840282440186,1.3951349258422852
39,-0.03374150022864342,-2.4692788124084473,0.02998931147158146,36.7147566,3.181681,47.88,-1.06,-0.88,1.45,80,218,2.0067572593688965,1.3817509412765503
40,-0.06286729872226715,-2.469569444656372,0.006807965226471424,36.7147396,3.1816639,45.26,-1.06,-0.88,1.46,79,218,2.0164332389831543,1.3879472017288208
41,-0.008731248788535595,-2.4692766666412354,0.00858609564602375,36.714725,3.1816491,43.02,-1.06,-0.88,1.47,79,218,2.0245485305786133,1.3858330249786377
42,-0.042342957109212875,-2.469916820526123,0.029980450868606567,36.714708,3.181632,40.4,-1.06,-0.88,1.47,79,218,2.0243539810180664,1.388703465461731
43,-0.022899756208062172,-2.4696292877197266,-0.023398103192448616,36.7146934,3.1816173,38.15,-1.07,-0.88,1.47,78,218,2.0265486240386963,1.3902816772460938
44,-0.051098696887493134,-2.469756841659546,0.025879867374897003,36.7146788,3.1816026,35.91,-1.06,-0.88,1.48,78,218,2.0257105827331543,1.380975604057312
45,-0.053541067987680435,-2.469224214553833,-0.015908921137452126,36.7146618,3.1815854,33.28,-1.06,-0.89,1.48,78,218,2.033383846282959,1.3918681144714355
46,-0.020065912976861,-2.4695794582366943,0.024912873283028603,36.7146473,3.1815707,31.02,-1.06,-0.87,1.47,77,218,2.0196380615234375,1.3784266710281372
47,-0.05777442455291748,-2.4696457386016846,0.013567888177931309,36.7146302,3.1815535,28.41,-1.05,-0.88,1.48,77,218,2.0242388248443604,1.3786957263946533
48,-0.008782219141721725,-2.4692487716674805,-0.003153412137180567,36.7146156,3.1815388,26.16,-1.06,-0.87,1.47,76,218,2.020416259765625,1.375667929649353
49,-0.060464922338724136,-2.4697213172912598,0.005514909978955984,36.714601,3.1815241,23.9,-1.05,-0.89,1.47,76,218,2.0191783905029297,1.378176212310791
50,-0.11454842239618301,-3.0292041301727295,-0.13037703931331635,36.7145808,3.1815098,21.36,-1.77,-0.27,1.19,76,186,2.162916660308838,1.8004549741744995
51,-0.23133723437786102,2.6669015884399414,0.005215252749621868,36.7145463,3.1815211,20.51,-3.32,1.57,0.0,75,152,3.673344612121582,3.6733388900756836
52,-0.1968974769115448,2.672020673751831,-0.015505865216255188,36.714486,3.1815586,20.61,-4.01,2.05,0.01,75,153,4.509339809417725,4.509318828582764
53,-0.0063755870796740055,2.9407434463500977,0.19278043508529663,36.7144333,3.1815864,20.56,-3.58,0.74,0.05,75,168,3.6673600673675537,3.6669669151306152
54,-0.4082230031490326,-2.204263210296631,0.1355466991662979,36.7143836,3.1815599,20.54,-2.98,-3.71,0.01,74,233,4.767083168029785,4.767048358917236
55,-0.4573749005794525,-2.1435041427612305,0.006891024298965931,36.7143362,3.1814712,20.54,-4.16,-6.6,0.01,74,237,7.805601596832275,7.8055949211120605
56,-0.48086750507354736,-2.147615909576416,-0.03443615883588791,36.7142739,3.1813488,20.55,-4.9,-7.69,0.0,73,236,9.12643814086914,9.12643814086914
57,-0.31764519214630127,-2.1507349014282227,0.018951261416077614,36.7141965,3.1811985,20.57,-4.67,-7.23,-0.01,73,236,8.610872268676758,8.610865592956543
58,-0.24056245386600494,-2.1471266746520996,-0.015482037328183651,36.7141384,3.1810861,20.57,-3.86,-6.05,0.03,73,236,7.181168079376221,7.1811041831970215
59,-0.25350838899612427,-2.119473457336426,0.02920708805322647,36.7140823,3.1809728,20.54,-3.39,-5.67,0.0,72,238,6.612965106964111,6.612958908081055
60,-0.2910153865814209,-2.1086361408233643,-0.02264099195599556,36.7140373,3.1808774,20.54,-3.28,-5.63,0.0,72,239,6.517030239105225,6.517024517059326
61,-0.13225823640823364,-2.108079433441162,0.021936284378170967,36.7139861,3.1807678,20.55,-3.03,-5.21,0.0,71,239,6.029317855834961,6.029317378997803
62,0.1105903759598732,-2.1091227531433105,-0.012124285101890564,36.7139524,3.1806962,20.52,-1.73,-2.96,0.03,71,239,3.433899402618408,3.433716297149658
63,0.13970817625522614,-2.1088175773620605,0.01831679604947567,36.7139399,3.1806693,20.53,-0.25,-0.46,-0.02,71,239,0.5311247110366821,0.5306524634361267
64,-0.027099283412098885,-2.111192226409912,0.07344228029251099,36.7139403,3.1806695,20.51,0.2,0.07,0.04,70,239,0.22525231540203094,0.2215263843536377
