timestamp,pitch,yaw,roll,lat,lon,alt,velocity_x,velocity_y,velocity_z,battery,heading,airspeed,groundspeed
0,0.008007890544831753,-0.051843397319316864,-0.023601895198225975,36.7156067,3.1846299,21.96,-0.03,0.02,-0.07,96,357,0.0826423317193985,0.04054614529013634
1,-0.05684328079223633,-0.05373808369040489,0.14043086767196655,36.7156077,3.184632,21.93,0.3,0.55,-0.02,95,356,0.6311327815055847,0.6304901838302612
2,-0.22570307552814484,1.5172492265701294,-0.08952001482248306,36.7156238,3.1846627,21.97,1.79,2.75,-0.03,95,86,3.284592628479004,3.284364700317383
3,-0.1629009246826172,0.8744871020317078,-0.020653657615184784,36.7156528,3.1847179,21.97,2.37,3.62,-0.02,95,50,4.328479290008545,4.328427791595459
4,0.10277605056762695,0.9690710306167603,0.014707702212035656,36.7156893,3.1847858,21.97,1.88,2.8,0.0,94,55,3.3790159225463867,3.3790106773376465
5,0.33031362295150757,1.0554897785186768,0.020022734999656677,36.7157,3.1848046,21.99,-0.68,-1.01,-0.02,94,60,1.2287529706954956,1.228568196296692
6,-0.016889233142137527,2.808558464050293,0.18669821321964264,36.7156784,3.1847653,21.97,-2.18,-3.12,0.05,93,160,3.8127243518829346,3.812380790710449
7,-0.10718546062707901,-1.908754825592041,0.04759693518280983,36.7156432,3.1847004,22.01,-2.12,-3.25,0.0,93,250,3.8896055221557617,3.8896005153656006
8,-0.04955412447452545,-1.5855883359909058,0.19403697550296783,36.7156263,3.1846472,21.96,0.02,-2.89,0.01,93,269,2.89357852935791,2.8935184478759766
9,-0.3898811638355255,-0.6477637887001038,0.06455070525407791,36.7156615,3.1845904,21.96,4.37,-3.25,0.0,92,322,5.453308582305908,5.453304767608643
10,-0.5353196263313293,-0.6250478029251099,-0.0077749211341142654,36.7157392,3.1845227,21.96,6.89,-4.77,0.0,92,324,8.387145042419434,8.3871431350708
11,-0.46325159072875977,-0.6176034808158875,0.016205664724111557,36.7158586,3.1844195,21.98,7.88,-5.52,0.0,91,324,9.630227088928223,9.63022232055664
12,-0.373930960893631,-0.6195803284645081,-0.029295383021235466,36.7159644,3.1843266,22.0,7.5,-5.31,-0.02,91,324,9.192024230957031,9.191997528076172
13,-0.010000328533351421,-0.6315947771072388,-0.01923939399421215,36.7160667,3.1842362,22.02,4.94,-3.62,0.04,91,323,6.127974987030029,6.1278228759765625
14,-0.04155692085623741,-1.2630623579025269,-0.30938777327537537,36.7161084,3.1841837,22.18,0.85,-2.88,-0.28,90,287,3.024235963821411,3.010356903076172
15,-0.3814946711063385,-2.131511688232422,-0.04262249171733856,36.7160924,3.1841253,23.1,-2.95,-4.43,-0.92,90,237,5.409614086151123,5.330784320831299
16,-0.5112962126731873,-2.161672830581665,-0.014962873421609402,36.7160265,3.1840096,25.31,-5.01,-7.23,-1.48,89,236,8.928217887878418,8.803579330444336
17,-0.47382548451423645,-2.1636962890625,0.02090533822774887,36.7159534,3.1838779,27.73,-5.51,-8.01,-1.61,89,236,9.867526054382324,9.735217094421387
18,-0.42849478125572205,-2.164019823074341,0.015336842276155949,36.7158781,3.18374,30.19,-5.53,-8.18,-1.58,88,236,10.005467414855957,9.879510879516602
19,-0.49163147807121277,-2.1626832485198975,-0.010382327251136303,36.7157908,3.1835775,33.07,-5.53,-8.25,-1.58,88,236,10.068252563476562,9.94242000579834
20,-0.4636106491088867,-2.1636979579925537,0.03613429144024849,36.7157159,3.183438,35.54,-5.53,-8.26,-1.6,88,236,10.076393127441406,9.946991920471191
21,-0.4476276636123657,-2.166696786880493,-0.023368148133158684,36.7156284,3.1832754,38.44,-5.52,-8.25,-1.61,87,235,10.067525863647461,9.937239646911621
22,-0.49598854780197144,-2.164435863494873,-0.0049735307693481445,36.7155538,3.1831359,40.95,-5.5,-8.29,-1.61,87,235,10.082436561584473,9.952461242675781
23,-0.4215918481349945,-2.163905143737793,0.01188858225941658,36.7154666,3.1829725,43.85,-5.52,-8.3,-1.63,86,236,10.105521202087402,9.972980499267578
24,-0.45556604862213135,-2.164051055908203,-0.02700270526111126,36.7153919,3.1828328,46.35,-5.51,-8.27,-1.63,86,236,10.082677841186523,9.949189186096191
25,-0.4959186613559723,-2.1665656566619873,0.012215984985232353,36.7153172,3.1826936,48.86,-5.53,-8.29,-1.62,85,235,10.108057975769043,9.975791931152344
26,-0.42712467908859253,-2.1640820503234863,0.020611781626939774,36.7152298,3.18253,51.79,-5.51,-8.31,-1.63,85,236,10.113073348999023,9.98043155670166
27,-0.462098091840744,-2.1637163162231445,-0.0319625623524189,36.7151552,3.1823898,54.28,-5.5,-8.28,-1.63,84,236,10.08406925201416,9.950562477111816
28,-0.4351191222667694,-2.1648271083831787,0.030012276023626328,36.715068,3.1822273,57.2,-5.5,-8.22,-1.63,84,235,10.036131858825684,9.901538848876953
29,-0.20558206737041473,-2.1675961017608643,-0.012468570843338966,36.7149977,3.1820968,59.57,-4.67,-6.98,-1.39,83,235,8.521907806396484,8.407073974609375
30,-0.0855925902724266,-2.1620612144470215,0.0017696708673611283,36.7149457,3.1819994,61.22,-3.01,-4.59,-0.71,83,236,5.54313850402832,5.496634006500244
31,-0.12721118330955505,-2.1152780055999756,-0.010762684047222137,36.7149069,3.181922,61.9,-2.17,-3.69,-0.13,83,238,4.286149024963379,4.283949851989746
32,-0.1753716915845871,-2.1013100147247314,0.023890797048807144,36.7148788,3.1818608,61.94,-2.06,-3.67,0.0,82,239,4.219396114349365,4.219386100769043
33,-0.005640733055770397,-2.1053102016448975,-0.03369259089231491,36.7148477,3.1817932,61.91,-1.67,-2.9,0.09,82,239,3.3529787063598633,3.351510524749756
34,0.02506282925605774,-2.3333346843719482,-0.0216261837631464,36.7148289,3.1817583,61.03,-1.21,-1.35,1.18,82,226,2.1659340858459473,1.8137757778167725
35,-0.03503946587443352,-2.4793291091918945,-0.024655818939208984,36.7148139,3.1817421,58.79,-1.03,-0.79,1.45,81,217,1.9590363502502441,1.309617280960083
36,-0.009973050095140934,-2.470630407333374,0.00801010336726904,36.7147976,3.1817268,56.18,-1.04,-0.82,1.43,81,218,1.9545944929122925,1.3314852714538574
37,-0.06277848780155182,-2.4703352451324463,-0.005861288867890835,36.7147833,3.1817127,53.94,-1.05,-0.88,1.44,81,218,1.9971449375152588,1.3787963390350342
38,-0.022929146885871887,-2.4706010818481445,-0.023673802614212036,36.7147664,3.1816957,51.32,-1.07,-0.88,1.44,80,218,2.006157875061035,1.391605257987976
39,-0.05500077083706856,-2.46982479095459,0.018642840906977654,36.7147518,3.1816811,49.07,-1.06,-0.88,1.45,80,218,2.0048410892486572,1.3844505548477173
40,-0.05427326634526253,-2.469897508621216,-0.01712678372859955,36.7147348,3.181664,46.46,-1.07,-0.88,1.46,79,218,2.0196726322174072,1.3902935981750488
41,-0.022759368643164635,-2.4696462154388428,0.02619342692196369,36.7147202,3.1816493,44.21,-1.06,-0.88,1.46,79,218,2.0174195766448975,1.3830857276916504
42,-0.04657413810491562,-2.470041513442993,-0.02044988051056862,36.7147057,3.1816346,41.97,-1.07,-0.89,1.46,79,218,2.028557062149048,1.3985284566879272
43,-0.007478221785277128,-2.4698455333709717,-0.004268590826541185,36.7146887,3.1816175,39.35,-1.07,-0.87,1.47,78,218,2.026083469390869,1.3860397338867188
44,-0.06209621578454971,-2.4696009159088135,0.0016498282784596086,36.7146741,3.1816027,37.1,-1.06,-0.89,1.48,78,218,2.029707908630371,1.3887754678726196
45,-0.030189363285899162,-2.469987630844116,-0.025266822427511215,36.7146571,3.1815857,34.47,-1.06,-0.88,1.47,78,218,2.024527072906494,1.3856174945831299
46,-0.04626614227890968,-2.4702985286712646,0.025986170396208763,36.7146425,3.1815709,32.23,-1.05,-0.88,1.47,77,218,2.0260910987854004,1.3838011026382446
47,-0.013990713283419609,-2.469918966293335,-0.01925041154026985,36.7146279,3.1815562,29.98,-1.06,-0.88,1.47,77,218,2.0245463848114014,1.3834493160247803
48,-0.01818518154323101,-2.4694876670837402,0.022139329463243484,36.7146109,3.1815391,27.35,-1.05,-0.87,1.47,76,218,2.014345407485962,1.374090313911438
49,-0.05145534873008728,-2.469815731048584,-0.018228448927402496,36.7145963,3.1815243,25.1,-1.07,-0.88,1.47,76,218,2.0320537090301514,1.3986985683441162
50,-0.11152096837759018,-3.1398801803588867,-0.11842110008001328,36.7145749,3.1815112,22.61,-1.91,-0.09,1.08,76,180,2.202704668045044,1.919499158859253
51,-0.251279354095459,2.6677000522613525,-0.002742912620306015,36.7145384,3.1815257,21.95,-3.46,1.69,-0.04,75,152,3.8561837673187256,3.8559298515319824
52,-0.1565128117799759,2.671908378601074,-0.026067381724715233,36.7144769,3.1815641,22.05,-4.01,2.04,0.03,75,153,4.505160808563232,4.505035877227783
53,-0.030202716588974,3.019948959350586,0.2308279126882553,36.7144248,3.1815894,22.0,-3.49,0.42,0.05,75,173,3.5189473628997803,3.518571138381958
54,-0.36390987038612366,-2.217245578765869,0.09644031524658203,36.7143826,3.1815656,21.98,-2.98,-3.48,0.01,74,232,4.59083890914917,4.5907979011535645
55,-0.47456270456314087,-2.154010057449341,0.03395001217722893,36.7143262,3.1814612,21.98,-4.31,-6.79,0.0,74,236,8.047795295715332,8.047792434692383
56,-0.43007412552833557,-2.1537528038024902,-0.029479388147592545,36.7142624,3.1813368,21.99,-4.95,-7.67,0.0,73,236,9.138803482055664,9.138803482055664
57,-0.3316543996334076,-2.1570630073547363,0.024587269872426987,36.7141845,3.1811877,22.01,-4.63,-7.09,0.0,73,236,8.47570514678955,8.475702285766602
58,-0.2169366031885147,-2.1469650268554688,-0.0008241045870818198,36.7141273,3.1810778,22.0,-3.78,-5.93,0.03,73,236,7.0379958152771,7.037924289703369
59,-0.2984524667263031,-2.1176412105560303,0.015850331634283066,36.7140796,3.180981,21.98,-3.36,-5.67,0.01,72,238,6.600006103515625,6.599987983703613
60,-0.25867393612861633,-2.0998284816741943,-0.017141088843345642,36.714028,3.18087,21.98,-3.21,-5.65,0.0,72,239,6.5005292892456055,6.500524520874023
61,-0.19706733524799347,-2.100311279296875,0.005813354626297951,36.7139849,3.1807759,21.99,-3.02,-5.31,0.0,71,239,6.119758129119873,6.119758605957031
62,0.1543506532907486,-2.1009371280670166,-0.02999304234981537,36.7139467,3.180693,21.96,-1.52,-2.64,0.03,71,239,3.050290584564209,3.050103187561035
63,0.10183951258659363,-2.1008050441741943,0.02629842795431614,36.7139365,3.1806703,21.97,-0.15,-0.29,-0.01,71,239,0.33611223101615906,0.3355949819087982
64,0.005936984904110432,-2.100553512573242,0.01551129762083292,36.7139372,3.1806713,21.95,0.15,0.1,0.04,70,239,0.19522930681705475,0.19088059663772583
