timestamp,pitch,yaw,roll,lat,lon,alt,velocity_x,velocity_y,velocity_z,battery,heading,airspeed,groundspeed
0,-0.002483176067471504,0.041616108268499374,-0.02092013508081436,36.7156067,3.18463,21.77,-0.02,0.01,-0.05,96,2,0.06318426877260208,0.029969418421387672
1,-0.049285151064395905,0.033050913363695145,0.11191029101610184,36.7156076,3.1846317,21.72,0.27,0.46,-0.02,95,1,0.5369776487350464,0.5364857316017151
2,-0.21887649595737457,1.4025211334228516,-0.06061685085296631,36.7156223,3.1846578,21.76,1.64,2.41,-0.04,95,80,2.9198310375213623,2.919539451599121
3,-0.16017486155033112,0.9106305837631226,-0.028770718723535538,36.7156495,3.1847079,21.77,2.27,3.33,-0.01,95,52,4.0392351150512695,4.0391974449157715
4,0.08448658883571625,0.9536725282669067,0.010019938461482525,36.7156851,3.1847712,21.77,1.91,2.68,0.0,94,54,3.3023455142974854,3.3023416996002197
5,0.3258311152458191,0.8079944849014282,-0.04942883551120758,36.7156967,3.1847898,21.79,-0.58,-0.94,-0.02,94,46,1.1105855703353882,1.1102497577667236
6,-0.017391905188560486,-0.8874642848968506,-0.1770269125699997,36.7156757,3.1847508,21.77,-2.17,-3.14,0.05,93,309,3.821218967437744,3.8208250999450684
7,-0.07433909922838211,-2.4297337532043457,0.09660565853118896,36.7156405,3.1846866,21.82,-2.13,-3.26,0.0,93,220,3.9041996002197266,3.904198408126831
8,-0.06043018028140068,-1.5881588459014893,0.20247848331928253,36.7156232,3.1846332,21.77,-0.04,-2.9,0.02,93,269,2.909982204437256,2.909868001937866
9,-0.389236718416214,-0.6535550951957703,0.04941409081220627,36.7156578,3.1845762,21.76,4.32,-3.23,0.0,92,322,5.399565696716309,5.39956521987915
10,-0.49936366081237793,-0.6165870428085327,-0.019335364922881126,36.7157199,3.1845216,21.76,6.54,-4.54,0.0,92,324,7.972201347351074,7.972201347351074
11,-0.48912569880485535,-0.6186683177947998,0.033031366765499115,36.7158361,3.1844212,21.78,7.86,-5.47,0.0,91,324,9.582906723022461,9.582906723022461
12,-0.3933587968349457,-0.6196025013923645,-0.02508506178855896,36.7159598,3.184313,21.81,7.52,-5.33,-0.01,91,324,9.225916862487793,9.225898742675781
13,-0.07790544629096985,-0.6227791905403137,0.009250515140593052,36.7160505,3.184233,21.82,5.5,-3.93,0.03,91,324,6.768200397491455,6.768095970153809
14,-0.044342588633298874,-1.2402136325836182,-0.2853952646255493,36.7161048,3.1841696,21.97,0.93,-2.89,-0.28,90,288,3.0519328117370605,3.038562536239624
15,-0.3608761131763458,-2.12935733795166,-0.06290086358785629,36.71609,3.1841111,22.88,-2.91,-4.39,-0.91,90,238,5.350417613983154,5.272170066833496
16,-0.513623058795929,-2.1575608253479004,-0.001996477833017707,36.7160245,3.1839961,25.08,-5.0,-7.16,-1.48,89,236,8.868364334106445,8.743332862854004
17,-0.4608716368675232,-2.164719581604004,0.04579876735806465,36.7159513,3.1838653,27.5,-5.55,-8.04,-1.6,89,235,9.903191566467285,9.771485328674316
18,-0.4279826879501343,-2.1652579307556152,-0.005265870597213507,36.715876,3.1837275,29.96,-5.52,-8.2,-1.57,88,235,10.019697189331055,9.894564628601074
19,-0.49319228529930115,-2.164074420928955,0.011879383586347103,36.7157886,3.1835647,32.83,-5.54,-8.26,-1.58,88,236,10.080589294433594,9.954587936401367
20,-0.44044414162635803,-2.166788101196289,0.03583675995469093,36.7157134,3.183425,35.31,-5.54,-8.25,-1.6,88,235,10.070209503173828,9.941335678100586
21,-0.471636563539505,-2.163527727127075,-0.0270933099091053,36.7156262,3.1832623,38.21,-5.47,-8.26,-1.61,87,236,10.04149055480957,9.911056518554688
22,-0.488774836063385,-2.1635613441467285,0.022594274953007698,36.7155519,3.1831232,40.7,-5.52,-8.29,-1.62,87,236,10.096367835998535,9.964446067810059
23,-0.43632006645202637,-2.164013385772705,0.03240791708230972,36.7154769,3.1829833,43.2,-5.53,-8.29,-1.63,86,236,10.106843948364258,9.97323226928711
24,-0.48031389713287354,-2.162367820739746,-0.023375915363430977,36.7153897,3.1828197,46.11,-5.5,-8.29,-1.63,86,236,10.087510108947754,9.95435905456543
25,-0.47830355167388916,-2.1657602787017822,0.03729325905442238,36.7153149,3.1826802,48.62,-5.51,-8.23,-1.63,85,235,10.04528522491455,9.910611152648926
26,-0.43516212701797485,-2.1645827293395996,-0.011252990923821926,36.7152277,3.1825172,51.55,-5.52,-8.31,-1.63,85,235,10.113934516906738,9.980551719665527
27,-0.4875961244106293,-2.1641769409179688,-0.006592536345124245,36.7151531,3.1823771,54.06,-5.51,-8.29,-1.62,84,236,10.096087455749512,9.96423053741455
28,-0.4080471992492676,-2.164473295211792,0.017549799755215645,36.715066,3.1822144,56.97,-5.51,-8.24,-1.63,84,235,10.057650566101074,9.924128532409668
29,-0.23709900677204132,-2.1678526401519775,-0.02601678855717182,36.7149954,3.1820835,59.33,-4.69,-6.99,-1.4,83,235,8.53695011138916,8.421116828918457
30,-0.08697015792131424,-2.1628706455230713,0.027059217914938927,36.7149432,3.1819859,61.0,-3.03,-4.61,-0.72,83,236,5.575922966003418,5.527956485748291
31,-0.157339945435524,-2.1156041622161865,-0.007524429354816675,36.7149042,3.1819082,61.7,-2.17,-3.7,-0.14,83,238,4.303962707519531,4.301632881164551
32,-0.14876504242420197,-2.1013526916503906,0.02977020852267742,36.7148758,3.1818466,61.74,-2.07,-3.67,0.0,82,239,4.218563556671143,4.218558311462402
33,-0.021511228755116463,-2.1047823429107666,-0.009356806986033916,36.7148447,3.1817789,61.72,-1.65,-2.9,0.09,82,239,3.3499755859375,3.3486099243164062
34,0.040207020938396454,-2.3289055824279785,-0.03705305978655815,36.714826,3.1817439,60.85,-1.21,-1.37,1.16,82,226,2.1728014945983887,1.8318628072738647
35,-0.057810407131910324,-2.4800236225128174,-0.008752784691751003,36.714811,3.1817275,58.63,-1.03,-0.8,1.46,81,217,1.9637219905853271,1.3119012117385864
36,-0.024822866544127464,-2.4713542461395264,-0.022051149979233742,36.7147947,3.1817121,56.01,-1.04,-0.83,1.43,81,218,1.9604504108428955,1.337944507598877
37,-0.0557720810174942,-2.470689535140991,0.02414880134165287,36.7147804,3.1816981,53.77,-1.05,-0.87,1.44,81,218,1.9909093379974365,1.373141884803772
38,-0.053648442029953,-2.4699254035949707,-0.019786160439252853,36.7147634,3.1816811,51.15,-1.07,-0.88,1.45,80,218,2.0089683532714844,1.3895169496536255
39,-0.02929588221013546,-2.469571590423584,0.027821805328130722,36.7147488,3.1816665,48.91,-1.06,-0.87,1.45,80,218,2.0076897144317627,1.380169153213501
40,-0.04801896959543228,-2.46998929977417,-0.02388511411845684,36.7147343,3.1816519,46.67,-1.06,-0.88,1.46,79,218,2.023172616958618,1.391241431236267
41,-0.011984635144472122,-2.4697792530059814,0.0005024202982895076,36.7147173,3.1816347,44.05,-1.08,-0.88,1.47,79,218,2.032007932662964,1.3956791162490845
42,-0.06143548712134361,-2.470184326171875,0.001279333489947021,36.7147026,3.1816199,41.81,-1.05,-0.88,1.47,79,218,2.0236122608184814,1.3827054500579834
43,-0.02754043973982334,-2.4698646068573,-0.02328382432460785,36.7146856,3.1816028,39.18,-1.06,-0.88,1.47,78,218,2.023634433746338,1.38283371925354
44,-0.043044716119766235,-2.4699103832244873,0.028221700340509415,36.714671,3.1815881,36.93,-1.05,-0.87,1.47,78,218,2.019221305847168,1.3754252195358276
45,-0.061643004417419434,-2.4700303077697754,-0.009264150634407997,36.7146541,3.181571,34.3,-1.06,-0.88,1.47,78,218,2.026318311691284,1.3886252641677856
46,-0.014061503112316132,-2.4698755741119385,0.017882732674479485,36.7146395,3.1815563,32.05,-1.06,-0.87,1.47,77,218,2.0165719985961914,1.3757333755493164
47,-0.05323820933699608,-2.4698100090026855,-0.01689176633954048,36.7146249,3.1815415,29.81,-1.06,-0.88,1.47,77,218,2.0217955112457275,1.3822112083435059
48,-0.007959971204400063,-2.469820022583008,-0.00848306342959404,36.7146078,3.1815244,27.19,-1.06,-0.87,1.48,76,218,2.02203631401062,1.374746561050415
49,-0.060905829071998596,-2.4701011180877686,0.01713435910642147,36.7145933,3.1815097,24.94,-1.05,-0.87,1.48,76,218,2.0221545696258545,1.3746910095214844
50,-0.140895277261734,-3.1183278560638428,-0.13594914972782135,36.714572,3.1814964,22.44,-1.9,-0.13,1.09,76,181,2.1989614963531494,1.90682053565979
51,-0.21831762790679932,2.6743714809417725,0.007382694631814957,36.7145355,3.1815102,21.75,-3.46,1.65,-0.03,75,153,3.837477207183838,3.83730149269104
52,-0.16230210661888123,2.6795730590820312,-0.030637558549642563,36.7144827,3.1815425,21.85,-4.05,2.03,0.0,75,153,4.541769027709961,4.541767597198486
53,-0.00012918007269036025,2.9961259365081787,0.19630904495716095,36.7144207,3.1815744,21.8,-3.55,0.54,0.04,75,171,3.595592737197876,3.595266103744507
54,-0.3917829394340515,-2.231736660003662,0.11689543724060059,36.7143781,3.1815528,21.78,-2.97,-3.33,0.01,74,232,4.467164993286133,4.467129707336426
55,-0.45610955357551575,-2.147320508956909,-0.004382317885756493,36.7143227,3.1814506,21.78,-4.23,-6.72,0.0,74,236,7.945845127105713,7.9458417892456055
56,-0.4834413528442383,-2.1477010250091553,-0.02975834161043167,36.7142599,3.181327,21.79,-4.89,-7.7,0.0,73,236,9.128844261169434,9.12884521484375
57,-0.3092553913593292,-2.1514508724212646,0.011391256004571915,36.714183,3.1811779,21.81,-4.64,-7.18,0.0,73,236,8.555519104003906,8.555516242980957
58,-0.2555174231529236,-2.1443417072296143,-0.00970185175538063,36.7141256,3.1810664,21.8,-3.8,-6.01,0.02,73,237,7.116235256195068,7.116176128387451
59,-0.2434852421283722,-2.1117053031921387,0.01783916912972927,36.7140702,3.1809531,21.78,-3.32,-5.64,0.0,72,239,6.548101425170898,6.548095703125
60,-0.30381014943122864,-2.1001698970794678,-0.016178999096155167,36.7140262,3.1808581,21.78,-3.21,-5.63,0.0,72,239,6.485567092895508,6.485561370849609
61,-0.17381249368190765,-2.0999767780303955,0.02699568122625351,36.713983,3.1807637,21.78,-3.03,-5.33,0.0,71,239,6.14313268661499,6.143131732940674
62,0.12126356363296509,-2.100884199142456,0.002779335016384721,36.7139443,3.1806797,21.76,-1.57,-2.75,0.03,71,239,3.1710519790649414,3.1709001064300537
63,0.1341591477394104,-2.1005923748016357,0.004031939432024956,36.7139334,3.1806558,21.77,-0.18,-0.34,-0.02,71,239,0.39427468180656433,0.3936156630516052
64,-0.015286230482161045,-2.1022520065307617,0.09519729018211365,36.7139341,3.1806566,21.74,0.24,0.05,0.03,70,239,0.25735214352607727,0.25472724437713623
