timestamp,pitch,yaw,roll,lat,lon,alt,velocity_x,velocity_y,velocity_z,battery,heading,airspeed,groundspeed
0,0.030453689396381378,-0.004008409101516008,0.010757929645478725,36.7156066,3.1846299,22.66,-0.02,0.02,-0.11,96,359,0.1229080781340599,0.03648503124713898
1,-0.08507168292999268,-0.01314419973641634,0.08292867243289948,36.7156076,3.1846317,22.67,0.27,0.45,-0.04,95,359,0.5367463827133179,0.5351232290267944
2,-0.21802698075771332,1.4145641326904297,-0.11293327063322067,36.7156219,3.1846569,22.71,1.66,2.35,-0.04,95,81,2.881880044937134,2.8815720081329346
3,-0.1401492953300476,0.8651336431503296,0.011620132252573967,36.7156499,3.1847056,22.71,2.33,3.27,-0.01,95,49,4.027891159057617,4.027856349945068
4,0.03292251378297806,0.9328898787498474,0.02242390252649784,36.7156869,3.184769,22.69,2.0,2.74,0.0,94,53,3.4013123512268066,3.4013121128082275
5,0.36808356642723083,0.693902313709259,-0.11333780735731125,36.7157005,3.1847904,22.71,-0.47,-0.78,-0.02,94,39,0.9197402000427246,0.9194334149360657
6,-0.052251849323511124,-0.9029752612113953,-0.15105421841144562,36.7156804,3.1847529,22.69,-2.15,-3.13,0.04,93,308,3.801147937774658,3.800833225250244
7,-0.1134062185883522,-2.4243690967559814,0.05734845995903015,36.715645,3.1846883,22.73,-2.18,-3.27,-0.01,93,221,3.940959930419922,3.9409444332122803
8,-0.00013933035370428115,-1.6455626487731934,0.22143347561359406,36.7156265,3.1846344,22.69,-0.18,-2.92,0.03,93,265,2.9294612407684326,2.9292800426483154
9,-0.40523627400398254,-0.6597410440444946,0.10625628381967545,36.7156587,3.1845779,22.68,4.19,-3.19,0.0,92,322,5.276106357574463,5.27610445022583
10,-0.5025269389152527,-0.6239551901817322,-0.018686914816498756,36.7157346,3.1845117,22.68,6.8,-4.71,0.0,92,324,8.274290084838867,8.274287223815918
11,-0.48784133791923523,-0.616714596748352,0.02485695667564869,36.7158531,3.184409,22.7,7.86,-5.53,0.0,91,324,9.617063522338867,9.61706256866455
12,-0.35589835047721863,-0.6196627616882324,-0.011136268265545368,36.7159593,3.1843157,22.73,7.55,-5.34,-0.01,91,324,9.256651878356934,9.256637573242188
13,-0.09814473986625671,-0.6222265362739563,-0.014557276852428913,36.7160509,3.1842348,22.76,5.6,-3.99,0.05,91,324,6.886495590209961,6.886312007904053
14,0.015705332159996033,-1.1985400915145874,-0.3063243627548218,36.7161076,3.184171,22.88,1.09,-2.87,-0.25,90,291,3.0872628688812256,3.077036142349243
15,-0.400178462266922,-2.1285929679870605,-0.04709000140428543,36.7160944,3.184114,23.75,-2.8,-4.33,-0.88,90,238,5.239700794219971,5.164757251739502
16,-0.48441851139068604,-2.1578779220581055,-0.03474583476781845,36.7160302,3.1840006,25.92,-4.93,-7.14,-1.46,89,236,8.810089111328125,8.68683910369873
17,-0.49227654933929443,-2.1643002033233643,0.008555918000638485,36.7159574,3.1838697,28.33,-5.54,-8.04,-1.59,89,236,9.895606994628906,9.76543140411377
18,-0.4352622628211975,-2.1645615100860596,0.03294479474425316,36.715882,3.1837317,30.78,-5.51,-8.15,-1.57,88,235,9.974634170532227,9.848857879638672
19,-0.4759756028652191,-2.163531541824341,-0.029440583661198616,36.7157946,3.1835693,33.66,-5.54,-8.23,-1.58,88,236,10.05587387084961,9.930527687072754
20,-0.48704901337623596,-2.165529489517212,0.028576215729117393,36.7157198,3.1834303,36.15,-5.54,-8.29,-1.59,88,235,10.104838371276855,9.978721618652344
21,-0.43057486414909363,-2.163776159286499,-0.014734785072505474,36.7156324,3.1832672,39.04,-5.51,-8.27,-1.6,87,236,10.074356079101562,9.945172309875488
22,-0.48012039065361023,-2.164362668991089,-0.021266907453536987,36.7155576,3.1831275,41.54,-5.51,-8.27,-1.61,87,236,10.07525634765625,9.94556713104248
23,-0.4313518702983856,-2.1643683910369873,0.02963145822286606,36.7154705,3.1829648,44.46,-5.5,-8.29,-1.61,86,236,10.08564567565918,9.955239295959473
24,-0.4417690932750702,-2.164541006088257,-0.022714896127581596,36.7153959,3.182825,46.95,-5.52,-8.31,-1.62,86,235,10.11070442199707,9.979187965393066
25,-0.4906393885612488,-2.1657605171203613,-0.0022714524529874325,36.7153209,3.182685,49.45,-5.52,-8.3,-1.62,85,235,10.10838508605957,9.9766206741333
26,-0.4269281327724457,-2.1626429557800293,0.020497716963291168,36.7152339,3.1825219,52.38,-5.49,-8.28,-1.62,85,236,10.071239471435547,9.938982009887695
27,-0.45982521772384644,-2.1648054122924805,-0.029806481674313545,36.7151592,3.1823822,54.88,-5.53,-8.3,-1.62,84,235,10.110572814941406,9.979379653930664
28,-0.4478294551372528,-2.164233922958374,0.03872577100992203,36.7150717,3.1822187,57.8,-5.49,-8.27,-1.63,84,236,10.067380905151367,9.9335298538208
29,-0.2196924090385437,-2.1689391136169434,-0.004468406550586224,36.715001,3.1820874,60.18,-4.75,-7.04,-1.4,83,235,8.62130069732666,8.505727767944336
30,-0.08853015303611755,-2.1633152961730957,-0.0027310901787132025,36.7149478,3.1819882,61.89,-3.08,-4.68,-0.74,83,236,5.661236763000488,5.612118721008301
31,-0.12526510655879974,-2.116903066635132,-0.008862161077558994,36.7149085,3.18191,62.61,-2.18,-3.7,-0.15,83,238,4.300728797912598,4.298105716705322
32,-0.1831885278224945,-2.101696014404297,0.019775642082095146,36.7148802,3.1818488,62.66,-2.08,-3.69,-0.01,82,239,4.245616436004639,4.2455949783325195
33,-0.010951396077871323,-2.104362726211548,-0.0315302349627018,36.7148489,3.1817805,62.64,-1.7,-2.99,0.06,82,239,3.446880578994751,3.4462273120880127
34,0.029755719006061554,-2.314913749694824,-0.022410482168197632,36.7148296,3.1817442,61.83,-1.21,-1.4,1.12,82,227,2.169769287109375,1.857067346572876
35,-0.037378523498773575,-2.481799364089966,-0.023668065667152405,36.7148147,3.1817276,59.62,-1.02,-0.79,1.46,81,217,1.9534578323364258,1.297498106956482
36,-0.012347879819571972,-2.4711356163024902,0.0014833143213763833,36.7147984,3.1817123,57.0,-1.05,-0.83,1.41,81,218,1.953150749206543,1.3446210622787476
37,-0.062257759273052216,-2.4701645374298096,-0.0016322669107466936,36.7147841,3.1816981,54.76,-1.06,-0.87,1.43,81,218,1.9886682033538818,1.3784408569335938
38,-0.029103349894285202,-2.4701249599456787,-0.02278098277747631,36.7147671,3.1816811,52.14,-1.06,-0.87,1.44,80,218,1.9950283765792847,1.379751205444336
39,-0.05400422215461731,-2.4695332050323486,0.02479826658964157,36.7147525,3.1816666,49.9,-1.06,-0.87,1.44,80,218,1.9950159788131714,1.3777010440826416
40,-0.05926630273461342,-2.46936297416687,-0.01226033829152584,36.7147356,3.1816494,47.28,-1.06,-0.88,1.45,79,218,2.0088305473327637,1.389653205871582
41,-0.01854785531759262,-2.469123601913452,0.025519179180264473,36.714721,3.1816347,45.05,-1.07,-0.88,1.46,79,218,2.019679546356201,1.3890559673309326
42,-0.05360155180096626,-2.4696550369262695,-0.019000615924596786,36.7147064,3.1816201,42.79,-1.07,-0.88,1.46,79,218,2.019782781600952,1.3911947011947632
43,-0.00435993168503046,-2.4695253372192383,-0.00940830260515213,36.7146893,3.1816029,40.17,-1.06,-0.88,1.46,78,218,2.0181922912597656,1.385973572731018
44,-0.05834006145596504,-2.4698050022125244,0.015993554145097733,36.7146748,3.1815882,37.93,-1.05,-0.89,1.47,78,218,2.022753953933716,1.3839702606201172
45,-0.04213355481624603,-2.469940662384033,-0.02318231202661991,36.7146578,3.181571,35.31,-1.06,-0.89,1.47,78,218,2.02579665184021,1.3865728378295898
46,-0.03356475755572319,-2.469743013381958,0.028864245861768723,36.7146433,3.1815563,33.05,-1.06,-0.88,1.47,77,218,2.020667791366577,1.3844163417816162
47,-0.029612144455313683,-2.469353199005127,-0.023283809423446655,36.7146286,3.1815415,30.81,-1.07,-0.88,1.47,77,218,2.029167413711548,1.392476201057434
48,-0.009702824987471104,-2.4689879417419434,0.011862413957715034,36.7146115,3.1815244,28.18,-1.06,-0.87,1.47,76,218,2.018890619277954,1.3768795728683472
49,-0.06207258254289627,-2.4693663120269775,-0.0017394269816577435,36.714597,3.1815097,25.93,-1.06,-0.89,1.47,76,218,2.0212247371673584,1.3850975036621094
50,-0.11136490851640701,-3.089247703552246,-0.13175907731056213,36.7145763,3.1814958,23.41,-1.84,-0.18,1.13,76,183,2.1772563457489014,1.8580795526504517
51,-0.23722869157791138,2.667379140853882,0.001574409776367247,36.7145407,3.1815087,22.67,-3.4,1.65,-0.03,75,152,3.788689613342285,3.7885689735412598
52,-0.17909690737724304,2.671990156173706,-0.025577839463949203,36.7144796,3.1815469,22.77,-4.0,2.05,0.02,75,153,4.507112979888916,4.507040023803711
53,-0.005845041014254093,2.9823620319366455,0.21194055676460266,36.7144271,3.1815737,22.72,-3.53,0.58,0.05,75,170,3.5790274143218994,3.578618288040161
54,-0.3752056658267975,-2.2380285263061523,0.10400797426700592,36.7143844,3.1815534,22.7,-2.94,-3.31,0.02,74,231,4.435838222503662,4.4357757568359375
55,-0.4590698182582855,-2.1514265537261963,0.01485233474522829,36.7143295,3.1814518,22.7,-4.26,-6.72,0.0,74,236,7.963108539581299,7.963105201721191
56,-0.45643314719200134,-2.1531665325164795,-0.0327608622610569,36.7142661,3.1813281,22.71,-4.97,-7.67,0.0,73,236,9.149677276611328,9.149676322937012
57,-0.30616745352745056,-2.1580634117126465,0.027104012668132782,36.7141876,3.1811786,22.74,-4.69,-7.13,0.0,73,236,8.541680335998535,8.54167652130127
58,-0.2345721274614334,-2.1490907669067383,-0.012651747092604637,36.7141297,3.1810675,22.73,-3.8,-5.97,0.03,73,236,7.086733818054199,7.086624622344971
59,-0.2528766691684723,-2.113720178604126,0.036064062267541885,36.7140745,3.1809551,22.71,-3.34,-5.67,0.01,72,238,6.586655139923096,6.586630344390869
60,-0.2889552116394043,-2.1001923084259033,-0.022048311308026314,36.7140304,3.1808599,22.71,-3.22,-5.67,0.01,72,239,6.525815486907959,6.5257978439331055
61,-0.19112448394298553,-2.1002373695373535,0.027292100712656975,36.713987,3.1807651,22.71,-3.06,-5.38,0.0,71,239,6.193264961242676,6.193263053894043
62,0.12381767481565475,-2.100672721862793,-0.010683869011700153,36.7139478,3.1806799,22.68,-1.61,-2.81,0.03,71,239,3.241055965423584,3.2408392429351807
63,0.1354241520166397,-2.100353240966797,0.016434643417596817,36.7139366,3.1806551,22.69,-0.19,-0.35,-0.01,71,239,0.40938499569892883,0.40891507267951965
64,-0.03089851513504982,-2.1030001640319824,0.08811760693788528,36.7139375,3.1806563,22.66,0.23,0.04,0.03,70,239,0.2383253425359726,0.23585093021392822
