timestamp,pitch,yaw,roll,lat,lon,alt,velocity_x,velocity_y,velocity_z,battery,heading,airspeed,groundspeed
0,0.02351667545735836,-0.0019017093582078815,-0.01569008268415928,36.7156067,3.1846299,22.14,-0.02,0.02,-0.08,96,359,0.08748461306095123,0.03497284650802612
1,-0.06697764247655869,-0.009927723556756973,0.10438191890716553,36.7156075,3.1846317,22.12,0.24,0.46,-0.03,95,359,0.5232645869255066,0.5222712159156799
2,-0.22758729755878448,1.5345354080200195,-0.10785989463329315,36.7156201,3.1846578,22.15,1.45,2.46,-0.04,95,87,2.8644320964813232,2.8641245365142822
3,-0.14784245193004608,0.8797016739845276,0.004461993928998709,36.715645,3.1847097,22.16,2.07,3.5,-0.01,95,50,4.0754499435424805,4.075405120849609
4,0.025534125044941902,1.0030066967010498,0.03134407475590706,36.715678,3.1847776,22.15,1.86,3.03,0.0,94,57,3.563730239868164,3.5637271404266357
5,0.3416118025779724,1.2832111120224,0.0785391703248024,36.7156912,3.1848042,22.17,-0.35,-0.45,-0.03,94,73,0.5820841193199158,0.5810269713401794
6,-0.06606726348400116,2.8585948944091797,0.223273366689682,36.7156724,3.1847703,22.16,-2.11,-3.02,0.05,93,163,3.6890242099761963,3.6885557174682617
7,-0.14469018578529358,-1.9206397533416748,0.013039425015449524,36.7156371,3.1847062,22.19,-2.22,-3.26,-0.02,93,249,3.9500296115875244,3.9499340057373047
8,0.002752594882622361,-1.699327826499939,0.18238626420497894,36.7156169,3.1846523,22.15,-0.38,-2.98,0.02,93,262,3.014622211456299,3.014504909515381
9,-0.3992060720920563,-0.6526256203651428,0.10662665218114853,36.7156447,3.1845956,22.14,3.94,-3.13,0.0,92,322,5.037679672241211,5.037675857543945
10,-0.49029719829559326,-0.6246262192726135,-0.01417513471096754,36.7157179,3.1845305,22.14,6.65,-4.62,0.0,92,324,8.098785400390625,8.098782539367676
11,-0.5034749507904053,-0.6207476854324341,0.029470479115843773,36.7158347,3.184429,22.16,7.86,-5.52,0.0,91,324,9.611067771911621,9.611063957214355
12,-0.3668723702430725,-0.6232991218566895,0.0002214873966295272,36.715941,3.1843353,22.18,7.61,-5.42,-0.02,91,324,9.349417686462402,9.349390029907227
13,-0.1139182299375534,-0.6250091791152954,-0.02202775329351425,36.716034,3.1842527,22.21,5.74,-4.12,0.03,91,324,7.072037696838379,7.071952819824219
14,0.052062466740608215,-1.1327365636825562,-0.2876077890396118,36.7160937,3.1841875,22.31,1.34,-2.88,-0.23,90,295,3.189951181411743,3.1814382076263428
15,-0.4037773609161377,-2.12396240234375,-0.07012569159269333,36.7160838,3.1841316,23.13,-2.63,-4.21,-0.85,90,238,5.041619777679443,4.969368934631348
16,-0.4586550295352936,-2.1587302684783936,-0.02851957455277443,36.7160209,3.1840205,25.25,-4.88,-7.03,-1.45,89,236,8.68766975402832,8.564183235168457
17,-0.4940938353538513,-2.161911725997925,-0.02552241086959839,36.7159488,3.183891,27.65,-5.53,-8.0,-1.6,89,236,9.864875793457031,9.733601570129395
18,-0.4697710871696472,-2.1665425300598145,0.045412782579660416,36.7158735,3.1837539,30.1,-5.54,-8.19,-1.58,88,235,10.022346496582031,9.896561622619629
19,-0.4484330415725708,-2.1631150245666504,-0.029527705162763596,36.7157859,3.1835906,32.97,-5.53,-8.27,-1.59,88,236,10.080425262451172,9.952840805053711
20,-0.48822227120399475,-2.164067268371582,0.00045060014235787094,36.7157109,3.1834512,35.46,-5.51,-8.23,-1.59,88,236,10.037652969360352,9.90962028503418
21,-0.4283858835697174,-2.1650609970092773,0.015922563150525093,36.7156239,3.1832892,38.35,-5.54,-8.27,-1.61,87,235,10.087507247924805,9.956992149353027
22,-0.4533999264240265,-2.1647791862487793,-0.0315738283097744,36.715549,3.1831492,40.85,-5.52,-8.3,-1.62,87,235,10.106001853942871,9.974430084228516
23,-0.46165433526039124,-2.1645395755767822,0.03872780129313469,36.7154617,3.1829858,43.77,-5.49,-8.27,-1.62,86,235,10.064451217651367,9.931720733642578
24,-0.4283334016799927,-2.1625874042510986,0.0023465596605092287,36.7153873,3.1828465,46.26,-5.52,-8.28,-1.63,86,236,10.093676567077637,9.960329055786133
25,-0.49186426401138306,-2.166487693786621,0.0051201158203184605,36.7153,3.1826835,49.18,-5.52,-8.28,-1.63,85,235,10.092988014221191,9.96014404296875
26,-0.47285136580467224,-2.1645469665527344,0.03482668101787567,36.7152251,3.1825434,51.69,-5.52,-8.29,-1.63,85,235,10.09918212890625,9.966095924377441
27,-0.4235389232635498,-2.165393114089966,0.002284799935296178,36.7151502,3.1824033,54.19,-5.5,-8.28,-1.63,84,235,10.078678131103516,9.945199966430664
28,-0.4854671061038971,-2.1637494564056396,0.010285110212862492,36.7150635,3.1822406,57.11,-5.5,-8.3,-1.63,84,236,10.097774505615234,9.963895797729492
29,-0.24677662551403046,-2.169769287109375,0.03408848121762276,36.7149918,3.1821079,59.52,-4.85,-7.14,-1.43,83,235,8.755148887634277,8.636293411254883
30,-0.0923905000090599,-2.160305976867676,0.0034299450926482677,36.7149307,3.1819936,61.46,-2.92,-4.49,-0.67,83,236,5.39997673034668,5.357656955718994
31,-0.11950743943452835,-2.1070921421051025,0.03427078202366829,36.7148979,3.1819274,62.06,-2.15,-3.7,-0.16,83,239,4.29009485244751,4.286763668060303
32,-0.16379837691783905,-2.085622549057007,-0.02308359183371067,36.7148703,3.1818657,62.13,-2.0,-3.68,0.0,82,240,4.19081449508667,4.190809726715088
33,0.019808441400527954,-2.0882022380828857,-0.011456962674856186,36.7148397,3.1817969,62.11,-1.67,-3.04,0.05,82,240,3.4755725860595703,3.4751904010772705
34,-0.00561009394004941,-2.288270950317383,-0.05219155550003052,36.714821,3.1817594,61.37,-1.2,-1.48,1.06,82,228,2.186915159225464,1.9085115194320679
35,-0.020342428237199783,-2.474785566329956,-0.02623564377427101,36.7148034,3.1817398,58.81,-1.04,-0.79,1.45,81,218,1.9561673402786255,1.3129236698150635
36,-0.04620864614844322,-2.4723379611968994,0.02702878788113594,36.7147894,3.1817267,56.57,-1.03,-0.83,1.42,81,218,1.948548674583435,1.3272854089736938
37,-0.06011277437210083,-2.4698703289031982,-0.019661128520965576,36.7147727,3.1817104,53.96,-1.07,-0.88,1.44,80,218,2.0014779567718506,1.387355089187622
38,-0.016037290915846825,-2.4699156284332275,0.023824242874979973,36.7147582,3.1816957,51.72,-1.07,-0.88,1.44,80,218,2.0066049098968506,1.3878530263900757
39,-0.04116268455982208,-2.4696578979492188,-0.023073237389326096,36.7147436,3.1816811,49.47,-1.07,-0.88,1.45,80,218,2.0099599361419678,1.3904615640640259
40,-0.011150192469358444,-2.4700064659118652,-0.007450467441231012,36.7147267,3.181664,46.86,-1.06,-0.88,1.45,79,218,2.012819290161133,1.3874272108078003
41,-0.06063440814614296,-2.469890832901001,0.00467537110671401,36.7147121,3.1816494,44.62,-1.07,-0.89,1.47,79,218,2.0311317443847656,1.3986579179763794
42,-0.03278409317135811,-2.4703562259674072,-0.02314414642751217,36.714695,3.1816322,41.99,-1.07,-0.88,1.47,79,218,2.02408766746521,1.3903186321258545
43,-0.044732142239809036,-2.4700264930725098,0.028805198147892952,36.7146805,3.1816175,39.75,-1.05,-0.88,1.47,78,218,2.0207505226135254,1.3826639652252197
44,-0.022515980526804924,-2.4699273109436035,-0.023526659235358238,36.7146659,3.1816028,37.5,-1.08,-0.89,1.48,78,218,2.038386583328247,1.4007329940795898
45,-0.012175661511719227,-2.4697656631469727,0.018239781260490417,36.7146489,3.1815856,34.88,-1.06,-0.88,1.48,78,218,2.028776168823242,1.3863189220428467
46,-0.05103421211242676,-2.469989061355591,-0.021240349858999252,36.7146343,3.1815709,32.62,-1.06,-0.88,1.47,77,218,2.0246644020080566,1.3871800899505615
47,-0.012425155378878117,-2.4700756072998047,-0.009489547461271286,36.7146173,3.1815538,30.0,-1.07,-0.87,1.48,77,218,2.0270166397094727,1.384382963180542
48,-0.06302028894424438,-2.46986722946167,0.005782291758805513,36.7146027,3.1815391,27.75,-1.06,-0.88,1.47,76,218,2.0291483402252197,1.3886003494262695
49,-0.037768881767988205,-2.4698824882507324,-0.02760808728635311,36.7145857,3.1815219,25.12,-1.06,-0.88,1.47,76,218,2.019212007522583,1.3792588710784912
50,-0.12452434003353119,-3.031820774078369,-0.080035500228405,36.7145678,3.1815099,22.96,-1.79,-0.27,1.18,76,186,2.1656336784362793,1.8107542991638184
51,-0.23059837520122528,2.6743550300598145,-0.05277315899729729,36.7145331,3.1815213,22.13,-3.36,1.58,0.0,75,153,3.7216427326202393,3.7216408252716064
52,-0.14359045028686523,2.680063009262085,0.017997076734900475,36.7144718,3.1815587,22.23,-4.06,2.02,0.01,75,153,4.545581817626953,4.545558929443359
53,-0.05223589763045311,2.9270167350769043,0.14707426726818085,36.7144184,3.1815866,22.18,-3.63,0.77,0.05,75,167,3.718925952911377,3.7185561656951904
54,-0.35434362292289734,-2.202801465988159,0.09789281338453293,36.7143683,3.1815613,22.16,-3.0,-3.64,0.01,74,233,4.725952625274658,4.725924491882324
55,-0.5151045918464661,-2.143446922302246,-0.0015175347216427326,36.7143209,3.181473,22.16,-4.13,-6.56,0.01,74,237,7.763012886047363,7.762996673583984
56,-0.4239587187767029,-2.150700569152832,0.00027440942358225584,36.7142478,3.1813291,22.17,-4.92,-7.7,0.0,73,236,9.147920608520508,9.147920608520508
57,-0.3530968129634857,-2.1517281532287598,-0.02820785902440548,36.7141817,3.1812009,22.19,-4.7,-7.26,0.0,73,236,8.655611991882324,8.655610084533691
58,-0.23997710645198822,-2.1461739540100098,0.04349379613995552,36.7141232,3.1810879,22.19,-3.86,-6.08,0.02,73,237,7.203246116638184,7.2031941413879395
59,-0.28393396735191345,-2.1145145893096924,-0.009153743274509907,36.7140673,3.1809743,22.16,-3.33,-5.66,0.01,72,238,6.568652153015137,6.5686354637146
60,-0.2840501368045807,-2.100160598754883,0.03449865058064461,36.7140234,3.1808794,22.16,-3.2,-5.66,0.0,72,239,6.507964611053467,6.507957458496094
61,-0.17298300564289093,-2.100172519683838,-0.01840689592063427,36.71398,3.1807844,22.17,-3.11,-5.44,0.0,71,239,6.267215728759766,6.267215728759766
62,0.15652912855148315,-2.1004669666290283,0.02467389404773712,36.7139396,3.1806967,22.14,-1.71,-2.98,0.03,71,239,3.444873332977295,3.444666862487793
63,0.10789228230714798,-2.1001577377319336,-0.02407926134765148,36.7139272,3.1806695,22.15,-0.25,-0.47,-0.02,71,239,0.5364280939102173,0.5358945727348328
64,0.023734845221042633,-2.0994162559509277,0.046589188277721405,36.7139277,3.1806698,22.13,0.18,0.08,0.04,70,239,0.20699454843997955,0.2029303014278412
