timestamp,pitch,yaw,roll,lat,lon,alt,velocity_x,velocity_y,velocity_z,battery,heading,airspeed,groundspeed
0,0.015679163858294487,-0.03197317570447922,0.034695956856012344,36.7156066,3.1846299,22.51,-0.02,0.03,-0.09,96,358,0.10394959896802902,0.03928288817405701
1,-0.06085029989480972,-0.03805896267294884,0.05888853222131729,36.7156078,3.1846321,22.51,0.32,0.48,-0.04,95,357,0.586892306804657,0.5854417085647583
2,-0.17267170548439026,1.4114292860031128,-0.12315219640731812,36.7156233,3.1846588,22.54,1.77,2.41,-0.04,95,80,3.001002073287964,3.000725507736206
3,-0.17356547713279724,0.8581076860427856,0.0371137298643589,36.7156528,3.1847083,22.54,2.43,3.28,-0.01,95,49,4.087101936340332,4.087071895599365
4,0.0205606147646904,0.9038830399513245,-0.014320297166705132,36.7156858,3.184763,22.53,2.21,2.94,0.0,94,51,3.6902670860290527,3.690265417098999
5,0.34394240379333496,0.5358811020851135,-0.11677567660808563,36.7157033,3.1847896,22.55,-0.55,-0.94,-0.02,94,30,1.0984143018722534,1.0981372594833374
6,-0.0827416405081749,-1.0610207319259644,-0.18619783222675323,36.7156824,3.1847507,22.53,-2.16,-3.16,0.05,93,299,3.831303119659424,3.8309519290924072
7,-0.062386561185121536,-2.38812518119812,0.04486430808901787,36.7156471,3.184686,22.58,-2.14,-3.26,0.0,93,223,3.9052979946136475,3.9052982330322266
8,-0.05557135492563248,-1.6381683349609375,0.24820689857006073,36.7156296,3.1846326,22.53,-0.04,-2.9,0.03,93,266,2.9007766246795654,2.900621175765991
9,-0.35760432481765747,-0.6558406949043274,0.08828967064619064,36.7156549,3.1845846,22.52,3.77,-3.05,0.0,92,322,4.8503007888793945,4.850298881530762
10,-0.5378931760787964,-0.6268396377563477,0.0215053278952837,36.7157413,3.1845083,22.53,6.87,-4.74,0.0,92,324,8.350398063659668,8.350396156311035
11,-0.475885808467865,-0.6168818473815918,0.026044102385640144,36.7158426,3.1844207,22.54,7.85,-5.48,0.0,91,324,9.583386421203613,9.583385467529297
12,-0.39216968417167664,-0.6186264157295227,-0.025426756590604782,36.7159663,3.1843123,22.57,7.52,-5.31,-0.01,91,324,9.213510513305664,9.213494300842285
13,-0.08715210109949112,-0.6227036714553833,0.009236421436071396,36.7160569,3.1842323,22.59,5.5,-3.92,0.04,91,324,6.759217739105225,6.759058952331543
14,0.08055819571018219,-1.046876311302185,-0.27064526081085205,36.716108,3.1841771,22.67,1.7,-2.89,-0.19,90,300,3.361300468444824,3.355860710144043
15,-0.373102605342865,-2.1288719177246094,-0.051685646176338196,36.7160963,3.184111,23.65,-2.91,-4.41,-0.9,90,238,5.3676934242248535,5.2901530265808105
16,-0.45900970697402954,-2.16184401512146,-0.022801794111728668,36.7160418,3.1840155,25.47,-4.82,-6.89,-1.43,89,236,8.538031578063965,8.417353630065918
17,-0.4784855544567108,-2.1648833751678467,0.02453617937862873,36.7159578,3.1838643,28.26,-5.53,-8.04,-1.6,89,235,9.895720481872559,9.764631271362305
18,-0.44019395112991333,-2.1631407737731934,0.02855229377746582,36.7158825,3.1837265,30.72,-5.53,-8.18,-1.58,88,236,10.005743026733398,9.88017463684082
19,-0.4606943130493164,-2.1652257442474365,-0.027100441977381706,36.7157946,3.1835638,33.6,-5.54,-8.26,-1.58,88,235,10.079246520996094,9.953906059265137
20,-0.48786601424217224,-2.165696144104004,0.021464437246322632,36.7157199,3.1834246,36.08,-5.5,-8.26,-1.59,87,235,10.053640365600586,9.926888465881348
21,-0.42352116107940674,-2.1641016006469727,0.0027051405049860477,36.7156328,3.1832618,38.98,-5.51,-8.26,-1.6,87,236,10.067574501037598,9.938094139099121
22,-0.4492345452308655,-2.165955066680908,-0.017705876380205154,36.7155581,3.1831225,41.46,-5.54,-8.32,-1.62,87,235,10.135026931762695,10.004093170166016
23,-0.49253660440444946,-2.16351580619812,-0.007722413167357445,36.7154833,3.1829823,43.97,-5.51,-8.3,-1.62,86,236,10.103946685791016,9.972355842590332
24,-0.42898428440093994,-2.1634771823883057,0.028689995408058167,36.7153958,3.1828192,46.89,-5.51,-8.27,-1.63,86,236,10.081241607666016,9.948254585266113
25,-0.44240203499794006,-2.167353630065918,-0.022813675925135612,36.7153212,3.1826795,49.39,-5.51,-8.28,-1.63,85,235,10.08237075805664,9.949613571166992
26,-0.48122313618659973,-2.1639420986175537,0.0250020083039999,36.7152341,3.1825164,52.31,-5.48,-8.26,-1.63,85,236,10.0560302734375,9.92243480682373
27,-0.4393623173236847,-2.1649274826049805,0.03064420446753502,36.7151594,3.1823766,54.82,-5.51,-8.29,-1.63,84,235,10.097992897033691,9.965413093566895
28,-0.42323076725006104,-2.163405179977417,-0.015186641365289688,36.7150848,3.1822367,57.32,-5.52,-8.29,-1.63,84,236,10.099637985229492,9.967061996459961
29,-0.25621485710144043,-2.1679489612579346,0.025186218321323395,36.7150017,3.1820827,60.1,-4.68,-6.97,-1.39,83,235,8.517034530639648,8.401480674743652
30,-0.04093261808156967,-2.162562847137451,0.015462065115571022,36.7149494,3.1819852,61.76,-3.04,-4.6,-0.72,83,236,5.570531368255615,5.522975444793701
31,-0.16945302486419678,-2.116379976272583,0.026293795555830002,36.7149106,3.1819077,62.46,-2.17,-3.7,-0.13,83,238,4.29915714263916,4.2968878746032715
32,-0.1276409775018692,-2.1016008853912354,0.0012053832178935409,36.7148823,3.1818463,62.5,-2.08,-3.69,-0.01,82,239,4.237951278686523,4.237938404083252
33,-0.007751924451440573,-2.105273962020874,0.015010248869657516,36.7148511,3.1817784,62.48,-1.66,-2.91,0.09,82,239,3.356691598892212,3.35546612739563
34,0.03351152688264847,-2.330235481262207,-0.06614091992378235,36.7148323,3.1817433,61.61,-1.21,-1.36,1.17,82,226,2.1670756340026855,1.8227695226669312
35,-0.059056565165519714,-2.4796507358551025,0.007540409918874502,36.7148173,3.1817271,59.38,-1.03,-0.8,1.45,81,217,1.956817865371704,1.3051096200942993
36,-0.03536922484636307,-2.470766544342041,-0.022736452519893646,36.714801,3.1817118,56.76,-1.04,-0.83,1.42,81,218,1.9554380178451538,1.3399395942687988
37,-0.050137508660554886,-2.469825029373169,0.023471763357520103,36.7147867,3.1816976,54.52,-1.06,-0.87,1.43,81,218,1.989287257194519,1.3789750337600708
38,-0.05606650561094284,-2.4697952270507812,-0.016483565792441368,36.7147698,3.1816806,51.9,-1.07,-0.87,1.44,80,218,1.998753547668457,1.3824732303619385
39,-0.02681010775268078,-2.4694156646728516,0.028391312807798386,36.7147552,3.181666,49.66,-1.06,-0.87,1.45,80,218,2.003344774246216,1.3794548511505127
40,-0.0337282232940197,-2.4697036743164062,-0.02401779592037201,36.7147407,3.1816515,47.43,-1.07,-0.88,1.46,79,218,2.0223870277404785,1.393487572669983
41,-0.013451678678393364,-2.468916654586792,0.021015102043747902,36.7147236,3.1816341,44.81,-1.07,-0.89,1.47,79,218,2.0286524295806885,1.3959691524505615
42,-0.05438661575317383,-2.4696102142333984,-0.017202451825141907,36.714709,3.1816195,42.56,-1.06,-0.88,1.47,79,218,2.022625207901001,1.386907696723938
43,-0.009905043058097363,-2.4696121215820312,-0.007789301685988903,36.7146921,3.1816024,39.93,-1.06,-0.87,1.47,78,218,2.015861749649048,1.375484585762024
44,-0.05926568806171417,-2.469362258911133,-0.004752124194055796,36.7146775,3.1815877,37.68,-1.06,-0.89,1.47,78,218,2.02876353263855,1.3939502239227295
45,-0.012280359864234924,-2.4690043926239014,0.020436367020010948,36.7146629,3.1815729,35.43,-1.07,-0.88,1.47,78,218,2.0263023376464844,1.3918237686157227
46,-0.05811728909611702,-2.4694764614105225,0.015545994974672794,36.7146458,3.1815557,32.81,-1.06,-0.88,1.47,77,218,2.0217576026916504,1.3859506845474243
47,-0.009996011853218079,-2.4697117805480957,-0.0068716551177203655,36.7146313,3.181541,30.56,-1.06,-0.86,1.47,77,218,2.014800548553467,1.3737049102783203
48,-0.05016171187162399,-2.4696526527404785,0.029224757105112076,36.7146143,3.1815239,27.94,-1.06,-0.89,1.48,76,218,2.0321006774902344,1.3909616470336914
49,-0.01499436516314745,-2.469632625579834,-0.018217509612441063,36.7145997,3.1815091,25.69,-1.07,-0.88,1.47,76,218,2.031750440597534,1.3922048807144165
50,-0.1207394003868103,-3.127147674560547,-0.08011884987354279,36.7145784,3.1814958,23.19,-1.89,-0.11,1.09,76,180,2.192612886428833,1.9011422395706177
51,-0.2372288852930069,2.667534589767456,-0.04835212230682373,36.7145421,3.1815099,22.51,-3.43,1.69,-0.04,75,152,3.8346567153930664,3.834433078765869
52,-0.1835993081331253,2.6719555854797363,0.022818928584456444,36.7144899,3.1815425,22.61,-4.0,2.04,0.0,75,153,4.496189594268799,4.496189117431641
53,-0.04160190373659134,3.0059502124786377,0.17319972813129425,36.7144285,3.1815739,22.56,-3.49,0.46,0.04,75,172,3.527470350265503,3.5271387100219727
54,-0.3665618300437927,-2.2173843383789062,0.1486007273197174,36.7143865,3.1815509,22.54,-2.95,-3.44,0.01,74,232,4.533930778503418,4.5338873863220215
55,-0.509579062461853,-2.1498615741729736,-0.008946768939495087,36.7143308,3.181447,22.54,-4.25,-6.78,0.01,74,236,8.011075019836426,8.011068344116211
56,-0.473307728767395,-2.149768352508545,0.0292207058519125,36.7142678,3.181323,22.55,-4.91,-7.7,0.0,73,236,9.142216682434082,9.142215728759766
57,-0.3232702314853668,-2.1511008739471436,0.009585618041455746,36.7142015,3.1811944,22.57,-4.74,-7.34,0.0,73,236,8.74155044555664,8.741546630859375
58,-0.2436901032924652,-2.1478304862976074,-0.01915888302028179,36.7141423,3.1810802,22.57,-3.94,-6.14,0.03,73,236,7.306819915771484,7.306753635406494
59,-0.24617207050323486,-2.120649576187134,0.025874817743897438,36.7140856,3.1809659,22.54,-3.39,-5.66,0.01,72,238,6.609809875488281,6.609791278839111
60,-0.31202152371406555,-2.1090993881225586,0.012508469633758068,36.7140333,3.1808551,22.55,-3.27,-5.63,0.01,72,239,6.520002841949463,6.519992828369141
61,-0.1535136103630066,-2.1084234714508057,0.02631271630525589,36.7139892,3.180761,22.55,-3.08,-5.31,0.0,71,239,6.148528575897217,6.148528099060059
62,0.11151552200317383,-2.109048366546631,-0.028633352369070053,36.7139542,3.1806863,22.53,-1.85,-3.19,0.03,71,239,3.6955742835998535,3.6953608989715576
63,0.1346377283334732,-2.1081459522247314,0.005293472204357386,36.7139396,3.180655,22.53,-0.17,-0.3,-0.01,71,239,0.35262390971183777,0.3521518409252167
64,-0.030153555795550346,-2.1100804805755615,0.03231409192085266,36.7139403,3.1806559,22.51,0.16,0.11,0.03,70,239,0.20587341487407684,0.2019820660352707
