timestamp,pitch,yaw,roll,lat,lon,alt,velocity_x,velocity_y,velocity_z,battery,heading,airspeed,groundspeed
0,0.030591363087296486,0.025247912853956223,-0.006699880585074425,36.7156067,3.1846299,18.13,-0.02,0.03,0.02,96,1,0.04829275235533714,0.04231829568743706
1,-0.051591165363788605,0.03850438818335533,0.1299619823694229,36.715608,3.184633,18.15,0.33,0.63,0.0,95,2,0.7169198989868164,0.7169155478477478
2,-0.2263655662536621,1.4888707399368286,-0.1072702631354332,36.7156201,3.1846574,18.11,1.45,2.47,-0.02,95,85,2.868957042694092,2.8688676357269287
3,-0.1426733285188675,0.9856376051902771,-0.02725730650126934,36.7156495,3.1847185,18.16,2.07,3.46,-0.03,95,56,4.040904998779297,4.0407891273498535
4,0.044632066041231155,1.0040497779846191,0.025675948709249496,36.7156771,3.1847746,18.18,1.72,2.81,-0.01,94,57,3.301758289337158,3.3017232418060303
5,0.33995604515075684,1.37391197681427,0.10657216608524323,36.7156871,3.184795,18.17,-0.65,-0.87,0.0,94,78,1.0888922214508057,1.0888597965240479
6,-0.07120922952890396,-3.048184871673584,0.14739294350147247,36.715661,3.184748,18.21,-2.25,-3.22,-0.01,93,185,3.932708501815796,3.932671546936035
7,-0.13321180641651154,-1.9487779140472412,0.018614592030644417,36.7156308,3.1846921,18.2,-2.16,-3.25,0.0,93,248,3.9095234870910645,3.9095211029052734
8,-0.10172747820615768,-1.357276201248169,0.2287105917930603,36.7156141,3.1846306,18.18,0.58,-2.82,0.0,93,282,2.8814151287078857,2.8814070224761963
9,-0.43940499424934387,-0.6545117497444153,0.08837233483791351,36.7156478,3.1845814,18.18,4.33,-3.26,0.0,92,322,5.421345233917236,5.421343803405762
10,-0.47836586833000183,-0.6264727711677551,0.023267332464456558,36.7157251,3.1845134,18.18,6.85,-4.76,-0.01,92,324,8.342752456665039,8.342741966247559
11,-0.5121139883995056,-0.6197233200073242,-0.004732086323201656,36.7158442,3.18441,18.2,7.87,-5.52,0.0,91,324,9.6157865524292,9.615781784057617
12,-0.372869074344635,-0.6232059597969055,0.032772619277238846,36.7159494,3.1843171,18.22,7.5,-5.35,-0.01,91,324,9.221820831298828,9.221800804138184
13,-0.0391978919506073,-0.6341646909713745,-0.07372158020734787,36.7160513,3.1842266,18.24,4.91,-3.63,0.04,91,323,6.112314701080322,6.1121745109558105
14,0.027572203427553177,-1.0648490190505981,-0.23138223588466644,36.7160896,3.184182,18.33,1.57,-2.89,-0.21,90,298,3.3018484115600586,3.2950563430786133
15,-0.4098336100578308,-2.12918758392334,-0.09865552932024002,36.7160762,3.1841151,19.34,-2.98,-4.46,-0.92,90,238,5.451056957244873,5.371958255767822
16,-0.4536829888820648,-2.157708168029785,0.025959324091672897,36.71601,3.1839986,21.55,-5.04,-7.23,-1.5,89,236,8.945218086242676,8.818490028381348
17,-0.418244332075119,-2.163818359375,-0.024475248530507088,36.7159368,3.1838672,23.96,-5.53,-8.01,-1.61,89,236,9.874378204345703,9.74124813079834
18,-0.4884371757507324,-2.166334390640259,0.029142187908291817,36.7158489,3.1837065,26.84,-5.52,-8.22,-1.58,88,235,10.03404426574707,9.908199310302734
19,-0.4401880204677582,-2.1634275913238525,0.030851351097226143,36.7157739,3.183567,29.31,-5.54,-8.27,-1.59,88,236,10.085162162780762,9.958322525024414
20,-0.4735803008079529,-2.1643881797790527,-0.02545993961393833,36.7156866,3.183404,32.19,-5.51,-8.26,-1.6,87,235,10.062475204467773,9.933089256286621
21,-0.4886355996131897,-2.166506767272949,0.026301570236682892,36.715612,3.1832648,34.68,-5.53,-8.25,-1.61,87,235,10.070984840393066,9.940218925476074
22,-0.43781155347824097,-2.1656925678253174,0.03169546648859978,36.7155371,3.1831251,37.18,-5.51,-8.28,-1.62,87,235,10.087389945983887,9.955155372619629
23,-0.4700253903865814,-2.164653778076172,-0.029250552877783775,36.7154499,3.1829618,40.09,-5.5,-8.28,-1.62,86,235,10.076818466186523,9.944243431091309
24,-0.485355943441391,-2.164395332336426,0.020157435908913612,36.7153753,3.1828221,42.59,-5.49,-8.26,-1.63,86,235,10.059232711791992,9.925207138061523
25,-0.42986011505126953,-2.1640727519989014,-0.009872131049633026,36.7152884,3.1826595,45.51,-5.53,-8.31,-1.63,85,236,10.122032165527344,9.988295555114746
26,-0.46061164140701294,-2.163609504699707,-0.024905826896429062,36.7152133,3.1825193,48.01,-5.53,-8.3,-1.63,85,236,10.115459442138672,9.981635093688965
27,-0.4905608296394348,-2.1641921997070312,0.022057633846998215,36.7151386,3.1823795,50.52,-5.5,-8.27,-1.64,84,236,10.077451705932617,9.94295597076416
28,-0.40520229935646057,-2.1634328365325928,-0.006113596726208925,36.7150516,3.1822167,53.45,-5.5,-8.23,-1.63,84,236,10.044815063476562,9.911194801330566
29,-0.2521534562110901,-2.168678045272827,-0.018178747966885567,36.7149812,3.1820864,55.8,-4.68,-6.93,-1.39,83,235,8.48574447631836,8.37037467956543
30,-0.03893928974866867,-2.1555469036102295,0.017486969009041786,36.7149229,3.1819772,57.61,-2.78,-4.29,-0.6,83,236,5.157322406768799,5.121428966522217
31,-0.16136755049228668,-2.1024370193481445,-0.0021822478156536818,36.7148913,3.1819122,58.13,-2.1,-3.7,-0.12,83,239,4.260147571563721,4.258182048797607
32,-0.12986800074577332,-2.08691143989563,-0.010712306946516037,36.7148594,3.1818406,58.16,-2.01,-3.69,-0.01,82,240,4.212472915649414,4.212453365325928
33,-0.01885814033448696,-2.0912342071533203,-0.006231442093849182,36.714834,3.1817832,58.13,-1.58,-2.89,0.11,82,240,3.3003990650177,3.298340082168579
34,0.037592776119709015,-2.340132474899292,-0.04643486440181732,36.7148158,3.1817487,57.2,-1.21,-1.34,1.2,82,225,2.176388740539551,1.8122937679290771
35,-0.05397464707493782,-2.473370313644409,0.021615395322442055,36.7147983,3.1817305,54.58,-1.04,-0.79,1.43,81,218,1.949394941329956,1.318626046180725
36,-0.018670694902539253,-2.4764010906219482,-0.01707543060183525,36.7147841,3.1817173,52.35,-1.06,-0.84,1.43,81,218,1.9760854244232178,1.359081506729126
37,-0.025122202932834625,-2.4751837253570557,0.02345341257750988,36.7147671,3.1817007,49.74,-1.07,-0.86,1.44,81,218,2.0024795532226562,1.3856089115142822
38,-0.044846754521131516,-2.4757251739501953,-0.02027539722621441,36.7147524,3.1816862,47.49,-1.09,-0.88,1.44,80,218,2.0208051204681396,1.4092787504196167
39,-0.044429976493120193,-2.4754128456115723,0.024739770218729973,36.7147377,3.1816715,45.25,-1.07,-0.87,1.45,80,218,2.0149097442626953,1.3916774988174438
40,-0.06043368950486183,-2.475404977798462,-0.0064973486587405205,36.7147204,3.1816543,42.64,-1.08,-0.88,1.46,79,218,2.02941632270813,1.4011045694351196
41,-0.014516892842948437,-2.474994659423828,0.016898496076464653,36.7147057,3.1816397,40.39,-1.07,-0.87,1.46,79,218,2.021303415298462,1.3887436389923096
42,-0.05702872574329376,-2.4757585525512695,0.0210558008402586,36.7146885,3.1816226,37.77,-1.07,-0.89,1.47,79,218,2.0311129093170166,1.3958940505981445
43,-0.012633352540433407,-2.475508689880371,-0.0072267367504537106,36.7146738,3.1816078,35.52,-1.08,-0.88,1.47,78,218,2.036997079849243,1.4016791582107544
44,-0.06074704974889755,-2.4755730628967285,0.007200317922979593,36.7146589,3.1815931,33.27,-1.07,-0.88,1.47,78,218,2.0336356163024902,1.398173213005066
45,-0.030430197715759277,-2.475947141647339,-0.027797332033514977,36.7146417,3.181576,30.64,-1.07,-0.87,1.47,78,218,2.025411605834961,1.3899134397506714
46,-0.04660588502883911,-2.4759132862091064,0.026210175827145576,36.714627,3.1815612,28.4,-1.06,-0.89,1.48,77,218,2.033092498779297,1.3905771970748901
47,-0.05556347593665123,-2.475775957107544,-0.015563169494271278,36.7146098,3.181544,25.77,-1.08,-0.89,1.47,77,218,2.0403127670288086,1.4070124626159668
48,-0.027026519179344177,-2.4753665924072266,0.02933461032807827,36.7145949,3.1815293,23.52,-1.07,-0.88,1.47,77,218,2.0286576747894287,1.3934502601623535
49,-0.04170439764857292,-2.475616693496704,-0.025530269369482994,36.7145802,3.1815147,21.28,-1.07,-0.87,1.47,76,218,2.026967763900757,1.3873690366744995
50,-0.11393965780735016,3.1235313415527344,-0.10595586895942688,36.7145584,3.1815018,18.8,-1.95,-0.06,1.05,76,178,2.2195088863372803,1.9519013166427612
51,-0.254151314496994,2.6684463024139404,-0.017932573333382607,36.7145215,3.1815169,18.18,-3.49,1.7,-0.04,75,152,3.8869218826293945,3.8866467475891113
52,-0.12705793976783752,2.6720051765441895,-0.020303163677453995,36.7144598,3.1815553,18.27,-4.0,2.04,0.03,75,153,4.500706672668457,4.500560760498047
53,-0.050140317529439926,3.031780481338501,0.22184009850025177,36.7144079,3.1815801,18.22,-3.47,0.36,0.05,75,173,3.498239278793335,3.4978811740875244
54,-0.4159761071205139,-2.191387414932251,0.06398753076791763,36.7143593,3.1815442,18.2,-3.08,-4.16,0.01,74,233,4.6290082931518555,4.62897253036499
55,-0.5014676451683044,-2.152165651321411,0.034742023795843124,36.7143096,3.1814492,18.2,-4.29,-6.83,0.0,74,236,8.07398509979248,8.073980331420898
56,-0.431207537651062,-2.1491892337799072,0.017981255427002907,36.7142464,3.1813247,18.21,-4.91,-7.7,0.0,73,236,9.140983581542969,9.140982627868652
57,-0.35681697726249695,-2.152968645095825,-0.0042735859751701355,36.7141696,3.181176,18.23,-4.6,-7.08,0.0,73,236,8.446568489074707,8.446569442749023
58,-0.2197430580854416,-2.1443233489990234,0.03705174848437309,36.7141128,3.1810658,18.22,-3.75,-5.94,0.02,73,237,7.0287766456604,7.028728008270264
59,-0.297972708940506,-2.118241548538208,0.010499604046344757,36.7140572,3.1809529,18.2,-3.35,-5.65,0.0,72,238,6.577968120574951,6.5779619216918945
60,-0.2656761705875397,-2.1083366870880127,0.028514105826616287,36.7140126,3.1808581,18.2,-3.27,-5.66,0.0,72,239,6.539634704589844,6.53963041305542
61,-0.16624446213245392,-2.10832142829895,-0.028403768315911293,36.7139687,3.180764,18.21,-3.07,-5.28,0.0,71,239,6.109781742095947,6.109781265258789
62,0.18543650209903717,-2.109318733215332,0.006124724633991718,36.7139304,3.1806824,18.18,-1.49,-2.55,0.02,71,239,2.9603497982025146,2.96020245552063
63,0.07883747667074203,-2.1084635257720947,-0.014226648025214672,36.7139204,3.1806608,18.19,-0.14,-0.26,-0.02,71,239,0.30370649695396423,0.3030291795730591
64,0.015611637383699417,-2.108363151550293,0.05415809154510498,36.7139216,3.180662,18.16,0.28,0.01,0.03,70,239,0.2864536941051483,0.28437432646751404
