timestamp,pitch,yaw,roll,lat,lon,alt,velocity_x,velocity_y,velocity_z,battery,heading,airspeed,groundspeed
0,0.029514485970139503,-0.012254220433533192,0.0079908836632967,36.7156067,3.1846299,20.38,-0.03,0.03,0.02,96,359,0.05294524505734444,0.046438559889793396
1,-0.08308789134025574,-0.020303666591644287,0.0879966989159584,36.7156075,3.1846318,20.33,0.27,0.47,0.0,95,358,0.553063154220581,0.5530123114585876
2,-0.2207370102405548,1.4796648025512695,-0.13346409797668457,36.7156216,3.184659,20.3,1.65,2.51,-0.02,95,84,3.012230634689331,3.012103796005249
3,-0.14304828643798828,0.8662728667259216,0.01531918067485094,36.7156497,3.1847111,20.34,2.32,3.49,-0.03,95,49,4.196572303771973,4.1964030265808105
4,0.013361485674977303,0.9613888263702393,0.03068835474550724,36.7156865,3.1847782,20.37,2.0,2.97,-0.01,94,55,3.5887253284454346,3.5886855125427246
5,0.3791368007659912,0.9675294756889343,-0.0220476221293211,36.7157005,3.184803,20.36,-0.37,-0.55,0.01,94,55,0.666461169719696,0.6663413047790527
6,-0.016269071027636528,-0.6833257079124451,-0.1610410362482071,36.7156813,3.1847678,20.39,-2.14,-3.07,-0.03,93,320,3.7484993934631348,3.7483463287353516
7,-0.1262933760881424,-2.3673033714294434,0.053980134427547455,36.7156461,3.1847038,20.4,-2.2,-3.27,0.01,93,224,3.951134204864502,3.9511024951934814
8,-0.008590614423155785,-1.612566590309143,0.1965608149766922,36.7156267,3.1846497,20.38,-0.32,-2.94,0.01,93,267,2.967482328414917,2.9674577713012695
9,-0.3981940746307373,-0.6475502848625183,0.10559752583503723,36.7156562,3.1845933,20.37,4.04,-3.15,0.0,92,322,5.130118370056152,5.130117416381836
10,-0.4912855625152588,-0.6211797595024109,-0.017006615176796913,36.7157304,3.1845276,20.37,6.69,-4.62,0.0,92,324,8.139142990112305,8.139140129089355
11,-0.49105703830718994,-0.6158927083015442,0.025064997375011444,36.7158481,3.1844261,20.39,7.87,-5.48,0.0,91,324,9.602025985717773,9.602025032043457
12,-0.36647871136665344,-0.6194416880607605,-0.007884131744503975,36.7159541,3.1843331,20.41,7.64,-5.38,-0.02,91,324,9.349830627441406,9.349802017211914
13,-0.12131906300783157,-0.6221230030059814,-0.019999463111162186,36.7160471,3.184251,20.44,5.75,-4.09,0.03,91,324,7.061004161834717,7.0609331130981445
14,0.04516010731458664,-1.139487624168396,-0.29026442766189575,36.7161065,3.184186,20.54,1.32,-2.86,-0.23,90,294,3.170714855194092,3.1616814136505127
15,-0.3989636301994324,-2.126283884048462,-0.058458391577005386,36.7160963,3.18413,21.38,-2.64,-4.21,-0.85,90,238,5.048611640930176,4.97591495513916
16,-0.4742268919944763,-2.1592319011688232,-0.0346628837287426,36.7160335,3.1840189,23.5,-4.91,-7.02,-1.45,89,236,8.69775390625,8.5756254196167
17,-0.4864388406276703,-2.162696123123169,-0.0069756885059177876,36.715961,3.1838892,25.89,-5.52,-8.02,-1.6,89,236,9.87596607208252,9.743910789489746
18,-0.45944511890411377,-2.1637766361236572,0.03537672385573387,36.715886,3.1837521,28.36,-5.53,-8.19,-1.57,88,236,10.015643119812012,9.890413284301758
19,-0.4612455368041992,-2.163925886154175,-0.029395349323749542,36.7157981,3.1835892,31.22,-5.56,-8.27,-1.59,88,236,10.099976539611816,9.973404884338379
20,-0.4857386350631714,-2.164738893508911,0.014429718255996704,36.7157229,3.1834492,33.69,-5.5,-8.25,-1.61,88,235,10.050518035888672,9.920415878295898
21,-0.4260179102420807,-2.1634750366210938,0.0003123641072306782,36.715636,3.1832869,36.6,-5.49,-8.23,-1.61,87,236,10.025032043457031,9.89368724822998
22,-0.4714500308036804,-2.163917303085327,-0.03128601610660553,36.7155617,3.1831478,39.1,-5.53,-8.29,-1.61,87,236,10.099189758300781,9.969018936157227
23,-0.4466739296913147,-2.165213108062744,0.041529543697834015,36.715474,3.1829843,42.01,-5.52,-8.29,-1.63,86,235,10.103578567504883,9.96998405456543
24,-0.4273219108581543,-2.163191318511963,-0.012602492235600948,36.7153994,3.1828444,44.51,-5.5,-8.27,-1.63,86,236,10.075735092163086,9.941795349121094
25,-0.48541757464408875,-2.165928602218628,-0.018181702122092247,36.7153249,3.1827053,47.02,-5.52,-8.27,-1.62,85,235,10.085267066955566,9.953314781188965
26,-0.4533075988292694,-2.1649396419525146,0.04143282771110535,36.7152375,3.1825419,49.93,-5.53,-8.31,-1.64,85,235,10.126691818237305,9.992600440979004
27,-0.4296281337738037,-2.1651296615600586,-0.01713920757174492,36.7151627,3.1824015,52.44,-5.51,-8.29,-1.64,84,235,10.097596168518066,9.962994575500488
28,-0.46930980682373047,-2.164116859436035,0.020986953750252724,36.7150757,3.1822389,55.36,-5.51,-8.26,-1.63,84,236,10.074938774108887,9.940751075744629
29,-0.23235145211219788,-2.1686177253723145,0.020864639431238174,36.7150041,3.1821064,57.76,-4.82,-7.16,-1.43,83,235,8.757698059082031,8.639182090759277
30,-0.09049788117408752,-2.16147780418396,0.022800544276833534,36.7149432,3.1819921,59.69,-2.91,-4.47,-0.68,83,235,5.791034698486328,5.736538410186768
31,-0.11601098626852036,-2.1185142993927,0.014881216920912266,36.7149101,3.181926,60.29,-2.21,-3.7,-0.16,83,238,4.318635940551758,4.315436363220215
32,-0.18251116573810577,-2.1016268730163574,-0.0031266557052731514,36.7148815,3.1818644,60.36,-2.07,-3.68,0.0,82,239,4.227752208709717,4.227750778198242
33,0.00879843719303608,-2.1035966873168945,-0.02702188678085804,36.7148499,3.1817956,60.34,-1.72,-3.02,0.05,82,239,3.486708879470825,3.486345052719116
34,-0.001002269214950502,-2.2945477962493896,-0.026515206322073936,36.7148306,3.1817585,59.61,-1.21,-1.47,1.06,82,228,2.1852362155914307,1.9096477031707764
35,-0.011277277022600174,-2.4850072860717773,-0.015980632975697517,36.7148154,3.1817411,57.44,-1.03,-0.8,1.47,81,217,1.9701452255249023,1.311608910560608
36,-0.02680317871272564,-2.4715800285339355,0.029529714956879616,36.714799,3.1817257,54.82,-1.03,-0.81,1.43,81,218,1.9507774114608765,1.3177534341812134
37,-0.04389806091785431,-2.47050142288208,-0.02243666909635067,36.7147847,3.1817118,52.58,-1.06,-0.87,1.44,81,218,1.9988325834274292,1.377564787864685
38,-0.009361802600324154,-2.4701988697052,0.002437039976939559,36.7147679,3.1816948,49.96,-1.07,-0.88,1.44,80,218,2.0082180500030518,1.3895896673202515
39,-0.05927294120192528,-2.4696106910705566,-0.0048948111943900585,36.7147533,3.1816802,47.73,-1.06,-0.89,1.46,80,218,2.02101731300354,1.3946506977081299
40,-0.028622020035982132,-2.469996690750122,-0.023499920964241028,36.7147363,3.1816631,45.1,-1.07,-0.89,1.46,79,218,2.0240790843963623,1.3921619653701782
41,-0.047877609729766846,-2.470013380050659,0.026310406625270844,36.7147217,3.1816484,42.85,-1.06,-0.89,1.46,79,218,2.020120143890381,1.3896455764770508
42,-0.019419293850660324,-2.47052264213562,-0.0203741155564785,36.7147071,3.1816338,40.61,-1.07,-0.88,1.47,79,218,2.0258710384368896,1.3919789791107178
43,-0.014452282339334488,-2.469654083251953,0.02163214236497879,36.7146901,3.1816165,38.0,-1.06,-0.88,1.48,78,218,2.026265859603882,1.381189227104187
44,-0.05066128447651863,-2.46977162361145,-0.021610431373119354,36.7146756,3.1816019,35.74,-1.06,-0.89,1.47,78,218,2.029771566390991,1.3920823335647583
45,-0.03156120702624321,-2.4696834087371826,0.0275815911591053,36.714661,3.1815872,33.49,-1.06,-0.88,1.47,78,218,2.0276877880096436,1.3889501094818115
46,-0.06140042096376419,-2.469977855682373,0.00501668406650424,36.7146439,3.18157,30.87,-1.06,-0.88,1.48,77,218,2.0309016704559326,1.3863213062286377
47,-0.01210926566272974,-2.469744920730591,0.007359101437032223,36.7146294,3.1815553,28.62,-1.06,-0.87,1.48,77,218,2.0263733863830566,1.3836289644241333
48,-0.04551609978079796,-2.469937562942505,0.028035784140229225,36.7146124,3.1815382,25.99,-1.05,-0.89,1.47,76,218,2.0248818397521973,1.3871713876724243
49,-0.02334960177540779,-2.4703333377838135,-0.023640958592295647,36.7145978,3.1815234,23.74,-1.07,-0.86,1.48,76,218,2.024292469024658,1.3805195093154907
50,-0.09599778801202774,-3.036107301712036,-0.08752598613500595,36.7145774,3.1815092,21.2,-1.78,-0.26,1.19,76,186,2.1602835655212402,1.800917387008667
51,-0.25662118196487427,2.668128728866577,-0.043364837765693665,36.714543,3.1815206,20.36,-3.35,1.57,0.0,75,152,3.7050108909606934,3.7050108909606934
52,-0.14210137724876404,2.671895980834961,-0.01897112838923931,36.7144825,3.1815581,20.46,-4.0,2.04,0.01,75,153,4.499948978424072,4.499927043914795
53,-0.05880294367671013,2.935605525970459,0.18039020895957947,36.7144298,3.1815858,20.41,-3.59,0.72,0.05,75,168,3.6647965908050537,3.6644136905670166
54,-0.3234880566596985,-2.25514817237854,0.1386522799730301,36.7143868,3.1815685,20.39,-2.96,-3.07,0.02,74,230,4.272705078125,4.2726545333862305
55,-0.5021246075630188,-2.150674343109131,0.03330320119857788,36.7143319,3.18147,20.39,-4.19,-6.6,0.01,74,236,7.826013088226318,7.826005935668945
56,-0.4322810769081116,-2.1519412994384766,0.013418547809123993,36.7142692,3.1813475,20.4,-4.93,-7.67,0.0,73,236,9.123178482055664,9.123178482055664
57,-0.3652793765068054,-2.1577157974243164,0.005367477424442768,36.7141913,3.1811981,20.42,-4.75,-7.23,0.0,73,236,8.660552978515625,8.660548210144043
58,-0.20902517437934875,-2.149548292160034,0.035140782594680786,36.7141325,3.1810857,20.41,-3.87,-6.05,0.02,73,236,7.187869548797607,7.187828063964844
59,-0.2956121563911438,-2.115565776824951,0.02083195000886917,36.7140764,3.180972,20.39,-3.32,-5.64,0.0,72,238,6.555099010467529,6.555091857910156
60,-0.2544828951358795,-2.100221633911133,0.018404098227620125,36.7140324,3.1808772,20.39,-3.2,-5.62,0.0,72,239,6.478453159332275,6.478449821472168
61,-0.21039986610412598,-2.100362777709961,-0.021936578676104546,36.7139891,3.1807829,20.39,-3.09,-5.43,0.0,71,239,6.251257419586182,6.251256465911865
62,0.1656840294599533,-2.101830244064331,-0.01147771067917347,36.7139491,3.1806956,20.37,-1.69,-2.98,0.03,71,239,3.4338459968566895,3.433650493621826
63,0.08896318823099136,-2.1003518104553223,0.005059860181063414,36.7139368,3.1806687,20.38,-0.26,-0.46,-0.02,71,239,0.5299065113067627,0.5294080972671509
64,-0.0017361961072310805,-2.1010329723358154,0.026808656752109528,36.7139372,3.1806689,20.36,0.2,0.08,0.04,70,239,0.22429737448692322,0.22032779455184937
