timestamp,pitch,yaw,roll,lat,lon,alt,velocity_x,velocity_y,velocity_z,battery,heading,airspeed,groundspeed
0,0.02112492360174656,0.03583604842424393,-0.02015055902302265,36.7156067,3.1846299,17.82,-0.03,0.02,0.0,96,2,0.042925477027893066,0.04251157119870186
1,-0.05925107002258301,0.08881229162216187,0.12310265749692917,36.7156085,3.1846334,17.86,0.43,0.7,0.0,95,5,0.8274973630905151,0.8274785280227661
2,-0.23254728317260742,1.4260010719299316,-0.0751703605055809,36.7156227,3.1846598,17.83,1.66,2.57,-0.02,95,81,3.070995330810547,3.0709052085876465
3,-0.14904619753360748,0.9343161582946777,-0.024080272763967514,36.7156502,3.1847123,17.86,2.25,3.47,-0.03,95,53,4.1376953125,4.137582778930664
4,0.08027651906013489,0.9750605821609497,0.02546689286828041,36.7156856,3.1847779,17.88,1.88,2.76,-0.01,94,55,3.341642141342163,3.3416271209716797
5,0.334013968706131,1.01900315284729,-0.001260822988115251,36.7156968,3.1847975,17.87,-0.61,-0.92,0.0,94,58,1.112825632095337,1.1127961874008179
6,-0.014238654635846615,2.7699289321899414,0.20189709961414337,36.7156755,3.1847589,17.9,-2.17,-3.13,-0.03,93,158,3.8127598762512207,3.8126370906829834
7,-0.11180242896080017,-1.9171826839447021,0.043817877769470215,36.7156403,3.1846938,17.89,-2.12,-3.24,0.0,93,250,3.881852865219116,3.881849527359009
8,-0.03471020236611366,-1.6104967594146729,0.19701649248600006,36.7156231,3.1846406,17.88,0.0,-2.89,0.0,93,267,2.894382953643799,2.894379138946533
9,-0.38795119524002075,-0.6480321288108826,0.06874829530715942,36.7156578,3.1845839,17.87,4.34,-3.24,0.0,92,322,5.4228057861328125,5.422801494598389
10,-0.533768892288208,-0.6250408887863159,-0.0080812256783247,36.7157352,3.1845162,17.88,6.86,-4.74,0.0,92,324,8.347724914550781,8.347719192504883
11,-0.46477776765823364,-0.6175788044929504,0.019318044185638428,36.7158543,3.1844132,17.9,7.88,-5.53,-0.01,91,324,9.629271507263184,9.629265785217285
12,-0.37715059518814087,-0.6199846267700195,-0.026959896087646484,36.7159603,3.1843202,17.93,7.51,-5.32,-0.01,91,324,9.210945129394531,9.210925102233887
13,-0.08425473421812057,-0.6228840351104736,0.0014807282714173198,36.7160509,3.1842403,17.95,5.48,-3.92,0.04,91,324,6.7475996017456055,6.747472286224365
14,-0.04258089140057564,-1.2459385395050049,-0.30205023288726807,36.716105,3.1841773,18.09,0.91,-2.9,-0.28,90,288,3.05509090423584,3.042071580886841
15,-0.37436121702194214,-2.13175106048584,-0.04194773733615875,36.7160897,3.184119,19.01,-2.93,-4.42,-0.91,90,237,5.391726493835449,5.313970565795898
16,-0.5165048241615295,-2.160747528076172,-0.010633869096636772,36.716024,3.1840036,21.21,-4.99,-7.18,-1.48,89,236,8.876351356506348,8.751527786254883
17,-0.46144089102745056,-2.163604736328125,0.03588788956403732,36.715951,3.1838722,23.62,-5.5,-8.04,-1.61,89,236,9.880352020263672,9.747605323791504
18,-0.4550497531890869,-2.163661003112793,-0.03327508270740509,36.7158634,3.1837112,26.49,-5.54,-8.21,-1.57,88,236,10.039117813110352,9.914168357849121
19,-0.46403050422668457,-2.163663387298584,-0.033169183880090714,36.7158007,3.1835949,28.55,-5.55,-8.25,-1.58,88,236,10.074130058288574,9.948248863220215
20,-0.44372695684432983,-2.1652441024780273,0.03499726206064224,36.7157133,3.1834323,31.44,-5.51,-8.24,-1.6,88,235,10.045230865478516,9.916131973266602
21,-0.4695974886417389,-2.165426254272461,-0.02730846405029297,36.7156261,3.1832696,34.34,-5.51,-8.28,-1.6,87,235,10.084981918334961,9.95566463470459
22,-0.48789337277412415,-2.162668228149414,0.021104181185364723,36.7155517,3.1831303,36.84,-5.51,-8.29,-1.61,87,236,10.087845802307129,9.958361625671387
23,-0.43315836787223816,-2.164320468902588,-0.014732398092746735,36.7154643,3.1829672,39.75,-5.53,-8.3,-1.62,86,236,10.111909866333008,9.98076057434082
24,-0.48071759939193726,-2.1620800495147705,-0.023996887728571892,36.7153894,3.1828271,42.25,-5.5,-8.29,-1.62,86,236,10.091239929199219,9.959440231323242
25,-0.4345170855522156,-2.167550563812256,0.03564564511179924,36.7153022,3.1826642,45.17,-5.52,-8.26,-1.63,85,235,10.05518627166748,9.921797752380371
26,-0.43364039063453674,-2.164431571960449,-0.011408333666622639,36.7152275,3.1825244,47.67,-5.51,-8.3,-1.64,85,235,10.108946800231934,9.974764823913574
27,-0.48617443442344666,-2.163264036178589,-0.010522245429456234,36.7151529,3.1823842,50.17,-5.51,-8.29,-1.63,84,236,10.093109130859375,9.959528923034668
28,-0.40375059843063354,-2.164273977279663,0.01429253350943327,36.7150656,3.1822216,53.1,-5.51,-8.23,-1.63,84,236,10.04687213897705,9.912585258483887
29,-0.23624490201473236,-2.1674602031707764,-0.027978230267763138,36.7149952,3.1820908,55.46,-4.67,-6.98,-1.39,83,235,8.522093772888184,8.406359672546387
30,-0.08486675471067429,-2.162569522857666,0.025844786316156387,36.714943,3.1819932,57.13,-3.03,-4.6,-0.72,83,236,5.560443878173828,5.513370037078857
31,-0.15823417901992798,-2.1158554553985596,-0.005304350052028894,36.7149041,3.1819158,57.83,-2.17,-3.7,-0.13,83,238,4.301706790924072,4.2996907234191895
32,-0.1446300745010376,-2.1015427112579346,0.02704267017543316,36.7148759,3.1818544,57.86,-2.08,-3.67,0.0,82,239,4.225712776184082,4.225706577301025
33,-0.020234717056155205,-2.105438232421875,-0.004707494284957647,36.7148446,3.1817865,57.84,-1.66,-2.91,0.09,82,239,3.3553593158721924,3.3539834022521973
34,0.042055390775203705,-2.3304524421691895,-0.045651599764823914,36.7148258,3.1817515,56.96,-1.21,-1.36,1.16,82,226,2.168789863586426,1.82672119140625
35,-0.06007613241672516,-2.4794418811798096,0.0004626523586921394,36.7148109,3.1817353,54.73,-1.03,-0.79,1.45,81,217,1.956186294555664,1.305189847946167
36,-0.03562997654080391,-2.4707274436950684,-0.02139335684478283,36.7147946,3.18172,52.12,-1.04,-0.83,1.42,81,218,1.9599372148513794,1.342583179473877
37,-0.04776592180132866,-2.4701638221740723,0.027803776785731316,36.7147804,3.1817058,49.87,-1.06,-0.87,1.43,81,218,1.9925966262817383,1.3814342021942139
38,-0.060501523315906525,-2.469606876373291,-0.011720104143023491,36.7147633,3.1816887,47.26,-1.07,-0.88,1.44,80,218,2.004734992980957,1.3905750513076782
39,-0.017439575865864754,-2.4692392349243164,0.02039775252342224,36.7147488,3.1816741,45.02,-1.07,-0.87,1.45,80,218,2.002250909805298,1.3805217742919922
40,-0.051414720714092255,-2.4699251651763916,0.0243822168558836,36.7147318,3.181657,42.39,-1.06,-0.88,1.45,79,218,2.0112743377685547,1.388844609260559
41,-0.01305494736880064,-2.4696662425994873,-0.01600547693669796,36.7147172,3.1816424,40.15,-1.07,-0.88,1.46,79,218,2.0164270401000977,1.3900378942489624
42,-0.019457397982478142,-2.469670534133911,0.02471689134836197,36.7147002,3.1816252,37.54,-1.06,-0.88,1.46,79,218,2.0166900157928467,1.3832684755325317
43,-0.047186657786369324,-2.4690933227539062,-0.02751339226961136,36.7146856,3.1816105,35.3,-1.07,-0.88,1.47,78,218,2.029127597808838,1.3894422054290771
44,-0.021200254559516907,-2.469297170639038,0.025850888341665268,36.714671,3.1815957,33.04,-1.06,-0.88,1.47,78,218,2.021791934967041,1.379264235496521
45,-0.058385033160448074,-2.4697344303131104,0.009839855134487152,36.714654,3.1815786,30.42,-1.06,-0.88,1.47,78,218,2.0220160484313965,1.3808763027191162
46,-0.008003165945410728,-2.469552755355835,-0.0019995153415948153,36.7146394,3.1815639,28.17,-1.06,-0.87,1.47,77,218,2.0198872089385986,1.3795380592346191
47,-0.030855583027005196,-2.4700217247009277,0.027502259239554405,36.7146224,3.1815467,25.54,-1.06,-0.88,1.47,77,218,2.0248405933380127,1.387937307357788
48,-0.0278693325817585,-2.469419240951538,-0.022742988541722298,36.7146079,3.181532,23.29,-1.06,-0.88,1.46,77,218,2.0206007957458496,1.3869307041168213
49,-0.03915097564458847,-2.4697978496551514,0.028434809297323227,36.7145932,3.1815172,21.04,-1.06,-0.87,1.47,76,218,2.0187838077545166,1.3816016912460327
50,-0.16581206023693085,-3.118220806121826,-0.12518836557865143,36.7145719,3.181504,18.55,-1.9,-0.12,1.08,76,181,2.1992242336273193,1.9103269577026367
51,-0.20417745411396027,2.674576759338379,-0.01267547532916069,36.7145355,3.1815178,17.88,-3.46,1.65,-0.03,75,153,3.8378734588623047,3.83769154548645
52,-0.18510159850120544,2.6790223121643066,0.02432481199502945,36.7144735,3.1815559,17.98,-4.06,2.03,0.03,75,153,4.547915458679199,4.547739505767822
53,-0.009152979589998722,2.9945287704467773,0.16544987261295319,36.7144205,3.181582,17.92,-3.55,0.53,0.05,75,171,3.596297264099121,3.5958898067474365
54,-0.3987261950969696,-2.2338829040527344,0.1529320478439331,36.714378,3.1815607,17.9,-2.95,-3.33,0.02,74,232,4.4548821449279785,4.45482063293457
55,-0.48261457681655884,-2.1480889320373535,-0.023631306365132332,36.7143227,3.1814584,17.9,-4.23,-6.72,0.01,74,236,7.945653915405273,7.945642471313477
56,-0.4929232597351074,-2.1490375995635986,0.013093238696455956,36.7142599,3.1813347,17.91,-4.9,-7.7,0.0,73,236,9.133051872253418,9.133051872253418
57,-0.30836889147758484,-2.1525278091430664,-0.015402725897729397,36.714183,3.1811855,17.93,-4.64,-7.16,0.0,73,236,8.539941787719727,8.53994083404541
58,-0.26350387930870056,-2.1454057693481445,0.022880785167217255,36.7141254,3.1810742,17.93,-3.8,-5.98,0.03,73,236,7.3379950523376465,7.337930679321289
59,-0.24411819875240326,-2.115496873855591,0.02635638602077961,36.7140777,3.1809769,17.9,-3.34,-5.67,0.01,72,238,6.585622787475586,6.585599899291992
60,-0.30790868401527405,-2.099977493286133,0.01994166523218155,36.7140264,3.180866,17.91,-3.22,-5.66,0.01,72,239,6.518385410308838,6.518373966217041
61,-0.14663255214691162,-2.0999293327331543,0.0001937143679242581,36.713983,3.1807714,17.91,-3.06,-5.34,0.0,71,239,6.157707691192627,6.157707691192627
62,0.1448950320482254,-2.1006197929382324,0.030498141422867775,36.7139442,3.1806873,17.88,-1.57,-2.73,0.03,71,239,3.1529541015625,3.152780055999756
63,0.11871220916509628,-2.1006577014923096,-0.026261573657393456,36.7139334,3.1806633,17.89,-0.18,-0.34,-0.01,71,239,0.3948969542980194,0.39443132281303406
64,0.01827770471572876,-2.099177122116089,0.08031511306762695,36.7139342,3.1806643,17.86,0.24,0.03,0.03,70,239,0.2506331503391266,0.2476472705602646
