timestamp,pitch,yaw,roll,lat,lon,alt,velocity_x,velocity_y,velocity_z,battery,heading,airspeed,groundspeed
0,0.010940689593553543,0.03831194341182709,-0.01930367946624756,36.7156067,3.1846299,21.18,-0.02,0.02,-0.03,96,2,0.04909271374344826,0.037714242935180664
1,-0.05683645233511925,0.029853105545043945,0.11538001149892807,36.7156077,3.1846319,21.12,0.25,0.48,-0.02,95,1,0.548521876335144,0.5481176376342773
2,-0.22747200727462769,1.451261043548584,-0.06386362761259079,36.7156218,3.1846585,21.15,1.55,2.47,-0.04,95,83,2.9209158420562744,2.9206109046936035
3,-0.14916583895683289,0.9235590100288391,-0.024496447294950485,36.7156477,3.1847097,21.17,2.12,3.37,-0.02,95,52,3.991288900375366,3.991227388381958
4,0.10683251172304153,0.985578179359436,0.020971165969967842,36.7156808,3.1847734,21.17,1.74,2.64,0.0,94,56,3.1673197746276855,3.167311906814575
5,0.32017427682876587,1.1766403913497925,0.05791613459587097,36.71569,3.1847901,21.2,-0.74,-1.1,-0.02,94,67,1.3347258567810059,1.3345084190368652
6,-0.07143580913543701,3.1016900539398193,0.10824553668498993,36.715663,3.184741,21.16,-2.26,-3.19,0.02,93,177,3.9154341220855713,3.9153316020965576
7,-0.10621970146894455,-1.911739468574524,0.05706460401415825,36.7156328,3.1846852,21.22,-2.12,-3.25,0.0,93,250,3.8844611644744873,3.884460687637329
8,-0.05786185711622238,-1.530038833618164,0.2095915824174881,36.7156167,3.1846319,21.17,0.13,-2.89,0.02,93,272,2.89679217338562,2.8967225551605225
9,-0.3927610218524933,-0.6462631821632385,0.06707200407981873,36.7156537,3.1845746,21.17,4.46,-3.3,0.0,92,322,5.558587551116943,5.558584213256836
10,-0.5338279008865356,-0.6283570528030396,-0.008796270936727524,36.715732,3.184506,21.17,6.92,-4.81,0.0,92,324,8.436721801757812,8.43671989440918
11,-0.4711363911628723,-0.6194657683372498,0.020075341686606407,36.7158512,3.1844023,21.19,7.85,-5.54,0.0,91,324,9.614611625671387,9.614607810974121
12,-0.3525104820728302,-0.6224545836448669,-0.030511686578392982,36.7159571,3.1843088,21.22,7.44,-5.3,-0.03,91,324,9.136295318603516,9.136244773864746
13,-0.06982708722352982,-0.6273958086967468,-0.006452315486967564,36.7160456,3.18423,21.23,5.3,-3.84,0.04,91,324,6.552054405212402,6.551914215087891
14,-0.07121774554252625,-1.3313429355621338,-0.30837154388427734,36.7160959,3.1841676,21.41,0.64,-2.91,-0.31,90,283,3.003500461578369,2.9865028858184814
15,-0.39030641317367554,-2.134108781814575,-0.03492596000432968,36.7160777,3.1841079,22.38,-3.06,-4.52,-0.94,90,237,5.543581962585449,5.462032318115234
16,-0.5086853504180908,-2.162790060043335,-0.017212817445397377,36.7160106,3.1839898,24.62,-5.06,-7.27,-1.5,89,236,8.989486694335938,8.862163543701172
17,-0.4697292149066925,-2.16393780708313,0.02221575565636158,36.7159372,3.1838577,27.05,-5.51,-8.03,-1.61,89,236,9.87769889831543,9.74510669708252
18,-0.44283729791641235,-2.1643643379211426,-0.027914278209209442,36.7158498,3.183697,29.92,-5.55,-8.24,-1.58,88,236,10.067919731140137,9.942937850952148
19,-0.49091947078704834,-2.163707971572876,-0.010389605537056923,36.7157745,3.1835572,32.38,-5.54,-8.25,-1.58,88,236,10.075011253356934,9.948972702026367
20,-0.4621778726577759,-2.1652472019195557,0.03944986313581467,36.7156995,3.1834176,34.86,-5.5,-8.21,-1.6,88,235,10.014002799987793,9.884099006652832
21,-0.44551485776901245,-2.1668567657470703,-0.02446841634809971,36.7156123,3.183255,37.77,-5.53,-8.27,-1.61,87,235,10.086716651916504,9.957022666931152
22,-0.4897112548351288,-2.165198564529419,0.0001059099449776113,36.7155376,3.1831156,40.26,-5.51,-8.29,-1.61,87,235,10.096656799316406,9.966525077819824
23,-0.42392539978027344,-2.163074016571045,-0.0015489761717617512,36.7154509,3.1829527,43.17,-5.51,-8.3,-1.62,86,236,10.101778030395508,9.969416618347168
24,-0.4634951055049896,-2.1654205322265625,-0.025649677962064743,36.7153758,3.1828128,45.67,-5.51,-8.26,-1.63,86,235,10.071357727050781,9.938551902770996
25,-0.4888315796852112,-2.1645076274871826,0.013971537351608276,36.715301,3.1826731,48.16,-5.5,-8.32,-1.64,85,235,10.116930961608887,9.98208999633789
26,-0.4182668626308441,-2.162440061569214,0.00024377343652304262,36.7152139,3.1825096,51.1,-5.52,-8.28,-1.64,85,236,10.088204383850098,9.953306198120117
27,-0.47821861505508423,-2.163618803024292,-0.029783794656395912,36.7151393,3.1823702,53.6,-5.53,-8.3,-1.63,84,236,10.11141300201416,9.978337287902832
28,-0.4315493404865265,-2.163639783859253,0.036078982055187225,36.7150519,3.182207,56.52,-5.48,-8.23,-1.63,84,236,10.024248123168945,9.890827178955078
29,-0.2006695419549942,-2.168721914291382,-0.01555695477873087,36.714982,3.1820774,58.87,-4.6,-6.82,-1.37,83,235,8.348884582519531,8.23464298248291
30,-0.09275247156620026,-2.160306215286255,0.012166972272098064,36.7149313,3.1819824,60.48,-2.94,-4.51,-0.68,83,236,5.436766147613525,5.393614768981934
31,-0.1337929666042328,-2.1013803482055664,-0.011944437399506569,36.7148936,3.1819056,61.13,-2.11,-3.7,-0.11,83,239,4.270148754119873,4.268515110015869
32,-0.17842721939086914,-2.0860395431518555,0.02621973492205143,36.7148663,3.1818442,61.15,-2.0,-3.69,0.0,82,240,4.20534086227417,4.205333709716797
33,-0.008891899138689041,-2.0923311710357666,-0.03177974745631218,36.7148365,3.181777,61.12,-1.57,-2.83,0.13,82,240,3.2450006008148193,3.242239475250244
34,0.03252364322543144,-2.347872495651245,-0.023323049768805504,36.7148184,3.1817434,60.13,-1.19,-1.3,1.23,82,225,2.1594078540802,1.7683053016662598
35,-0.0584111288189888,-2.465839385986328,0.008713847026228905,36.7148013,3.1817255,57.5,-1.02,-0.79,1.43,81,218,1.9394909143447876,1.3029075860977173
36,-0.012559442780911922,-2.4701404571533203,-0.00793867651373148,36.7147873,3.1817123,55.26,-1.05,-0.84,1.43,81,218,1.9663292169570923,1.3494089841842651
37,-0.06385597586631775,-2.47040057182312,0.008458728902041912,36.714773,3.181698,53.02,-1.06,-0.88,1.43,81,218,1.9938035011291504,1.3798575401306152
38,-0.03454424813389778,-2.4702587127685547,-0.025163637474179268,36.714756,3.1816811,50.4,-1.07,-0.88,1.44,80,218,2.007201910018921,1.3932815790176392
39,-0.043338458985090256,-2.469917058944702,0.025969497859477997,36.7147414,3.1816665,48.16,-1.06,-0.88,1.45,80,218,2.006165027618408,1.382921576499939
40,-0.06081661954522133,-2.4697439670562744,-0.005954154767096043,36.7147245,3.1816494,45.55,-1.07,-0.89,1.46,79,218,2.0210189819335938,1.3966268301010132
41,-0.0141341807320714,-2.4695069789886475,0.014924585819244385,36.7147099,3.1816346,43.3,-1.06,-0.87,1.46,79,218,2.016686201095581,1.3816050291061401
42,-0.05086684226989746,-2.47023606300354,0.022922590374946594,36.7146928,3.1816175,40.69,-1.06,-0.88,1.47,79,218,2.026057243347168,1.3838269710540771
43,-0.015014956705272198,-2.469966173171997,-0.01673860102891922,36.7146782,3.1816029,38.44,-1.07,-0.88,1.47,78,218,2.0283167362213135,1.3884950876235962
44,-0.0566873624920845,-2.4700210094451904,0.019530436024069786,36.7146637,3.1815882,36.19,-1.05,-0.88,1.47,78,218,2.021475076675415,1.379286766052246
45,-0.04903322458267212,-2.4696617126464844,-0.02232794091105461,36.7146467,3.181571,33.56,-1.06,-0.88,1.47,78,218,2.02390456199646,1.3842320442199707
46,-0.02591714635491371,-2.470160722732544,0.02692011557519436,36.7146321,3.1815562,31.31,-1.06,-0.87,1.47,77,218,2.019028663635254,1.3772895336151123
47,-0.03593923896551132,-2.4697062969207764,-0.02702297829091549,36.7146174,3.1815415,29.06,-1.06,-0.88,1.47,77,218,2.022475242614746,1.3867745399475098
48,-0.009339733980596066,-2.469426393508911,0.009113567881286144,36.7146004,3.1815244,26.44,-1.05,-0.88,1.47,76,218,2.01668381690979,1.3768242597579956
49,-0.06421084702014923,-2.469848871231079,-0.0036749993450939655,36.7145859,3.1815098,24.19,-1.05,-0.88,1.47,76,218,2.0159952640533447,1.3737813234329224
50,-0.13515186309814453,3.0973682403564453,-0.1403953731060028,36.7145639,3.1814972,21.73,-1.98,-0.01,1.01,76,177,2.227405548095703,1.9851734638214111
51,-0.2331436574459076,2.6763107776641846,0.011672540567815304,36.7145259,3.181513,21.17,-3.54,1.7,-0.04,75,153,3.936934471130371,3.9366395473480225
52,-0.17052465677261353,2.6803150177001953,-0.019397586584091187,36.7144634,3.1815514,21.26,-4.06,2.03,0.04,75,153,4.54310417175293,4.542900085449219
53,-0.00889516994357109,3.0526602268218994,0.2242947369813919,36.7144111,3.1815757,21.21,-3.5,0.31,0.04,75,174,3.5171566009521484,3.516819477081299
54,-0.3924225866794586,-2.210052251815796,0.09245992451906204,36.7143689,3.1815501,21.19,-2.98,-3.57,0.02,74,233,4.662778377532959,4.662722587585449
55,-0.45613378286361694,-2.151787281036377,0.021297363564372063,36.7143123,3.1814437,21.19,-4.3,-6.83,0.0,74,236,8.075754165649414,8.075751304626465
56,-0.4449930191040039,-2.149343967437744,-0.028267132118344307,36.7142489,3.1813189,21.2,-4.92,-7.73,0.0,73,236,9.16864013671875,9.168638229370117
57,-0.3048683702945709,-2.152818202972412,0.030195055529475212,36.7141721,3.1811702,21.22,-4.58,-7.07,0.0,73,236,8.435628890991211,8.435629844665527
58,-0.24188236892223358,-2.1429548263549805,-0.013377334922552109,36.7141157,3.1810607,21.21,-3.74,-5.93,0.03,73,237,7.021230220794678,7.021158218383789
59,-0.2560112178325653,-2.110146999359131,0.035238705575466156,36.7140609,3.1809478,21.19,-3.3,-5.65,0.0,72,239,6.550595760345459,6.5505900382995605
60,-0.2831651568412781,-2.0999369621276855,-0.023490874096751213,36.7140168,3.1808525,21.19,-3.22,-5.66,0.0,72,239,6.517784118652344,6.517777442932129
61,-0.17015370726585388,-2.0998353958129883,0.025310207158327103,36.7139737,3.1807584,21.19,-2.99,-5.26,0.0,71,239,6.063443183898926,6.063441753387451
62,0.13267862796783447,-2.1005120277404785,-0.016479188576340675,36.7139364,3.1806775,21.17,-1.44,-2.52,0.02,71,239,2.904839038848877,2.9047272205352783
63,0.12327557802200317,-2.100367307662964,0.01940777152776718,36.7139268,3.1806561,21.18,-0.12,-0.25,-0.01,71,239,0.28648796677589417,0.2857970595359802
64,-0.03353780508041382,-2.1037485599517822,0.09528522938489914,36.7139281,3.1806576,21.15,0.29,0.0,0.03,70,239,0.2971770465373993,0.2954482138156891
