timestamp,pitch,yaw,roll,lat,lon,alt,velocity_x,velocity_y,velocity_z,battery,heading,airspeed,groundspeed
0,0.021085571497678757,-0.023840097710490227,-0.015204022638499737,36.7156067,3.1846299,18.74,-0.03,0.02,0.04,96,358,0.06226838752627373,0.04177148640155792
1,-0.06620524823665619,-0.030736086890101433,0.10816296190023422,36.7156075,3.1846318,18.73,0.24,0.46,0.0,95,358,0.5288181304931641,0.5287799835205078
2,-0.22432313859462738,1.5296348333358765,-0.10487835854291916,36.7156202,3.184658,18.69,1.49,2.41,-0.02,95,87,2.8447635173797607,2.8446507453918457
3,-0.14214958250522614,0.8555896282196045,-0.004272505175322294,36.7156456,3.1847084,18.74,2.12,3.4,-0.03,95,49,4.00869083404541,4.008492946624756
4,0.05767229571938515,0.9852635264396667,0.03002391941845417,36.7156792,3.1847737,18.77,1.81,2.86,-0.01,94,56,3.389723300933838,3.389669418334961
5,0.3249976634979248,1.2223122119903564,0.06049744039773941,36.7156906,3.1847962,18.77,-0.52,-0.71,0.0,94,70,0.8871514797210693,0.8870999217033386
6,-0.05488264933228493,3.064035654067993,0.13348035514354706,36.7156655,3.1847512,18.81,-2.24,-3.18,-0.01,93,175,3.9011025428771973,3.9010562896728516
7,-0.130950927734375,-1.9203696250915527,0.03660532087087631,36.7156352,3.1846953,18.8,-2.18,-3.26,0.0,93,249,3.9304447174072266,3.9304373264312744
8,-0.015114269219338894,-1.6270142793655396,0.1864163875579834,36.7156167,3.1846414,18.78,-0.16,-2.94,0.0,93,266,2.951057195663452,2.9510483741760254
9,-0.3953351080417633,-0.6514005661010742,0.09413805603981018,36.7156487,3.1845845,18.78,4.18,-3.21,0.0,92,322,5.272332668304443,5.272330284118652
10,-0.5085617303848267,-0.6266065239906311,-0.019625360146164894,36.7157243,3.1845177,18.78,6.79,-4.72,0.0,92,324,8.279816627502441,8.279810905456543
11,-0.4847140312194824,-0.6210755705833435,0.030525434762239456,36.7158428,3.1844146,18.8,7.87,-5.52,-0.01,91,324,9.61877155303955,9.618764877319336
12,-0.3561229109764099,-0.623869001865387,-0.01408289186656475,36.7159488,3.1843214,18.82,7.52,-5.36,-0.02,91,324,9.245013236999512,9.244980812072754
13,-0.04764039069414139,-0.6316946744918823,-0.012341910041868687,36.7160515,3.18423,18.84,5.04,-3.69,0.03,91,323,6.256237030029297,6.2561211585998535
14,1.4097558050707448e-05,-1.2290312051773071,-0.3092789053916931,36.716095,3.1841767,18.98,1.01,-2.89,-0.27,90,289,3.0847253799438477,3.072500705718994
15,-0.39863207936286926,-2.1292471885681152,-0.046712249517440796,36.7160808,3.1841186,19.88,-2.86,-4.35,-0.9,90,238,5.291918754577637,5.2147536277771
16,-0.48090705275535583,-2.158761978149414,-0.0314185693860054,36.716016,3.1840045,22.06,-4.98,-7.17,-1.48,89,236,8.861249923706055,8.736215591430664
17,-0.49834439158439636,-2.163848876953125,-0.003299045143648982,36.7159431,3.1838738,24.47,-5.55,-8.03,-1.6,89,236,9.901593208312988,9.770434379577637
18,-0.43048757314682007,-2.164045572280884,0.0008998384000733495,36.7158552,3.1837127,27.34,-5.53,-8.22,-1.58,88,236,10.036346435546875,9.911108016967773
19,-0.46897751092910767,-2.1628360748291016,-0.0319511815905571,36.7157803,3.1835731,29.8,-5.54,-8.25,-1.59,88,236,10.07370662689209,9.946253776550293
20,-0.4872203469276428,-2.168109178543091,0.024454675614833832,36.7157052,3.1834339,32.28,-5.53,-8.23,-1.6,88,235,10.052896499633789,9.923542022705078
21,-0.42369648814201355,-2.1656570434570312,-0.00821160338819027,36.7156178,3.183271,35.19,-5.49,-8.28,-1.61,87,235,10.070980072021484,9.941070556640625
22,-0.48154160380363464,-2.1632657051086426,-0.025189373642206192,36.7155436,3.1831316,37.68,-5.5,-8.27,-1.61,87,236,10.067176818847656,9.937198638916016
23,-0.4382927715778351,-2.1638805866241455,0.030019717290997505,36.7154564,3.1829687,40.58,-5.54,-8.29,-1.64,86,236,10.113286018371582,9.978927612304688
24,-0.4293653666973114,-2.166451930999756,-0.014454868622124195,36.7153812,3.1828287,43.09,-5.51,-8.28,-1.63,86,235,10.08657455444336,9.9530668258667
25,-0.4864048361778259,-2.1630301475524902,0.024627160280942917,36.7152943,3.1826656,46.01,-5.47,-8.28,-1.63,85,236,10.068402290344238,9.934850692749023
26,-0.4395580589771271,-2.1621687412261963,0.025114044547080994,36.7152198,3.182526,48.51,-5.53,-8.29,-1.64,85,236,10.104635238647461,9.969390869140625
27,-0.4426570534706116,-2.164450168609619,-0.026220466941595078,36.7151448,3.182386,51.02,-5.53,-8.29,-1.64,84,235,10.103182792663574,9.968500137329102
28,-0.4603099822998047,-2.1642708778381348,0.02747313492000103,36.7150574,3.1822227,53.94,-5.49,-8.25,-1.63,84,236,10.048975944519043,9.915051460266113
29,-0.21664710342884064,-2.1682567596435547,0.009237723425030708,36.714987,3.1820921,56.31,-4.71,-7.0,-1.41,83,235,8.567363739013672,8.449926376342773
30,-0.08919302374124527,-2.1576168537139893,0.028550850227475166,36.7149279,3.181981,58.18,-2.83,-4.36,-0.63,83,236,5.248729228973389,5.210450172424316
31,-0.11323560774326324,-2.103496789932251,0.007902541197836399,36.7148957,3.1819155,58.72,-2.13,-3.69,-0.14,83,239,4.273503303527832,4.271153926849365
32,-0.17959144711494446,-2.0849783420562744,-0.0034129442647099495,36.7148683,3.181854,58.77,-2.0,-3.68,0.0,82,240,4.193361759185791,4.193357944488525
33,0.00996975228190422,-2.08955454826355,-0.035727981477975845,36.7148381,3.1817858,58.74,-1.62,-2.94,0.08,82,240,3.3687198162078857,3.3675472736358643
34,0.0039166975766420364,-2.3180465698242188,-0.026586519554257393,36.7148197,3.1817503,57.88,-1.19,-1.38,1.15,82,227,2.164702892303467,1.8303494453430176
35,-0.04874863475561142,-2.469456195831299,-0.018540559336543083,36.7148024,3.1817316,55.29,-1.03,-0.8,1.43,81,218,1.9501935243606567,1.3154425621032715
36,-0.018374474719166756,-2.470646858215332,0.023207424208521843,36.7147884,3.1817184,53.05,-1.04,-0.82,1.43,81,218,1.958268165588379,1.3306649923324585
37,-0.05259129777550697,-2.470384359359741,-0.020113974809646606,36.714774,3.1817044,50.8,-1.06,-0.87,1.43,81,218,1.9937678575515747,1.3802589178085327
38,-0.013192981481552124,-2.470576524734497,-0.010798751376569271,36.7147571,3.1816875,48.19,-1.07,-0.87,1.44,80,218,2.0038280487060547,1.3840289115905762
39,-0.06358882039785385,-2.46958589553833,0.002019875217229128,36.7147426,3.1816728,45.95,-1.07,-0.89,1.46,80,218,2.0226571559906006,1.3970698118209839
40,-0.03793906792998314,-2.470038652420044,-0.02570096030831337,36.7147255,3.1816557,43.33,-1.07,-0.88,1.46,79,218,2.0227813720703125,1.3919821977615356
41,-0.04353746399283409,-2.469970703125,0.028611259534955025,36.7147109,3.181641,41.08,-1.06,-0.88,1.46,79,218,2.0178380012512207,1.3847485780715942
42,-0.062081169337034225,-2.469999313354492,-0.005608124192804098,36.7146963,3.1816264,38.84,-1.07,-0.88,1.47,79,218,2.0269908905029297,1.388466715812683
43,-0.012160556390881538,-2.4692108631134033,0.01915191113948822,36.7146794,3.1816092,36.22,-1.06,-0.88,1.47,78,218,2.02376127243042,1.3826556205749512
44,-0.05715516209602356,-2.4698007106781006,-0.014311057515442371,36.7146648,3.1815945,33.97,-1.07,-0.89,1.47,78,218,2.0284383296966553,1.393344759941101
45,-0.014952264726161957,-2.470226764678955,-0.015514293685555458,36.7146478,3.1815774,31.35,-1.07,-0.88,1.48,78,218,2.0336971282958984,1.3936089277267456
46,-0.05705097317695618,-2.470181703567505,0.014619448222219944,36.7146332,3.1815626,29.1,-1.05,-0.89,1.48,77,218,2.0268311500549316,1.3846001625061035
47,-0.04382342845201492,-2.4701175689697266,-0.023809311911463737,36.7146162,3.1815455,26.47,-1.06,-0.88,1.47,77,218,2.023761034011841,1.3876198530197144
48,-0.03458304703235626,-2.469634532928467,0.030040917918086052,36.7146016,3.1815308,24.22,-1.05,-0.88,1.47,76,218,2.019773006439209,1.3791390657424927
49,-0.06644699722528458,-2.4701590538024902,0.00037057106965221465,36.7145846,3.1815137,21.6,-1.06,-0.88,1.48,76,218,2.029689311981201,1.38800048828125
50,-0.10536383092403412,-3.112842559814453,-0.10421250015497208,36.7145659,3.1815025,19.47,-1.88,-0.14,1.1,76,181,2.1894702911376953,1.8918094635009766
51,-0.2579251825809479,2.675416946411133,-0.020130500197410583,36.7145295,3.1815163,18.78,-3.46,1.64,-0.03,75,153,3.8363702297210693,3.836242914199829
52,-0.1484852433204651,2.679023265838623,-0.030159659683704376,36.7144678,3.181554,18.87,-4.07,2.04,0.03,75,153,4.56192684173584,4.561822414398193
53,-0.044303592294454575,2.9803454875946045,0.20542913675308228,36.7144147,3.1815804,18.82,-3.58,0.56,0.05,75,170,3.6307451725006104,3.630392551422119
54,-0.4137204885482788,-2.1980068683624268,0.08425741642713547,36.7143652,3.1815496,18.8,-3.03,-3.91,0.01,74,234,4.955775737762451,4.9557414054870605
55,-0.48708009719848633,-2.1477701663970947,0.03783169388771057,36.7143169,3.1814581,18.8,-4.21,-6.71,0.0,74,236,7.9338297843933105,7.933825492858887
56,-0.4274144172668457,-2.1485073566436768,-0.005661421921104193,36.7142543,3.1813347,18.81,-4.89,-7.7,0.0,73,236,9.127288818359375,9.127287864685059
57,-0.35123389959335327,-2.152132749557495,0.017358502373099327,36.7141771,3.181185,18.83,-4.64,-7.17,0.0,73,236,8.549875259399414,8.549870491027832
58,-0.20651298761367798,-2.143718719482422,0.013165170326828957,36.7141197,3.1810737,18.82,-3.8,-5.98,0.02,73,237,7.098086833953857,7.09803581237793
59,-0.2898406386375427,-2.1129872798919678,0.0342991016805172,36.7140643,3.1809605,18.8,-3.3,-5.65,0.0,72,238,6.550074577331543,6.550068378448486
60,-0.2522686719894409,-2.1000406742095947,0.0008924869471229613,36.7140203,3.1808654,18.8,-3.21,-5.63,0.0,72,239,6.489489555358887,6.489486217498779
61,-0.20555295050144196,-2.1000373363494873,-0.008981610648334026,36.7139771,3.1807711,18.8,-3.05,-5.35,0.0,71,239,6.165714263916016,6.165714263916016
62,0.16283971071243286,-2.1012792587280273,-0.025775199756026268,36.7139382,3.1806867,18.78,-1.59,-2.79,0.03,71,239,3.2170608043670654,3.2168831825256348
63,0.09211726486682892,-2.100755214691162,0.02087031491100788,36.713927,3.1806621,18.79,-0.2,-0.38,-0.02,71,239,0.4334293007850647,0.4329455494880676
64,-0.02158655785024166,-2.1019558906555176,0.039746686816215515,36.7139278,3.1806628,18.76,0.23,0.05,0.04,70,239,0.24248753488063812,0.23913231492042542
