timestamp,pitch,yaw,roll,lat,lon,alt,velocity_x,velocity_y,velocity_z,battery,heading,airspeed,groundspeed
0,0.03449999541044235,0.023786980658769608,0.0019126100232824683,36.7156067,3.1846299,17.66,-0.02,0.02,0.0,96,1,0.041391342878341675,0.041029736399650574
1,-0.07352007180452347,0.056261803954839706,0.1369127482175827,36.7156082,3.1846331,17.71,0.39,0.65,0.0,95,3,0.7700684666633606,0.770057737827301
2,-0.22072899341583252,1.4479374885559082,-0.12940004467964172,36.7156216,3.1846587,17.67,1.69,2.54,-0.02,95,82,3.052467107772827,3.052396535873413
3,-0.14313267171382904,0.9859509468078613,-0.03082628734409809,36.7156553,3.1847208,17.71,2.36,3.49,-0.02,95,56,4.217308521270752,4.217202663421631
4,0.013990439474582672,0.9647406339645386,0.027681823819875717,36.7156869,3.1847781,17.72,1.99,2.92,-0.01,94,55,3.5431272983551025,3.5431008338928223
5,0.3923117518424988,0.9519956707954407,-0.021750187501311302,36.7157007,3.1848021,17.71,-0.42,-0.64,0.01,94,54,0.7753723859786987,0.7752323150634766
6,-0.021124769002199173,-0.9384881854057312,-0.15095266699790955,36.7156759,3.184757,17.75,-2.24,-3.22,-0.02,93,306,3.9268157482147217,3.926746368408203
7,-0.1187610998749733,-2.383824586868286,0.04867370426654816,36.7156453,3.1847012,17.74,-2.17,-3.24,0.01,93,223,3.9047293663024902,3.904707193374634
8,-0.08218827843666077,-1.4538915157318115,0.221811443567276,36.7156268,3.1846393,17.72,0.33,-2.82,0.01,93,276,2.846808910369873,2.846780300140381
9,-0.41883835196495056,-0.6492055058479309,0.10270610451698303,36.7156574,3.1845912,17.71,4.12,-3.18,0.0,92,322,5.205193042755127,5.2051920890808105
10,-0.4823315143585205,-0.6204949021339417,-0.010143348015844822,36.7157326,3.1845253,17.72,6.73,-4.69,-0.01,92,324,8.210222244262695,8.210208892822266
11,-0.5066808462142944,-0.6177895665168762,0.02217894047498703,36.7158507,3.1844228,17.74,7.85,-5.52,0.0,91,324,9.600993156433105,9.600991249084473
12,-0.3650861084461212,-0.6203840374946594,0.01644737645983696,36.7159566,3.1843298,17.77,7.58,-5.38,-0.01,91,324,9.305383682250977,9.30536937713623
13,-0.06691525876522064,-0.6252820491790771,-0.030756542459130287,36.7160615,3.1842372,17.79,5.18,-3.73,0.05,91,324,6.386783123016357,6.386550426483154
14,0.04890463501214981,-1.1744518280029297,-0.28219082951545715,36.7161073,3.1841838,17.91,1.19,-2.86,-0.24,90,292,3.1148009300231934,3.105391025543213
15,-0.4167405664920807,-2.125826835632324,-0.0821223333477974,36.7160954,3.1841276,18.76,-2.74,-4.28,-0.86,90,238,5.161708354949951,5.088530540466309
16,-0.4505152702331543,-2.1618900299072266,-0.005115141160786152,36.7160314,3.1840151,20.9,-4.92,-7.1,-1.46,89,236,8.76578140258789,8.642391204833984
17,-0.45750692486763,-2.16265606880188,-0.031478580087423325,36.715959,3.1838842,23.3,-5.49,-8.02,-1.6,89,236,9.854682922363281,9.722290992736816
18,-0.44869497418403625,-2.1628856658935547,0.03631730377674103,36.7158717,3.1837239,26.19,-5.54,-8.19,-1.57,88,236,10.016634941101074,9.892657279968262
19,-0.42674654722213745,-2.1641509532928467,-0.018488310277462006,36.7157963,3.1835844,28.65,-5.58,-8.25,-1.58,88,236,10.097228050231934,9.972204208374023
20,-0.47672611474990845,-2.1663105487823486,-0.02150506153702736,36.715721,3.1834446,31.12,-5.52,-8.26,-1.59,88,235,10.070075035095215,9.94253158569336
21,-0.4393264651298523,-2.1657238006591797,0.0377911739051342,36.7156339,3.183282,34.03,-5.51,-8.28,-1.61,87,235,10.078034400939941,9.948335647583008
22,-0.4347072243690491,-2.1647450923919678,-0.014998827129602432,36.7155595,3.1831427,36.52,-5.51,-8.29,-1.61,87,235,10.094521522521973,9.965190887451172
23,-0.4840583801269531,-2.163943290710449,0.021061377599835396,36.7154722,3.1829793,39.44,-5.51,-8.29,-1.62,86,236,10.094894409179688,9.96342945098877
24,-0.438235878944397,-2.1643545627593994,0.034784719347953796,36.7153974,3.1828397,41.94,-5.51,-8.28,-1.62,86,236,10.084919929504395,9.9525785446167
25,-0.43615445494651794,-2.1655452251434326,-0.013396133668720722,36.7153228,3.1827004,44.44,-5.53,-8.3,-1.62,85,235,10.109461784362793,9.97802734375
26,-0.49403440952301025,-2.1647677421569824,0.010936572216451168,36.7152354,3.1825368,47.36,-5.52,-8.3,-1.63,85,235,10.102890014648438,9.970344543457031
27,-0.43375498056411743,-2.1646175384521484,0.031310249119997025,36.7151605,3.1823967,49.86,-5.5,-8.29,-1.63,84,235,10.085713386535645,9.951821327209473
28,-0.46855151653289795,-2.162729263305664,-0.028570393100380898,36.7150736,3.1822337,52.79,-5.51,-8.29,-1.62,84,236,10.09018611907959,9.958984375
29,-0.267562597990036,-2.169261932373047,0.030430201441049576,36.7150024,3.1821018,55.17,-4.78,-7.07,-1.41,83,235,8.653995513916016,8.537555694580078
30,-0.03309538960456848,-2.163350820541382,0.009325411170721054,36.7149487,3.1820016,56.89,-3.1,-4.72,-0.76,83,236,5.705438137054443,5.6533894538879395
31,-0.14762508869171143,-2.117706537246704,0.04131884500384331,36.7149092,3.1819233,57.65,-2.18,-3.7,-0.15,83,238,4.301158428192139,4.298306941986084
32,-0.1347908079624176,-2.101794958114624,-0.019407548010349274,36.7148809,3.1818621,57.7,-2.08,-3.69,-0.01,82,239,4.243379592895508,4.243362903594971
33,0.01641017384827137,-2.1039586067199707,0.01612631045281887,36.7148494,3.1817933,57.68,-1.71,-3.0,0.05,82,239,3.4594874382019043,3.4590370655059814
34,0.012080369517207146,-2.305508613586426,-0.06757104396820068,36.7148301,3.1817565,56.91,-1.21,-1.43,1.09,82,227,2.1768970489501953,1.8825479745864868
35,-0.0022551310248672962,-2.4722814559936523,0.006260451395064592,36.7148126,3.1817376,54.33,-1.03,-0.79,1.43,81,218,1.9401843547821045,1.3008517026901245
36,-0.06439580023288727,-2.471534013748169,0.007112078834325075,36.7147986,3.1817245,52.09,-1.03,-0.83,1.42,81,218,1.9451472759246826,1.3264802694320679
37,-0.008867013268172741,-2.470005750656128,0.008225780911743641,36.7147844,3.1817103,49.85,-1.05,-0.87,1.43,81,218,1.9822312593460083,1.3711568117141724
38,-0.04801223427057266,-2.4702491760253906,0.027565686032176018,36.7147675,3.1816933,47.23,-1.07,-0.87,1.43,80,218,1.994765043258667,1.3866299390792847
39,-0.01444402989000082,-2.4693267345428467,-0.015837982296943665,36.7147529,3.1816786,45.0,-1.07,-0.87,1.44,80,218,2.0064690113067627,1.3884588479995728
40,-0.016566216945648193,-2.46917724609375,0.024737155064940453,36.7147358,3.1816616,42.38,-1.06,-0.87,1.45,79,218,2.0072388648986816,1.3816407918930054
41,-0.04438265413045883,-2.469266414642334,-0.027271423488855362,36.7147213,3.181647,40.13,-1.07,-0.88,1.45,79,218,2.0139660835266113,1.3910913467407227
42,-0.0278644822537899,-2.469540596008301,0.030497940257191658,36.7147067,3.1816323,37.89,-1.06,-0.89,1.46,79,218,2.0163750648498535,1.3870344161987305
43,-0.06102025508880615,-2.469223737716675,-0.003890067571774125,36.7146897,3.1816151,35.27,-1.06,-0.89,1.47,78,218,2.0280447006225586,1.3921788930892944
44,-0.009942264296114445,-2.469172477722168,0.009029950015246868,36.7146752,3.1816003,33.02,-1.06,-0.88,1.47,78,218,2.0211880207061768,1.3859344720840454
45,-0.04427495226264,-2.4699578285217285,0.027892200276255608,36.7146581,3.1815832,30.4,-1.06,-0.89,1.47,78,218,2.0263516902923584,1.392582893371582
46,-0.01689949259161949,-2.4698801040649414,-0.019763562828302383,36.7146435,3.1815684,28.15,-1.06,-0.88,1.47,77,218,2.0267014503479004,1.3852945566177368
47,-0.018360381945967674,-2.4696099758148193,0.02271358296275139,36.7146265,3.1815512,25.53,-1.05,-0.87,1.47,77,218,2.0176854133605957,1.375665307044983
48,-0.03923420608043671,-2.4694337844848633,-0.020469238981604576,36.714612,3.1815366,23.27,-1.07,-0.88,1.46,77,218,2.0236151218414307,1.3908127546310425
49,-0.027177274227142334,-2.4694418907165527,0.027490243315696716,36.7145973,3.1815218,21.02,-1.06,-0.87,1.47,76,218,2.020822525024414,1.38014817237854
50,-0.15219323337078094,-3.0594637393951416,-0.1113315299153328,36.7145768,3.1815077,18.49,-1.81,-0.22,1.15,76,184,2.1659646034240723,1.8292193412780762
51,-0.20551958680152893,2.667249917984009,-0.025100495666265488,36.7145419,3.1815199,17.7,-3.37,1.62,-0.02,75,152,3.7493231296539307,3.749238967895508
52,-0.17725306749343872,2.671710729598999,0.02676521986722946,36.7144808,3.1815579,17.81,-4.0,2.04,0.02,75,153,4.499198913574219,4.499142646789551
53,-0.007244856562465429,2.9640700817108154,0.15994755923748016,36.7144282,3.1815851,17.76,-3.55,0.64,0.05,75,169,3.609417676925659,3.6090075969696045
54,-0.37752461433410645,-2.200813055038452,0.1348540335893631,36.7143788,3.1815567,17.74,-3.02,-3.85,0.01,74,233,4.8939433097839355,4.8939104080200195
55,-0.47818952798843384,-2.149005651473999,-0.02935226634144783,36.7143308,3.181466,17.74,-4.23,-6.66,0.0,74,236,7.895625114440918,7.895622253417969
56,-0.4876158833503723,-2.1515650749206543,-0.00714919762685895,36.7142676,3.1813427,17.75,-4.95,-7.65,0.0,73,236,9.114830017089844,9.114829063415527
57,-0.30093660950660706,-2.1569924354553223,-0.003533035982400179,36.7141894,3.1811936,17.78,-4.72,-7.18,0.0,73,236,8.600828170776367,8.600826263427734
58,-0.25696423649787903,-2.1499109268188477,0.008485904894769192,36.714131,3.1810818,17.77,-3.84,-6.01,0.03,73,236,7.142466068267822,7.1423659324646
59,-0.24692267179489136,-2.1135404109954834,0.0012353943893685937,36.7140755,3.1809687,17.75,-3.32,-5.65,0.01,72,238,6.560302257537842,6.560273170471191
60,-0.31289142370224,-2.1008834838867188,0.0054677631705999374,36.7140315,3.1808739,17.75,-3.23,-5.66,0.01,72,239,6.526084899902344,6.526063442230225
61,-0.17082799971103668,-2.100343704223633,0.02437726967036724,36.7139881,3.1807794,17.75,-3.08,-5.41,0.0,71,239,6.234951496124268,6.234951496124268
62,0.12101587653160095,-2.101306676864624,0.01390541810542345,36.7139483,3.1806928,17.73,-1.64,-2.89,0.03,71,239,3.327741861343384,3.3275146484375
63,0.14365069568157196,-2.100785732269287,-0.008152948692440987,36.7139367,3.180667,17.73,-0.21,-0.39,-0.01,71,239,0.448591411113739,0.4482520520687103
64,-0.008089546114206314,-2.101478338241577,0.08923377096652985,36.7139374,3.180668,17.71,0.21,0.06,0.03,70,239,0.2249060571193695,0.22170178592205048
