timestamp,pitch,yaw,roll,lat,lon,alt,velocity_x,velocity_y,velocity_z,battery,heading,airspeed,groundspeed
0,-0.0022861813195049763,0.0390658974647522,-0.022022437304258347,36.7156067,3.18463,19.15,-0.02,0.02,0.05,96,2,0.06665905565023422,0.03773593530058861
1,-0.05142510309815407,0.06581714749336243,0.08641663193702698,36.7156083,3.1846331,19.11,0.4,0.63,0.0,95,3,0.7479383945465088,0.7479203939437866
2,-0.22353234887123108,1.3953722715377808,-0.06756176799535751,36.7156217,3.1846571,19.08,1.64,2.39,-0.03,95,79,2.909013509750366,2.9088521003723145
3,-0.1770743876695633,0.9046558141708374,-0.02351856790482998,36.7156494,3.184707,19.13,2.3,3.35,-0.04,95,51,4.073829650878906,4.073576927185059
4,0.0659327358007431,0.9523134231567383,0.013484022580087185,36.7156861,3.1847723,19.17,2.03,2.87,-0.02,94,54,3.517833948135376,3.5177481174468994
5,0.33663108944892883,0.8381261229515076,-0.04239508882164955,36.7157006,3.1847963,19.17,-0.37,-0.61,0.01,94,48,0.7174863219261169,0.7174142003059387
6,-0.06493941694498062,-0.9888297319412231,-0.18458908796310425,36.7156812,3.1847604,19.2,-2.15,-3.09,-0.03,93,315,3.7712936401367188,3.771127700805664
7,-0.07885392010211945,-2.409454107284546,0.08310429006814957,36.7156459,3.184696,19.2,-2.2,-3.25,0.01,93,221,3.9333550930023193,3.933340072631836
8,-0.04827357828617096,-1.6484227180480957,0.18953946232795715,36.7156266,3.184642,19.19,-0.28,-2.94,0.01,93,265,2.9632225036621094,2.963192939758301
9,-0.38624122738838196,-0.653845489025116,0.059435565024614334,36.7156568,3.1845855,19.18,4.09,-3.15,0.0,92,322,5.169749736785889,5.169748306274414
10,-0.5428785085678101,-0.6225874423980713,0.014933155849575996,36.7157316,3.1845202,19.18,6.73,-4.65,0.0,92,324,8.184932708740234,8.184929847717285
11,-0.4534049928188324,-0.6162827610969543,-0.007390463724732399,36.7158496,3.184418,19.2,7.85,-5.53,0.0,91,324,9.609135627746582,9.609134674072266
12,-0.4086194336414337,-0.6189937591552734,-0.020241351798176765,36.7159558,3.1843245,19.23,7.59,-5.36,-0.01,91,324,9.300131797790527,9.300118446350098
13,-0.09416349232196808,-0.6222339868545532,0.026299167424440384,36.7160482,3.1842429,19.26,5.7,-4.05,0.04,91,324,7.003139972686768,7.002978801727295
14,-0.008283445611596107,-1.1422897577285767,-0.2710298001766205,36.716107,3.1841786,19.37,1.25,-2.87,-0.23,90,294,3.144756317138672,3.1360671520233154
15,-0.3502911329269409,-2.1294891834259033,-0.08068195730447769,36.7160958,3.1841223,20.2,-2.7,-4.25,-0.86,90,237,5.119228839874268,5.046126365661621
16,-0.5141875743865967,-2.160210371017456,0.020321369171142578,36.7160324,3.1840107,22.34,-4.9,-7.08,-1.45,89,236,8.740837097167969,8.618600845336914
17,-0.4467579126358032,-2.1625301837921143,0.03268643096089363,36.7159601,3.1838801,24.74,-5.54,-8.02,-1.6,89,236,9.880287170410156,9.748575210571289
18,-0.47371426224708557,-2.166013717651367,-0.01995435729622841,36.715872,3.1837189,27.61,-5.53,-8.17,-1.57,88,235,9.992843627929688,9.86811637878418
19,-0.4830172061920166,-2.1642961502075195,0.029285620898008347,36.7157972,3.1835797,30.08,-5.51,-8.23,-1.58,88,236,10.03268051147461,9.90668773651123
20,-0.4312162697315216,-2.1653099060058594,0.02333214320242405,36.7157224,3.1834408,32.56,-5.56,-8.28,-1.59,88,235,10.107693672180176,9.981281280517578
21,-0.4866960942745209,-2.162292242050171,-0.015228625386953354,36.715635,3.1832778,35.46,-5.49,-8.27,-1.6,87,236,10.061532974243164,9.932969093322754
22,-0.46791601181030273,-2.1629459857940674,0.028143811970949173,36.7155602,3.183138,37.95,-5.51,-8.27,-1.61,87,236,10.076969146728516,9.946356773376465
23,-0.4481895864009857,-2.165827512741089,-0.020109761506319046,36.715473,3.1829753,40.87,-5.51,-8.29,-1.61,86,235,10.089844703674316,9.95996379852295
24,-0.49165844917297363,-2.1636581420898438,-0.001268648775294423,36.7153985,3.1828355,43.36,-5.51,-8.3,-1.62,86,236,10.099860191345215,9.968687057495117
25,-0.4558204114437103,-2.1670327186584473,0.04331548139452934,36.7153235,3.1826955,45.87,-5.54,-8.29,-1.63,85,235,10.113123893737793,9.980523109436035
26,-0.4459940791130066,-2.164246082305908,-0.023576345294713974,36.7152363,3.1825325,48.79,-5.49,-8.3,-1.62,85,236,10.084844589233398,9.953269958496094
27,-0.4914262592792511,-2.1641039848327637,0.010009495541453362,36.7151618,3.1823926,51.3,-5.52,-8.31,-1.62,84,236,10.114485740661621,9.98296070098877
28,-0.410188227891922,-2.164621591567993,-0.0012257657945156097,36.7150742,3.1822293,54.21,-5.51,-8.26,-1.63,84,235,10.07091999053955,9.936899185180664
29,-0.277156800031662,-2.1684815883636475,-0.018477847799658775,36.7150032,3.1820974,56.61,-4.78,-7.12,-1.41,83,235,8.699906349182129,8.583257675170898
30,-0.07096800953149796,-2.1640090942382812,0.03315073251724243,36.7149493,3.1819967,58.35,-3.13,-4.74,-0.76,83,236,5.743570804595947,5.691827297210693
31,-0.1653820127248764,-2.1187667846679688,0.009580610319972038,36.7149094,3.1819179,59.1,-2.18,-3.69,-0.16,83,238,4.295691013336182,4.292583465576172
32,-0.13228294253349304,-2.1016879081726074,0.02269629016518593,36.7148812,3.1818568,59.16,-2.07,-3.68,-0.01,82,239,4.228122234344482,4.228096961975098
33,-0.02581220678985119,-2.103952169418335,0.012422571890056133,36.7148497,3.1817881,59.14,-1.73,-3.04,0.04,82,239,3.505016803741455,3.5046820640563965
34,0.04452764615416527,-2.302722454071045,-0.06235315650701523,36.7148303,3.1817508,58.39,-1.23,-1.45,1.07,82,228,2.1894428730010986,1.9058306217193604
35,-0.027165165171027184,-2.4729177951812744,0.02807779796421528,36.7148128,3.1817317,55.82,-1.02,-0.78,1.44,81,218,1.930905818939209,1.285340666770935
36,-0.04930118843913078,-2.4711458683013916,-0.019626421853899956,36.7147989,3.1817186,53.57,-1.04,-0.82,1.41,81,218,1.9425551891326904,1.3309879302978516
37,-0.03172903507947922,-2.470083475112915,0.029785122722387314,36.7147846,3.1817045,51.34,-1.06,-0.87,1.43,81,218,1.9877468347549438,1.3784713745117188
38,-0.060646723955869675,-2.4699652194976807,0.0012553262058645487,36.7147676,3.1816873,48.72,-1.06,-0.88,1.44,80,218,1.9966835975646973,1.3816766738891602
39,-0.00967101939022541,-2.469254493713379,0.010577956214547157,36.714753,3.1816728,46.48,-1.06,-0.86,1.44,80,218,1.9938983917236328,1.3755382299423218
40,-0.04045436158776283,-2.4698452949523926,0.031118063256144524,36.7147361,3.1816558,43.86,-1.06,-0.88,1.45,79,218,2.004889965057373,1.3828279972076416
41,-0.02058650553226471,-2.4696738719940186,-0.022324396297335625,36.7147215,3.1816411,41.62,-1.07,-0.88,1.46,79,218,2.021601915359497,1.3917715549468994
42,-0.046868763864040375,-2.470066785812378,0.02476239949464798,36.714707,3.1816264,39.37,-1.06,-0.89,1.46,79,218,2.0179505348205566,1.3879286050796509
43,-0.05373125895857811,-2.4693262577056885,-0.013599077239632607,36.7146899,3.1816092,36.75,-1.07,-0.89,1.46,78,218,2.0271005630493164,1.3992024660110474
44,-0.012513736262917519,-2.469203472137451,0.023287838324904442,36.7146752,3.1815945,34.51,-1.07,-0.88,1.47,78,218,2.0256364345550537,1.388916015625
45,-0.054794084280729294,-2.46977162361145,0.022790150716900826,36.7146583,3.1815773,31.89,-1.06,-0.88,1.47,78,218,2.0231196880340576,1.3836324214935303
46,-0.011241491883993149,-2.469700336456299,-0.008651579730212688,36.7146438,3.1815627,29.63,-1.06,-0.88,1.47,77,218,2.022801160812378,1.3882496356964111
47,-0.0583394430577755,-2.4693920612335205,0.008594540879130363,36.7146292,3.1815479,27.39,-1.06,-0.88,1.47,77,218,2.0241923332214355,1.3855401277542114
48,-0.035382695496082306,-2.4692869186401367,-0.026417221873998642,36.7146121,3.1815306,24.76,-1.07,-0.87,1.47,76,218,2.0251548290252686,1.3850305080413818
49,-0.030795888975262642,-2.4698028564453125,0.027957964688539505,36.7145975,3.181516,22.51,-1.06,-0.88,1.47,76,218,2.021106243133545,1.3861361742019653
50,-0.14868491888046265,-3.0480146408081055,-0.11264832317829132,36.714577,3.1815018,19.98,-1.8,-0.23,1.17,76,185,2.1647403240203857,1.8191306591033936
51,-0.2042217254638672,2.667224645614624,-0.0265686996281147,36.7145424,3.1815136,19.16,-3.35,1.61,-0.01,75,152,3.7251498699188232,3.7251195907592773
52,-0.17665088176727295,2.671998977661133,0.022793743759393692,36.7144816,3.1815514,19.27,-4.0,2.05,0.01,75,153,4.50258207321167,4.502541542053223
53,-0.01127634197473526,2.9537503719329834,0.15106980502605438,36.7144289,3.181579,19.22,-3.57,0.68,0.05,75,169,3.6402599811553955,3.6398544311523438
54,-0.3892194628715515,-2.259263038635254,0.16421283781528473,36.7143859,3.1815611,19.2,-2.93,-3.16,0.02,74,230,4.313848972320557,4.313785076141357
55,-0.4888974726200104,-2.150177240371704,-0.02621551975607872,36.7143315,3.1814617,19.2,-4.21,-6.65,0.01,74,236,7.879652500152588,7.87964391708374
56,-0.4885369539260864,-2.151500940322876,0.007420496083796024,36.7142687,3.1813387,19.21,-4.95,-7.67,0.0,73,236,9.13148021697998,9.13148021697998
57,-0.30618026852607727,-2.157874584197998,-0.020801113918423653,36.7141901,3.1811888,19.24,-4.73,-7.17,0.0,73,236,8.596898078918457,8.596896171569824
58,-0.25577881932258606,-2.150648355484009,0.02785792574286461,36.7141316,3.181077,19.23,-3.83,-5.99,0.03,73,236,7.120609283447266,7.120504856109619
59,-0.24707576632499695,-2.1192338466644287,0.02571893483400345,36.7140838,3.1809804,19.21,-3.38,-5.68,0.02,72,238,6.618192195892334,6.618147373199463
60,-0.3047918379306793,-2.100332260131836,0.022525930777192116,36.714032,3.1808692,19.21,-3.22,-5.67,0.01,72,239,6.529769420623779,6.529751777648926
61,-0.15919677913188934,-2.1002063751220703,0.0013233107747510076,36.7139885,3.1807743,19.21,-3.09,-5.41,0.0,71,239,6.233947277069092,6.233946800231934
62,0.13930656015872955,-2.100658416748047,0.03151007369160652,36.7139486,3.1806876,19.19,-1.67,-2.91,0.03,71,239,3.362553358078003,3.362323045730591
63,0.12529371678829193,-2.1007213592529297,-0.02686120942234993,36.7139367,3.1806612,19.19,-0.22,-0.42,-0.01,71,239,0.4835997223854065,0.4832330048084259
64,-0.011433791369199753,-2.1009552478790283,0.053239114582538605,36.713937,3.1806616,19.18,0.13,0.13,0.03,70,239,0.19317331910133362,0.1893940418958664
