timestamp,pitch,yaw,roll,lat,lon,alt,velocity_x,velocity_y,velocity_z,battery,heading,airspeed,groundspeed
0,0.03181246668100357,-0.00522627355530858,0.00852376502007246,36.7156067,3.1846299,21.78,-0.03,0.02,-0.05,96,359,0.07264626026153564,0.04486453905701637
1,-0.08025901764631271,-0.014216680079698563,0.08862365782260895,36.7156074,3.1846318,21.74,0.24,0.49,-0.02,95,359,0.552138090133667,0.5515467524528503
2,-0.20861777663230896,1.5511385202407837,-0.1348263919353485,36.7156204,3.1846596,21.77,1.53,2.55,-0.04,95,88,2.976003408432007,2.9757089614868164
3,-0.14258934557437897,0.8836690187454224,0.02662469632923603,36.7156463,3.1847122,21.78,2.12,3.52,-0.01,95,50,4.120028972625732,4.1199822425842285
4,0.02489057183265686,1.003567099571228,0.033496882766485214,36.7156797,3.1847799,21.78,1.78,2.94,0.0,94,57,3.441889762878418,3.441883087158203
5,0.3543138802051544,1.3426165580749512,0.100995734333992,36.715691,3.1848032,21.8,-0.55,-0.73,-0.02,94,76,0.9168917536735535,0.9165475964546204
6,-0.09358537197113037,2.9349029064178467,0.20246538519859314,36.7156706,3.1847665,21.79,-2.16,-3.08,0.05,93,168,3.771973133087158,3.7715036869049072
7,-0.14057771861553192,-1.9331108331680298,0.005788983777165413,36.7156354,3.184702,21.82,-2.18,-3.27,-0.01,93,249,3.9339687824249268,3.9339439868927
8,-0.010132689028978348,-1.621778964996338,0.23292933404445648,36.7156166,3.1846481,21.78,-0.19,-2.95,0.02,93,267,2.9570534229278564,2.9569573402404785
9,-0.4353998601436615,-0.6532411575317383,0.09137063473463058,36.7156482,3.1845914,21.77,4.17,-3.19,0.0,92,322,5.251500129699707,5.251497268676758
10,-0.5042815208435059,-0.6167531609535217,0.039846599102020264,36.7157089,3.1845377,21.77,6.43,-4.49,0.0,92,324,7.855128765106201,7.855127334594727
11,-0.5186391472816467,-0.6219905018806458,0.002972889458760619,36.7158419,3.1844219,21.79,7.86,-5.53,0.0,91,324,9.620219230651855,9.620217323303223
12,-0.36765149235725403,-0.6221941709518433,0.02572000026702881,36.7159478,3.1843285,21.81,7.53,-5.35,-0.02,91,324,9.245110511779785,9.24507999420166
13,-0.06795442849397659,-0.6257946491241455,-0.03163107857108116,36.716039,3.1842476,21.84,5.57,-3.99,0.04,91,324,6.8641533851623535,6.864034175872803
14,0.025064455345273018,-1.2231343984603882,-0.2713541090488434,36.7160948,3.1841836,21.97,1.04,-2.88,-0.26,90,289,3.0833606719970703,3.0715885162353516
15,-0.4157452881336212,-2.126230001449585,-0.0960191935300827,36.7160813,3.1841261,22.86,-2.83,-4.36,-0.89,90,238,5.27940034866333,5.203250408172607
16,-0.4474330246448517,-2.158231735229492,0.00605796230956912,36.7160166,3.184012,25.03,-4.99,-7.16,-1.47,89,236,8.856161117553711,8.731629371643066
17,-0.44322139024734497,-2.1651461124420166,-0.02504516765475273,36.7159434,3.1838812,27.44,-5.54,-8.04,-1.6,89,235,9.896827697753906,9.765251159667969
18,-0.46909981966018677,-2.1628305912017822,0.03232583403587341,36.7158559,3.1837201,30.31,-5.51,-8.2,-1.58,88,236,10.017959594726562,9.891737937927246
19,-0.42093488574028015,-2.163217544555664,0.005589256063103676,36.7157808,3.1835806,32.77,-5.54,-8.23,-1.59,88,236,10.058548927307129,9.930681228637695
20,-0.46172067523002625,-2.16544508934021,-0.0293662678450346,36.7157059,3.1834414,35.25,-5.52,-8.25,-1.6,87,235,10.066924095153809,9.937938690185547
21,-0.46200230717658997,-2.1662471294403076,0.04315973073244095,36.7156185,3.1832787,38.16,-5.54,-8.26,-1.62,87,235,10.08489990234375,9.953859329223633
22,-0.42284515500068665,-2.165328025817871,0.004137055482715368,36.7155437,3.1831388,40.65,-5.5,-8.27,-1.62,87,235,10.07241439819336,9.940239906311035
23,-0.4905443489551544,-2.1644108295440674,-0.0017743505304679275,36.7154566,3.1829757,43.57,-5.5,-8.29,-1.62,86,235,10.087472915649414,9.955687522888184
24,-0.4610343873500824,-2.1631979942321777,0.03449336811900139,36.7153821,3.1828362,46.07,-5.5,-8.28,-1.63,86,236,10.080063819885254,9.947222709655762
25,-0.4279845356941223,-2.162705659866333,0.00042762147495523095,36.7153076,3.1826966,48.57,-5.53,-8.32,-1.63,85,236,10.122901916503906,9.990621566772461
26,-0.48459604382514954,-2.1628260612487793,-0.008671971037983894,36.71522,3.182533,51.49,-5.51,-8.28,-1.63,85,236,10.08619499206543,9.953324317932129
27,-0.45361652970314026,-2.1644721031188965,0.03791975975036621,36.7151451,3.1823933,53.99,-5.5,-8.27,-1.64,84,235,10.077062606811523,9.942145347595215
28,-0.43612706661224365,-2.164163827896118,-0.04015291482210159,36.7150579,3.1822302,56.91,-5.51,-8.27,-1.63,84,236,10.078855514526367,9.944860458374023
29,-0.26805853843688965,-2.167316198348999,0.012675127945840359,36.7149873,3.1820989,59.29,-4.7,-7.03,-1.41,83,235,8.578309059143066,8.460651397705078
30,-0.04871108755469322,-2.1570982933044434,-0.010962928645312786,36.714928,3.1819876,61.16,-2.84,-4.36,-0.63,83,236,5.622358322143555,5.572962760925293
31,-0.15734189748764038,-2.1053853034973145,0.03589702770113945,36.7148958,3.1819224,61.71,-2.12,-3.69,-0.14,83,239,4.266712188720703,4.264257907867432
32,-0.1287226527929306,-2.085822343826294,-0.0024667002726346254,36.7148684,3.1818611,61.76,-1.99,-3.69,0.0,82,240,4.196661472320557,4.196657657623291
33,0.0037173519376665354,-2.0897438526153564,0.017041439190506935,36.7148383,3.1817928,61.73,-1.62,-2.96,0.08,82,240,3.3811519145965576,3.379973888397217
34,0.02475224994122982,-2.316973924636841,-0.07251272350549698,36.7148198,3.1817569,60.88,-1.2,-1.4,1.15,82,227,2.1785364151000977,1.84884774684906
35,-0.013177077285945415,-2.469446897506714,0.020964210852980614,36.7148024,3.1817383,58.28,-1.03,-0.79,1.43,81,218,1.9409542083740234,1.304930329322815
36,-0.059421390295028687,-2.4705421924591064,-0.013539242558181286,36.7147885,3.1817252,56.05,-1.03,-0.84,1.43,81,218,1.9582582712173462,1.3373472690582275
37,-0.01839231513440609,-2.469892978668213,0.02310050092637539,36.7147742,3.1817111,53.81,-1.06,-0.88,1.44,81,218,1.9985544681549072,1.3816039562225342
38,-0.059891846030950546,-2.470219612121582,0.011033899150788784,36.7147572,3.181694,51.19,-1.07,-0.88,1.45,80,218,2.0082645416259766,1.3891462087631226
39,-0.006042573135346174,-2.4694366455078125,0.0015097594587132335,36.7147426,3.1816794,48.95,-1.07,-0.87,1.45,80,218,2.0095016956329346,1.3863909244537354
40,-0.034939076751470566,-2.4697585105895996,0.03057836927473545,36.7147256,3.1816623,46.33,-1.06,-0.87,1.46,79,218,2.0100438594818115,1.3793888092041016
41,-0.020845549181103706,-2.4694886207580566,-0.024763859808444977,36.7147111,3.1816477,44.08,-1.06,-0.88,1.46,79,218,2.0191709995269775,1.38885498046875
42,-0.011483042500913143,-2.469515085220337,0.014545750804245472,36.7146941,3.1816305,41.46,-1.07,-0.88,1.46,79,218,2.0234313011169434,1.3931256532669067
43,-0.05192611366510391,-2.4689974784851074,-0.01545032113790512,36.7146795,3.1816157,39.22,-1.07,-0.89,1.47,78,218,2.0271241664886475,1.3946170806884766
44,-0.01650656946003437,-2.469282865524292,0.02384953200817108,36.7146648,3.181601,36.97,-1.06,-0.87,1.47,78,218,2.019969940185547,1.3808900117874146
45,-0.058557648211717606,-2.4696598052978516,0.015033758245408535,36.7146478,3.1815839,34.35,-1.06,-0.87,1.47,78,218,2.0235540866851807,1.3801296949386597
46,-0.00797053799033165,-2.46968936920166,-0.0037962619680911303,36.7146333,3.1815691,32.1,-1.06,-0.88,1.48,77,218,2.0271010398864746,1.3805071115493774
47,-0.03821934759616852,-2.470113754272461,0.027044743299484253,36.7146163,3.1815519,29.48,-1.06,-0.88,1.47,77,218,2.0230720043182373,1.3796088695526123
48,-0.02245650812983513,-2.4695091247558594,-0.02483321540057659,36.7146017,3.1815372,27.22,-1.07,-0.87,1.47,76,218,2.0240790843963623,1.384667992591858
49,-0.046208564192056656,-2.4697060585021973,0.024257130920886993,36.714587,3.1815225,24.97,-1.06,-0.88,1.47,76,218,2.021329402923584,1.380571722984314
50,-0.15455222129821777,-3.1020755767822266,-0.12930016219615936,36.714566,3.181509,22.46,-1.88,-0.15,1.1,76,182,2.1889543533325195,1.887986183166504
51,-0.20492561161518097,2.673862934112549,-0.0006352757336571813,36.7145299,3.1815224,21.76,-3.45,1.64,-0.03,75,153,3.8263468742370605,3.8261592388153076
52,-0.1926717460155487,2.67958664894104,-0.0011717138113453984,36.714468,3.1815604,21.87,-4.07,2.03,0.03,75,153,4.550528526306152,4.550411701202393
53,0.002178281545639038,2.984968662261963,0.18354877829551697,36.7144149,3.1815869,21.81,-3.57,0.58,0.05,75,171,3.6242728233337402,3.623886823654175
54,-0.39274007081985474,-2.239243268966675,0.126517653465271,36.7143721,3.1815665,21.79,-2.94,-3.28,0.02,74,231,4.416077136993408,4.416022777557373
55,-0.4590429365634918,-2.14675235748291,-0.007944680750370026,36.7143172,3.181465,21.79,-4.21,-6.7,0.01,74,237,7.916640758514404,7.916633129119873
56,-0.4906550645828247,-2.1469132900238037,-0.028548020869493484,36.7142545,3.1813414,21.8,-4.91,-7.69,0.0,73,237,9.126398086547852,9.126398086547852
57,-0.3040277063846588,-2.152168035507202,0.013446254655718803,36.7141772,3.1811919,21.83,-4.64,-7.15,0.0,73,236,8.532220840454102,8.532218933105469
58,-0.2531699240207672,-2.144545316696167,-0.012140754610300064,36.7141199,3.1810807,21.82,-3.79,-6.0,0.03,73,237,7.10416316986084,7.1040778160095215
59,-0.24558916687965393,-2.112295150756836,0.023083552718162537,36.7140645,3.1809675,21.79,-3.34,-5.67,0.01,72,238,6.620307922363281,6.620285511016846
60,-0.2965822219848633,-2.1004691123962402,-0.017623430117964745,36.7140204,3.1808722,21.8,-3.22,-5.66,0.01,72,239,6.5196967124938965,6.519684314727783
61,-0.1821814328432083,-2.10003662109375,0.031133176758885384,36.7139771,3.1807776,21.8,-3.04,-5.35,0.0,71,239,6.162881851196289,6.162881851196289
62,0.1220451220870018,-2.100825548171997,-0.009853614494204521,36.7139381,3.1806928,21.77,-1.58,-2.77,0.03,71,239,3.2001194953918457,3.1999409198760986
63,0.13344302773475647,-2.0999653339385986,0.015403182245790958,36.713927,3.1806684,21.78,-0.19,-0.36,-0.02,71,239,0.41623595356941223,0.4156992435455322
64,-0.02321203611791134,-2.1013238430023193,0.01264285109937191,36.7139274,3.180669,21.77,0.14,0.12,0.03,70,239,0.1943398267030716,0.19028905034065247
