timestamp,pitch,yaw,roll,lat,lon,alt,velocity_x,velocity_y,velocity_z,battery,heading,airspeed,groundspeed
0,-0.01326486561447382,-0.05118793249130249,0.031589992344379425,36.7156066,3.1846299,22.11,-0.01,0.02,-0.05,96,357,0.06252471357584,0.03352094814181328
1,-0.04066256433725357,-0.0487176738679409,0.07374684512615204,36.7156079,3.1846324,22.07,0.33,0.52,-0.03,95,357,0.6296031475067139,0.6284604072570801
2,-0.20353849232196808,1.429351568222046,-0.07923959195613861,36.71562,3.1846543,22.1,1.55,2.22,-0.04,95,81,2.7117302417755127,2.711378812789917
3,-0.185523122549057,0.8661807775497437,0.01885656639933586,36.7156524,3.1847112,22.12,2.35,3.32,-0.01,95,49,4.074822902679443,4.074792385101318
4,0.03836451470851898,0.9232822060585022,-0.0038721072487533092,36.7156842,3.1847662,22.11,2.12,2.95,0.0,94,52,3.637430429458618,3.637425661087036
5,0.34094977378845215,0.6909731030464172,-0.059870604425668716,36.7156998,3.1847913,22.13,-0.66,-1.03,-0.02,94,39,1.2330917119979858,1.2328687906265259
6,-0.05732952430844307,-0.9616889357566833,-0.19647440314292908,36.7156782,3.1847516,22.11,-2.15,-3.15,0.04,93,304,3.8220784664154053,3.82179856300354
7,-0.05920122191309929,-2.415889263153076,0.06140146777033806,36.7156432,3.1846874,22.16,-2.13,-3.29,0.0,93,221,3.9257614612579346,3.9257543087005615
8,-0.06580105423927307,-1.5948827266693115,0.24366304278373718,36.7156264,3.1846339,22.11,0.03,-2.89,0.02,93,268,2.8927156925201416,2.8925940990448
9,-0.364729642868042,-0.6529331207275391,0.09099175781011581,36.715653,3.1845856,22.1,3.84,-3.07,0.0,92,322,4.924455642700195,4.924452304840088
10,-0.5427663326263428,-0.6282123327255249,0.024340681731700897,36.7157398,3.1845089,22.11,6.91,-4.75,0.0,92,324,8.390985488891602,8.390985488891602
11,-0.47515973448753357,-0.616450846195221,0.024418197572231293,36.7158415,3.1844212,22.12,7.88,-5.47,0.0,91,324,9.602883338928223,9.60288143157959
12,-0.39141079783439636,-0.6184145212173462,-0.02668076567351818,36.7159652,3.184313,22.14,7.49,-5.3,-0.02,91,324,9.180574417114258,9.18054485321045
13,-0.08248311281204224,-0.623138427734375,0.013501952402293682,36.716055,3.1842334,22.16,5.44,-3.89,0.03,91,324,6.693404674530029,6.693297863006592
14,0.06545732170343399,-1.0653716325759888,-0.27550840377807617,36.7161052,3.1841784,22.25,1.61,-2.86,-0.2,90,298,3.298647165298462,3.2920970916748047
15,-0.37122005224227905,-2.130012035369873,-0.0436653271317482,36.7160922,3.1841115,23.25,-2.96,-4.42,-0.92,90,237,5.4085516929626465,5.328736782073975
16,-0.4710322618484497,-2.1589622497558594,-0.03531763330101967,36.7160377,3.1840156,25.1,-4.84,-6.91,-1.43,89,236,8.567115783691406,8.446588516235352
17,-0.47130057215690613,-2.166351318359375,0.03833455964922905,36.7159532,3.1838647,27.89,-5.56,-8.03,-1.6,89,235,9.907349586486816,9.776744842529297
18,-0.42881864309310913,-2.1642227172851562,0.029540495947003365,36.7158778,3.1837265,30.33,-5.52,-8.2,-1.58,88,236,10.021613121032715,9.894795417785645
19,-0.43213969469070435,-2.1637206077575684,-0.03015093319118023,36.7158027,3.183587,32.79,-5.53,-8.22,-1.6,88,236,10.047497749328613,9.91894817352295
20,-0.48491546511650085,-2.1661736965179443,0.03416302055120468,36.7157157,3.1834251,35.69,-5.52,-8.27,-1.6,87,235,10.078913688659668,9.95072078704834
21,-0.432389497756958,-2.162942886352539,0.029542123898863792,36.7156408,3.1832851,38.17,-5.51,-8.27,-1.62,87,236,10.076260566711426,9.944868087768555
22,-0.46130239963531494,-2.1640050411224365,-0.026601560413837433,36.7155535,3.183122,41.08,-5.5,-8.27,-1.62,87,236,10.07028865814209,9.938382148742676
23,-0.49335578083992004,-2.165987253189087,0.026331348344683647,36.7154789,3.1829827,43.58,-5.52,-8.27,-1.62,86,235,10.082125663757324,9.949951171875
24,-0.41966012120246887,-2.1636481285095215,0.0008670664392411709,36.7153917,3.1828195,46.5,-5.51,-8.29,-1.63,86,236,10.090840339660645,9.957082748413086
25,-0.4718218147754669,-2.162189245223999,-0.029973188415169716,36.7153171,3.1826796,49.0,-5.51,-8.3,-1.63,85,236,10.10085678100586,9.967896461486816
26,-0.49633288383483887,-2.1650915145874023,0.011442495509982109,36.7152423,3.1825399,51.51,-5.53,-8.29,-1.63,85,235,10.104310035705566,9.971780776977539
27,-0.4257402718067169,-2.163066864013672,-0.0007903603254817426,36.715155,3.1823767,54.43,-5.52,-8.3,-1.63,84,236,10.108813285827637,9.975111961364746
28,-0.44330766797065735,-2.1634392738342285,-0.029312148690223694,36.7150801,3.1822367,56.93,-5.51,-8.27,-1.63,84,236,10.081717491149902,9.947587966918945
29,-0.2298479676246643,-2.167539358139038,0.03332040086388588,36.7149977,3.1820836,59.71,-4.67,-6.94,-1.39,83,235,8.486852645874023,8.372015953063965
30,-0.050238970667123795,-2.162450075149536,-0.010025876574218273,36.7149457,3.1819865,61.36,-3.03,-4.6,-0.71,83,236,5.562820911407471,5.516458511352539
31,-0.16754232347011566,-2.1222660541534424,0.026220299303531647,36.7149117,3.1819192,62.0,-2.21,-3.69,-0.19,83,238,4.306698322296143,4.302463054656982
32,-0.14905385673046112,-2.101898193359375,-0.0226919986307621,36.7148785,3.1818476,62.08,-2.05,-3.66,0.0,82,239,4.206076622009277,4.206066131591797
33,-0.0314788892865181,-2.103208303451538,0.02144002914428711,36.7148515,3.1817888,62.08,-1.77,-3.13,0.02,82,239,3.6054999828338623,3.6054131984710693
34,0.0008508561295457184,-2.3334975242614746,-0.06507354229688644,36.7148289,3.1817456,61.16,-1.21,-1.37,1.18,82,226,2.184746026992798,1.832558274269104
35,-0.032518837600946426,-2.478363037109375,0.028627226129174232,36.714814,3.1817292,58.93,-1.02,-0.8,1.46,81,218,1.9580334424972534,1.303824543952942
36,-0.03713715076446533,-2.4721624851226807,-0.023319628089666367,36.7148,3.1817162,56.69,-1.04,-0.82,1.43,81,218,1.9534218311309814,1.329228162765503
37,-0.017325496301054955,-2.4694230556488037,0.017478231340646744,36.7147833,3.1816998,54.08,-1.06,-0.87,1.44,80,218,2.000629425048828,1.3806794881820679
38,-0.05621698871254921,-2.4696078300476074,-0.013623331673443317,36.7147687,3.1816852,51.83,-1.07,-0.88,1.45,80,218,2.0129733085632324,1.3923591375350952
39,-0.013351617380976677,-2.469778060913086,-0.005242701154202223,36.7147518,3.1816683,49.21,-1.07,-0.88,1.45,80,218,2.0129382610321045,1.3906692266464233
40,-0.0620756596326828,-2.469562530517578,0.004267060197889805,36.7147372,3.1816535,46.97,-1.07,-0.89,1.46,79,218,2.0216543674468994,1.3963536024093628
41,-0.028378650546073914,-2.4692463874816895,-0.023762192577123642,36.7147202,3.1816363,44.36,-1.07,-0.88,1.47,79,218,2.0281519889831543,1.3905352354049683
42,-0.04841725528240204,-2.469796657562256,0.024497436359524727,36.7147056,3.1816216,42.1,-1.06,-0.89,1.47,79,218,2.025221109390259,1.3897162675857544
43,-0.012863860465586185,-2.4696524143218994,-0.01478079054504633,36.714691,3.1816069,39.86,-1.06,-0.87,1.47,78,218,2.0225894451141357,1.3836488723754883
44,-0.031226372346282005,-2.4695074558258057,0.0282575823366642,36.714674,3.1815898,37.24,-1.05,-0.88,1.48,78,218,2.0230534076690674,1.3750817775726318
45,-0.034332163631916046,-2.4694712162017822,-0.02139095403254032,36.7146594,3.1815751,34.99,-1.06,-0.89,1.48,78,218,2.033412456512451,1.3922491073608398
46,-0.012196339666843414,-2.4691219329833984,0.016003554686903954,36.7146424,3.1815579,32.36,-1.06,-0.88,1.47,77,218,2.022623062133789,1.383392095565796
47,-0.05406909063458443,-2.4695491790771484,-0.015011020004749298,36.7146278,3.1815432,30.12,-1.06,-0.89,1.48,77,218,2.0327811241149902,1.3916912078857422
48,-0.0031067959498614073,-2.469329595565796,-0.0060603199526667595,36.7146108,3.181526,27.49,-1.05,-0.88,1.48,76,218,2.0230188369750977,1.3786360025405884
49,-0.06437239795923233,-2.469369649887085,0.0025652609765529633,36.7145963,3.1815114,25.23,-1.05,-0.89,1.47,76,218,2.020228624343872,1.3807777166366577
50,-0.082582987844944,-2.9722797870635986,-0.09718717634677887,36.7145789,3.1814989,23.05,-1.7,-0.35,1.25,76,189,2.1481900215148926,1.7460455894470215
51,-0.23346421122550964,2.6666760444641113,0.010974460281431675,36.714538,3.181513,22.1,-3.45,1.68,-0.03,75,152,3.8485047817230225,3.8483121395111084
52,-0.1502375304698944,2.6717019081115723,-0.01427401788532734,36.7144859,3.1815454,22.19,-4.01,2.04,0.0,75,153,4.505358695983887,4.5053582191467285
53,-0.02723856456577778,3.024461269378662,0.22504359483718872,36.7144247,3.1815762,22.13,-3.51,0.41,0.04,75,173,3.538055896759033,3.537761688232422
54,-0.37172603607177734,-2.218473434448242,0.09396456182003021,36.7143823,3.181552,22.12,-3.0,-3.48,0.01,74,232,4.602065086364746,4.602027416229248
55,-0.5110263824462891,-2.146057367324829,0.02326315827667713,36.7143354,3.1814662,22.12,-4.12,-6.48,0.01,74,237,7.686341285705566,7.686333179473877
56,-0.43618014454841614,-2.153519868850708,-0.025887561962008476,36.7142623,3.1813235,22.13,-4.96,-7.68,0.0,73,236,9.150213241577148,9.150213241577148
57,-0.3641541302204132,-2.156196355819702,-0.015553323552012444,36.7141949,3.1811946,22.15,-4.78,-7.3,-0.01,73,236,8.731582641601562,8.731569290161133
58,-0.21230891346931458,-2.1473448276519775,0.014642821624875069,36.7141269,3.1810645,22.14,-3.77,-5.9,0.03,73,236,7.007416248321533,7.007350444793701
59,-0.2966187000274658,-2.117083787918091,0.0019506507087498903,36.7140794,3.1809681,22.12,-3.35,-5.68,0.01,72,238,6.6039299964904785,6.603917598724365
60,-0.27497026324272156,-2.1005916595458984,0.03595573827624321,36.714035,3.1808725,22.12,-3.21,-5.65,0.0,72,239,6.4990129470825195,6.499009609222412
61,-0.18513047695159912,-2.0998265743255615,-0.022368663921952248,36.7139847,3.1807624,22.13,-3.02,-5.29,0.0,71,239,6.0980095863342285,6.098010063171387
62,0.13355757296085358,-2.100634813308716,0.02797979861497879,36.7139506,3.1806884,22.1,-1.81,-3.15,0.03,71,239,3.6415441036224365,3.641343593597412
63,0.07644926756620407,-2.1002418994903564,0.0032101564574986696,36.7139366,3.1806574,22.11,-0.16,-0.31,-0.02,71,239,0.35594311356544495,0.3553687036037445
64,0.028607789427042007,-2.0994973182678223,0.04772622138261795,36.7139371,3.180658,22.09,0.16,0.11,0.04,70,239,0.20277957618236542,0.1984228491783142
