timestamp,pitch,yaw,roll,lat,lon,alt,velocity_x,velocity_y,velocity_z,battery,heading,airspeed,groundspeed
0,0.023061402142047882,0.03113342635333538,-0.015680883079767227,36.7156067,3.18463,20.49,-0.02,0.02,0.0,96,1,0.03933797776699066,0.03932848945260048
1,-0.05768866837024689,0.04147472232580185,0.11909258365631104,36.7156081,3.1846326,20.44,0.37,0.57,0.0,95,2,0.6887587904930115,0.6886925101280212
2,-0.23583094775676727,1.3373068571090698,-0.08621563762426376,36.7156217,3.1846551,20.42,1.69,2.28,-0.02,95,76,2.8485889434814453,2.848445177078247
3,-0.15986891090869904,0.9451826214790344,-0.03331851214170456,36.715656,3.1847124,20.46,2.44,3.27,-0.03,95,54,4.084969997406006,4.084825038909912
4,0.025948692113161087,0.9142483472824097,0.024402497336268425,36.7156887,3.1847659,20.47,2.11,2.75,-0.01,94,52,3.4678292274475098,3.4677793979644775
5,0.3502456843852997,0.5694199204444885,-0.15406112372875214,36.7157037,3.1847876,20.46,-0.38,-0.72,0.0,94,32,0.82220458984375,0.8221492171287537
6,-0.06622258573770523,-1.256305456161499,-0.12226686626672745,36.7156789,3.1847417,20.51,-2.25,-3.24,-0.02,93,288,3.9489095211029053,3.9488399028778076
7,-0.12073851376771927,-2.408825635910034,0.04569916054606438,36.7156484,3.184686,20.5,-2.16,-3.27,0.01,93,221,3.931090831756592,3.9310736656188965
8,-0.06696498394012451,-1.475989818572998,0.2298492044210434,36.7156298,3.1846241,20.48,0.41,-2.82,0.01,93,275,2.852600336074829,2.852565050125122
9,-0.4309118390083313,-0.6632012724876404,0.10403624922037125,36.7156615,3.1845757,20.48,4.18,-3.18,0.0,92,322,5.259387493133545,5.259387969970703
10,-0.5083922743797302,-0.6254078149795532,-0.021641172468662262,36.7157528,3.1844958,20.49,7.06,-4.88,0.0,92,324,8.588796615600586,8.58879280090332
11,-0.518548846244812,-0.6187485456466675,0.008608963340520859,36.7158554,3.1844069,20.5,7.88,-5.5,0.0,91,324,9.618825912475586,9.618825912475586
12,-0.3737693727016449,-0.6191573739051819,0.025183187797665596,36.7159614,3.184314,20.53,7.59,-5.36,-0.01,91,324,9.299190521240234,9.299171447753906
13,-0.050802525132894516,-0.6261603832244873,-0.05278420075774193,36.7160659,3.1842218,20.55,5.13,-3.71,0.05,91,324,6.341839790344238,6.341623306274414
14,0.03573932126164436,-1.192517876625061,-0.26093804836273193,36.7161107,3.1841687,20.67,1.11,-2.86,-0.25,90,291,3.0823376178741455,3.0719707012176514
15,-0.43438971042633057,-2.133082389831543,-0.03741002455353737,36.7160913,3.1840992,21.78,-3.23,-4.7,-0.98,90,237,5.790832996368408,5.707162857055664
16,-0.44941529631614685,-2.1607556343078613,0.022600702941417694,36.7160338,3.1839987,23.69,-4.96,-7.11,-1.47,89,236,8.80052375793457,8.676166534423828
17,-0.42650169134140015,-2.1634957790374756,-0.021714160218834877,36.7159612,3.1838681,26.11,-5.51,-8.03,-1.6,89,236,9.87993049621582,9.748440742492676
18,-0.48498639464378357,-2.1629717350006104,0.026608388870954514,36.7158736,3.1837073,28.98,-5.54,-8.2,-1.57,88,236,10.027202606201172,9.902698516845703
19,-0.4268219769001007,-2.1636061668395996,0.023494761437177658,36.7157983,3.1835677,31.45,-5.55,-8.23,-1.58,88,236,10.062801361083984,9.936626434326172
20,-0.4871385395526886,-2.162436008453369,-0.018977168947458267,36.7157111,3.1834052,34.33,-5.52,-8.25,-1.59,87,236,10.064610481262207,9.937634468078613
21,-0.48370644450187683,-2.164139986038208,0.030512191355228424,36.7156364,3.1832661,36.81,-5.54,-8.28,-1.61,87,236,10.098771095275879,9.968220710754395
22,-0.4220033288002014,-2.164093255996704,-0.004940732382237911,36.7155489,3.1831027,39.73,-5.51,-8.29,-1.62,87,236,10.090703010559082,9.959341049194336
23,-0.47941774129867554,-2.164875030517578,-0.015958428382873535,36.7154741,3.182963,42.23,-5.5,-8.27,-1.61,86,235,10.07521915435791,9.944221496582031
24,-0.4423931837081909,-2.164309501647949,0.03158868849277496,36.7153871,3.1828001,45.15,-5.51,-8.28,-1.63,86,236,10.088055610656738,9.95517349243164
25,-0.4306829571723938,-2.166306495666504,-0.00949688907712698,36.7153123,3.1826602,47.65,-5.52,-8.31,-1.63,85,235,10.11194896697998,9.97935962677002
26,-0.4641275107860565,-2.1646974086761475,-0.034583427011966705,36.7152375,3.1825203,50.16,-5.5,-8.28,-1.62,85,235,10.080087661743164,9.94803524017334
27,-0.4434472918510437,-2.1647422313690186,0.03907985985279083,36.7151504,3.1823572,53.08,-5.51,-8.3,-1.63,84,235,10.1002836227417,9.967676162719727
28,-0.4152525067329407,-2.164541482925415,-0.016551917418837547,36.7150756,3.1822174,55.58,-5.52,-8.27,-1.63,84,235,10.08459758758545,9.951939582824707
29,-0.22283148765563965,-2.1680071353912354,0.023657003417611122,36.7149942,3.1820662,58.31,-4.49,-6.71,-1.34,83,235,8.190346717834473,8.0794038772583
30,-0.0391562357544899,-2.1596181392669678,0.013706061989068985,36.7149449,3.1819736,59.85,-2.89,-4.41,-0.65,83,236,5.319518089294434,5.279454708099365
31,-0.1594536304473877,-2.112868547439575,0.03071117028594017,36.7149071,3.1818975,60.44,-2.14,-3.68,-0.1,83,238,4.267305374145508,4.266013145446777
32,-0.132558211684227,-2.102123975753784,-0.009636426344513893,36.7148789,3.1818363,60.46,-2.08,-3.68,-0.01,82,239,4.230378150939941,4.230353355407715
33,-0.027200663462281227,-2.1042520999908447,-0.0002386586129432544,36.7148522,3.1817782,60.44,-1.69,-2.99,0.06,82,239,3.439393997192383,3.438769578933716
34,0.020175117999315262,-2.3707172870635986,-0.06322403252124786,36.7148304,3.1817381,59.33,-1.2,-1.24,1.29,82,224,2.160266160964966,1.7297612428665161
35,-0.052459873259067535,-2.4716684818267822,0.02061266265809536,36.7148157,3.181723,57.06,-1.02,-0.79,1.43,81,218,1.9387232065200806,1.3000292778015137
36,-0.05709639564156532,-2.469144105911255,-0.01486173179000616,36.7147993,3.1817075,54.45,-1.05,-0.84,1.42,81,218,1.9631876945495605,1.3498167991638184
37,-0.02518446184694767,-2.469207763671875,0.02489033155143261,36.714785,3.1816932,52.21,-1.06,-0.87,1.43,80,218,1.9885241985321045,1.3745079040527344
38,-0.04330098628997803,-2.4698848724365234,-0.023966746404767036,36.7147704,3.1816787,49.97,-1.07,-0.87,1.45,80,218,2.0075759887695312,1.3876813650131226
39,-0.008357077836990356,-2.46919584274292,0.01060013473033905,36.7147535,3.1816616,47.36,-1.07,-0.87,1.45,80,218,2.008864402770996,1.3839367628097534
40,-0.05932357907295227,-2.4695181846618652,-0.006528154946863651,36.7147388,3.181647,45.11,-1.07,-0.88,1.46,79,218,2.017510414123535,1.3922191858291626
41,-0.014185172505676746,-2.4692916870117188,-0.01496982667595148,36.7147219,3.1816298,42.49,-1.05,-0.88,1.46,79,218,2.009883403778076,1.3766887187957764
42,-0.05786740407347679,-2.469869375228882,0.017163746058940887,36.7147073,3.1816151,40.24,-1.07,-0.89,1.46,79,218,2.026374578475952,1.3972163200378418
43,-0.00950556993484497,-2.469679117202759,-0.007527831941843033,36.7146927,3.1816004,37.99,-1.07,-0.87,1.46,78,218,2.0187294483184814,1.3868809938430786
44,-0.044340189546346664,-2.469547986984253,0.0267333984375,36.7146757,3.1815833,35.37,-1.05,-0.88,1.47,78,218,2.0175559520721436,1.3799798488616943
45,-0.02232937142252922,-2.4694652557373047,-0.02364199236035347,36.7146611,3.1815685,33.12,-1.06,-0.89,1.47,78,218,2.0250020027160645,1.3875360488891602
46,-0.014905930496752262,-2.469062089920044,0.0208223108202219,36.7146441,3.1815513,30.51,-1.06,-0.88,1.47,77,218,2.025759696960449,1.3866177797317505
47,-0.050289008766412735,-2.469754934310913,-0.02080014906823635,36.7146295,3.1815367,28.26,-1.06,-0.88,1.48,77,218,2.0307846069335938,1.3858625888824463
48,-0.007469159085303545,-2.468994617462158,0.0032012618612498045,36.7146125,3.1815194,25.63,-1.06,-0.88,1.47,76,218,2.024052619934082,1.3808585405349731
49,-0.034515395760536194,-2.469566583633423,-0.02324390597641468,36.7146003,3.1815072,23.75,-1.07,-0.88,1.47,76,218,2.027263879776001,1.3885103464126587
50,-0.09809743613004684,-3.080578088760376,-0.0985274463891983,36.7145796,3.1814933,21.23,-1.83,-0.19,1.14,76,183,2.16947340965271,1.8431798219680786
51,-0.23312006890773773,2.668569564819336,0.01623055338859558,36.7145363,3.1815109,20.48,-3.58,1.78,-0.06,75,152,4.004849433898926,4.004298686981201
52,-0.13780786097049713,2.6717631816864014,-0.018587501719594002,36.7144832,3.181544,20.57,-4.0,2.05,0.02,75,153,4.497687816619873,4.497632026672363
53,-0.03170837089419365,3.121074914932251,0.2568454146385193,36.7144229,3.181572,20.51,-3.37,0.07,0.04,75,178,3.379551887512207,3.3792760372161865
54,-0.38973814249038696,-2.1950197219848633,0.07584545761346817,36.7143815,3.1815408,20.5,-3.02,-3.89,0.01,74,234,4.928044319152832,4.9280219078063965
55,-0.4788748025894165,-2.1532745361328125,0.03295736387372017,36.7143238,3.1814303,20.5,-4.39,-6.97,0.0,74,237,7.915439605712891,7.915435791015625
56,-0.43257051706314087,-2.149808645248413,-0.02428337186574936,36.7142599,3.1813047,20.51,-4.95,-7.7,0.0,73,236,9.160115242004395,9.160114288330078
57,-0.35186898708343506,-2.152176856994629,-0.008475026115775108,36.7141934,3.1811764,20.53,-4.66,-7.18,0.0,73,236,8.564066886901855,8.56406307220459
58,-0.21476593613624573,-2.1429357528686523,0.009037607349455357,36.7141272,3.1810481,20.52,-3.69,-5.85,0.03,73,237,6.9268412590026855,6.926750659942627
59,-0.29842397570610046,-2.119359254837036,4.5308723201742396e-05,36.71408,3.1809519,20.51,-3.35,-5.65,0.01,72,238,6.573397636413574,6.57337760925293
60,-0.25704115629196167,-2.107933759689331,-0.007683976553380489,36.7140281,3.1808412,20.51,-3.28,-5.66,0.01,72,239,6.544887065887451,6.544878005981445
61,-0.16477790474891663,-2.108137369155884,-0.01760537177324295,36.7139844,3.1807478,20.51,-3.01,-5.16,0.0,71,239,5.980710029602051,5.980709552764893
62,0.1694258749485016,-2.1090149879455566,0.021738488227128983,36.7139513,3.1806775,20.48,-1.64,-2.8,0.03,71,239,3.2494757175445557,3.2492611408233643
63,0.06638963520526886,-2.1088125705718994,0.01240706816315651,36.7139395,3.1806518,20.5,-0.07,-0.15,-0.01,71,239,0.17531242966651917,0.17474602162837982
64,0.021883662790060043,-2.1079792976379395,0.05335746333003044,36.7139406,3.1806535,20.47,0.22,0.06,0.03,70,239,0.23560211062431335,0.23221619427204132
