timestamp,pitch,yaw,roll,lat,lon,alt,velocity_x,velocity_y,velocity_z,battery,heading,airspeed,groundspeed
0,-0.014058874920010567,-0.049283429980278015,-0.01565188728272915,36.7156066,3.18463,19.06,-0.01,0.02,0.05,96,357,0.06416971981525421,0.027897125110030174
1,-0.059084076434373856,0.006609323434531689,0.09528887271881104,36.7156085,3.1846335,19.03,0.42,0.72,0.0,95,0,0.8394800424575806,0.8394308686256409
2,-0.1987905651330948,1.5209081172943115,-0.08639997243881226,36.7156223,3.1846607,19.0,1.67,2.59,-0.03,95,87,3.0902156829833984,3.090040445327759
3,-0.17173929512500763,0.8578206896781921,-0.009653354063630104,36.7156498,3.1847132,19.04,2.23,3.44,-0.04,95,49,4.104748725891113,4.104525089263916
4,0.11944039165973663,0.9719665050506592,0.00044232181971892715,36.7156842,3.1847778,19.08,1.74,2.64,-0.01,94,55,3.1691887378692627,3.169132709503174
5,0.31394723057746887,1.1464959383010864,0.07111851871013641,36.715693,3.1847938,19.08,-0.79,-1.15,0.0,94,65,1.408413290977478,1.4084131717681885
6,-0.08470471948385239,3.0972323417663574,0.1043744757771492,36.7156653,3.184744,19.12,-2.27,-3.21,-0.01,93,177,3.9416704177856445,3.9416487216949463
7,-0.08132806420326233,-1.909074306488037,0.05694197863340378,36.7156353,3.1846881,19.11,-2.09,-3.25,0.0,93,250,3.8664016723632812,3.8663952350616455
8,-0.081646628677845,-1.498438835144043,0.2142251431941986,36.7156201,3.1846351,19.09,0.22,-2.87,0.0,93,274,2.886841058731079,2.8868319988250732
9,-0.4032449722290039,-0.646397054195404,0.0533083938062191,36.7156583,3.1845776,19.09,4.54,-3.35,0.0,92,322,5.649965763092041,5.649965763092041
10,-0.5403842926025391,-0.6277089715003967,-0.0027635672595351934,36.7157377,3.184508,19.09,6.97,-4.83,0.0,92,324,8.491300582885742,8.49129581451416
11,-0.4546222388744354,-0.6185845136642456,0.012147903442382812,36.7158576,3.1844037,19.11,7.87,-5.54,-0.01,91,324,9.629576683044434,9.629569053649902
12,-0.36040180921554565,-0.6233129501342773,-0.02592497691512108,36.7159628,3.1843107,19.14,7.39,-5.27,-0.02,91,324,9.089188575744629,9.08916187286377
13,0.019851582124829292,-0.6439374685287476,-0.03418167680501938,36.716062,3.1842223,19.15,4.67,-3.52,0.03,91,323,5.8523454666137695,5.852237701416016
14,-0.09105298668146133,-1.3758795261383057,-0.30346938967704773,36.7160993,3.1841705,19.34,0.51,-2.93,-0.33,90,281,2.9970457553863525,2.978430986404419
15,-0.3867940306663513,-2.1337878704071045,-0.03420800343155861,36.7160797,3.1841097,20.34,-3.15,-4.61,-0.96,90,237,5.673123359680176,5.589755535125732
16,-0.5108065009117126,-2.1630821228027344,-0.013609075918793678,36.7160116,3.1839904,22.61,-5.08,-7.32,-1.51,89,236,9.046977043151855,8.919729232788086
17,-0.4786700904369354,-2.1628599166870117,0.01955334283411503,36.7159385,3.1838584,25.05,-5.53,-8.06,-1.59,89,236,9.90890884399414,9.778895378112793
18,-0.4374758303165436,-2.165412425994873,-0.018349528312683105,36.7158505,3.1836971,27.92,-5.55,-8.24,-1.57,88,235,10.063763618469238,9.939329147338867
19,-0.48787879943847656,-2.1630187034606934,-0.01686485856771469,36.7157752,3.1835572,30.38,-5.53,-8.26,-1.58,88,236,10.071699142456055,9.945429801940918
20,-0.4683718979358673,-2.166335344314575,0.037958186119794846,36.7157003,3.1834178,32.85,-5.5,-8.24,-1.6,88,235,10.046682357788086,9.917109489440918
21,-0.43917638063430786,-2.164184331893921,-0.025036176666617393,36.7156135,3.1832554,35.75,-5.48,-8.27,-1.62,87,236,10.061092376708984,9.929451942443848
22,-0.4887789785861969,-2.1624064445495605,-0.014239289797842503,36.7155389,3.1831158,38.25,-5.52,-8.26,-1.62,87,236,10.0735445022583,9.942155838012695
23,-0.430453360080719,-2.1633827686309814,0.025738993659615517,36.7154517,3.182953,41.16,-5.51,-8.27,-1.63,86,236,10.081588745117188,9.948418617248535
24,-0.4418420195579529,-2.1656746864318848,-0.021992940455675125,36.7153768,3.1828132,43.66,-5.53,-8.3,-1.63,86,235,10.113024711608887,9.979889869689941
25,-0.4782038927078247,-2.1676762104034424,0.03655237331986427,36.7152894,3.1826502,46.59,-5.5,-8.29,-1.63,85,235,10.092052459716797,9.958585739135742
26,-0.4455561339855194,-2.1632604598999023,0.027987513691186905,36.7152151,3.1825105,49.1,-5.53,-8.32,-1.63,85,236,10.12758731842041,9.994832992553711
27,-0.44190114736557007,-2.1652145385742188,-0.025130731984972954,36.7151401,3.18237,51.6,-5.53,-8.29,-1.63,84,235,10.102927207946777,9.969991683959961
28,-0.44672921299934387,-2.1640453338623047,0.031690746545791626,36.715053,3.1822071,54.52,-5.46,-8.2,-1.62,84,236,9.990078926086426,9.856319427490234
29,-0.18552391231060028,-2.168635368347168,0.008356192149221897,36.7149835,3.1820786,56.85,-4.57,-6.77,-1.35,83,235,8.285787582397461,8.173445701599121
30,-0.08749127388000488,-2.1535797119140625,0.03376612812280655,36.714927,3.1819724,58.58,-2.69,-4.2,-0.57,83,236,5.02455472946167,4.991959571838379
31,-0.11416926980018616,-2.0998401641845703,0.005536907818168402,36.714896,3.1819081,59.05,-2.09,-3.69,-0.11,83,239,4.25368595123291,4.252121448516846
32,-0.19029252231121063,-2.0855908393859863,-0.003464984707534313,36.7148686,3.1818466,59.07,-2.01,-3.7,-0.01,82,240,4.213209629058838,4.213197231292725
33,0.026593739166855812,-2.0948333740234375,-0.03943374380469322,36.714839,3.18178,59.03,-1.55,-2.77,0.15,82,239,3.185098171234131,3.1814723014831543
34,0.001841758843511343,-2.357081174850464,-0.022527499124407768,36.7148212,3.1817472,57.99,-1.17,-1.27,1.27,82,224,2.1520497798919678,1.7366374731063843
35,-0.045608147978782654,-2.4642815589904785,-0.025661377236247063,36.7148041,3.1817294,55.35,-1.04,-0.8,1.43,81,218,1.9426923990249634,1.3131364583969116
36,-0.022731319069862366,-2.469303846359253,0.02647198922932148,36.71479,3.1817161,53.12,-1.05,-0.83,1.43,81,218,1.9620733261108398,1.3424464464187622
37,-0.06494399905204773,-2.4692652225494385,0.0012830245541408658,36.7147732,3.1816996,50.51,-1.06,-0.87,1.44,80,218,1.9946997165679932,1.3791487216949463
38,-0.008423457853496075,-2.4697182178497314,0.002945228014141321,36.7147587,3.181685,48.27,-1.07,-0.87,1.45,80,218,2.010742664337158,1.3859179019927979
39,-0.0622570775449276,-2.469223976135254,-0.00944571103900671,36.7147442,3.1816704,46.02,-1.07,-0.89,1.45,80,218,2.018970012664795,1.3950361013412476
40,-0.023738974705338478,-2.469867706298828,-0.025632349774241447,36.7147272,3.1816533,43.4,-1.07,-0.89,1.46,79,218,2.0241103172302246,1.3978807926177979
41,-0.06118134409189224,-2.469670295715332,0.0213654525578022,36.7147126,3.1816385,41.15,-1.07,-0.88,1.46,79,218,2.0223639011383057,1.3915581703186035
42,-0.05181819200515747,-2.4696476459503174,-0.020711569115519524,36.7146955,3.1816215,38.53,-1.06,-0.88,1.47,79,218,2.02250599861145,1.3880780935287476
43,-0.02780427597463131,-2.4692535400390625,0.02593066543340683,36.714681,3.1816068,36.28,-1.06,-0.88,1.46,78,218,2.0196774005889893,1.385753870010376
44,-0.04134770482778549,-2.469496011734009,-0.025372613221406937,36.7146665,3.181592,34.04,-1.06,-0.89,1.47,78,218,2.029900312423706,1.3960702419281006
45,-0.00863923504948616,-2.469231605529785,2.608337308629416e-05,36.7146494,3.1815747,31.41,-1.06,-0.88,1.47,78,218,2.0252463817596436,1.3869333267211914
46,-0.0618986114859581,-2.469703197479248,-0.005403946153819561,36.7146348,3.1815601,29.17,-1.06,-0.88,1.47,77,218,2.0245282649993896,1.3840585947036743
47,-0.019279006868600845,-2.469900131225586,-0.02301255613565445,36.7146178,3.1815429,26.55,-1.06,-0.88,1.48,77,218,2.0288829803466797,1.3828125
48,-0.05747907981276512,-2.469588279724121,0.01923670992255211,36.7146033,3.1815282,24.29,-1.06,-0.88,1.48,76,218,2.026960611343384,1.383933663368225
49,-0.012516592629253864,-2.46950364112854,-0.0118106659501791,36.7145887,3.1815134,22.04,-1.06,-0.88,1.47,76,218,2.022784948348999,1.3829776048660278
50,-0.14294153451919556,3.069227695465088,-0.08199442923069,36.7145662,3.1815015,19.61,-2.03,0.04,0.97,76,175,2.2577154636383057,2.0376646518707275
51,-0.2373541295528412,2.675753116607666,-0.038603026419878006,36.7145277,3.1815183,19.09,-3.58,1.75,-0.06,75,153,3.990147590637207,3.9896881580352783
52,-0.12456586956977844,2.6804044246673584,0.024298235774040222,36.7144652,3.1815566,19.18,-4.06,2.03,0.04,75,153,4.54988956451416,4.549685001373291
53,-0.054146572947502136,3.067934513092041,0.19806113839149475,36.7144128,3.1815802,19.12,-3.48,0.24,0.04,75,175,3.489976406097412,3.4896984100341797
54,-0.39290735125541687,-2.188762903213501,0.07168924808502197,36.714364,3.1815416,19.11,-3.09,-4.3,0.01,74,233,4.7509565353393555,4.750929832458496
55,-0.516981840133667,-2.154301643371582,0.009367440827190876,36.714314,3.181445,19.11,-4.33,-6.89,0.01,74,236,8.148138999938965,8.148131370544434
56,-0.4526762068271637,-2.149763345718384,0.03198188170790672,36.7142504,3.1813198,19.12,-4.92,-7.7,0.0,73,236,9.145999908447266,9.145999908447266
57,-0.33420610427856445,-2.1528573036193848,-0.020275847986340523,36.7141736,3.1811712,19.14,-4.56,-7.03,0.0,73,236,8.383798599243164,8.383798599243164
58,-0.2440260946750641,-2.1429989337921143,0.04061451554298401,36.7141173,3.181062,19.13,-3.71,-5.88,0.03,73,237,6.96312141418457,6.9630513191223145
59,-0.2904956042766571,-2.110375165939331,-0.009956003166735172,36.7140626,3.1809495,19.11,-3.28,-5.66,0.01,72,239,6.545431137084961,6.545422077178955
60,-0.2809796929359436,-2.099480390548706,0.03236376866698265,36.7140189,3.1808544,19.12,-3.21,-5.65,0.01,72,239,6.5057759284973145,6.505765914916992
61,-0.13414601981639862,-2.0999486446380615,-0.019116995856165886,36.7139693,3.1807464,19.12,-2.87,-5.01,0.0,71,239,6.051429271697998,6.051429271697998
62,0.18190404772758484,-2.1003520488739014,0.02335083670914173,36.713939,3.1806806,19.09,-1.39,-2.44,0.02,71,239,2.812687635421753,2.8125648498535156
63,0.08712725341320038,-2.100168228149414,-0.023635517805814743,36.7139299,3.1806603,19.1,-0.1,-0.2,-0.01,71,239,0.2334430068731308,0.2326786071062088
64,0.018248016014695168,-2.099248170852661,0.07147452980279922,36.7139314,3.180662,19.07,0.3,-0.01,0.03,70,239,0.30851489305496216,0.3069470226764679
