timestamp,pitch,yaw,roll,lat,lon,alt,velocity_x,velocity_y,velocity_z,battery,heading,airspeed,groundspeed
0,0.027668168768286705,-0.021114928647875786,-0.003606703830882907,36.7156067,3.1846299,18.12,-0.03,0.02,0.01,96,358,0.04480728507041931,0.04365921393036842
1,-0.07981996983289719,-0.028248164802789688,0.09951503574848175,36.7156075,3.1846318,18.15,0.27,0.46,-0.01,95,358,0.5430381894111633,0.5429044961929321
2,-0.23417244851589203,1.4624654054641724,-0.12276025116443634,36.7156215,3.1846581,18.11,1.67,2.43,-0.02,95,83,2.9562089443206787,2.956138849258423
3,-0.1469152569770813,0.8541568517684937,0.003709478536620736,36.7156503,3.1847091,18.14,2.37,3.41,-0.03,95,48,4.161746025085449,4.161580562591553
4,0.01596248149871826,0.9451863765716553,0.032383792102336884,36.7156881,3.1847757,18.17,2.1,3.01,-0.01,94,54,3.6796319484710693,3.679593563079834
5,0.3587200939655304,0.8606081604957581,-0.05854032561182976,36.7157039,3.1848025,18.16,-0.22,-0.38,0.01,94,49,0.4408828616142273,0.44064033031463623
6,-0.00879880040884018,-0.711978018283844,-0.1834525614976883,36.7156859,3.1847692,18.19,-2.11,-3.02,-0.03,93,319,3.6909868717193604,3.6908187866210938
7,-0.13123121857643127,-2.3855791091918945,0.06898543238639832,36.7156505,3.1847053,18.2,-2.22,-3.28,0.01,93,223,3.970226764678955,3.97019624710083
8,-0.0029299401212483644,-1.6784528493881226,0.17950373888015747,36.7156301,3.1846509,18.18,-0.45,-2.98,0.01,93,263,3.023977041244507,3.0239524841308594
9,-0.3783533573150635,-0.6509643197059631,0.10263244807720184,36.7156571,3.1845942,18.17,3.92,-3.09,0.0,92,322,4.997866153717041,4.99786376953125
10,-0.4711560606956482,-0.6067146062850952,0.001735052326694131,36.7157153,3.1845428,18.17,6.26,-4.35,0.0,92,325,7.631464958190918,7.63146448135376
11,-0.5303568840026855,-0.6145519018173218,0.012223143130540848,36.7158293,3.1844444,18.19,7.8,-5.42,0.0,91,324,9.50981330871582,9.509812355041504
12,-0.37571775913238525,-0.6190225481987,-0.023961137980222702,36.7159536,3.1843355,18.21,7.66,-5.4,-0.02,91,324,9.378499031066895,9.378459930419922
13,-0.13712497055530548,-0.6221560835838318,0.0004210046317894012,36.7160472,3.1842527,18.24,5.86,-4.16,0.03,91,324,7.1946868896484375,7.194614410400391
14,0.04516952857375145,-1.0848708152770996,-0.28234440088272095,36.7161089,3.184187,18.33,1.5,-2.86,-0.21,90,297,3.2469053268432617,3.239668607711792
15,-0.3803710639476776,-2.1259841918945312,-0.06267938017845154,36.7161009,3.1841319,19.13,-2.5,-4.1,-0.82,90,238,4.877052307128906,4.806302547454834
16,-0.4925224184989929,-2.161635637283325,-0.02494954504072666,36.7160394,3.1840229,21.2,-4.86,-6.95,-1.44,89,236,8.604713439941406,8.482645988464355
17,-0.49305063486099243,-2.1633150577545166,0.010343493893742561,36.7159675,3.183894,23.58,-5.53,-7.99,-1.61,89,236,9.858595848083496,9.726179122924805
18,-0.43751057982444763,-2.1646058559417725,0.030839556828141212,36.7158924,3.1837571,26.05,-5.54,-8.19,-1.58,88,235,10.022148132324219,9.896666526794434
19,-0.483738511800766,-2.1630024909973145,-0.02333139069378376,36.7158048,3.1835941,28.92,-5.53,-8.25,-1.58,88,236,10.069083213806152,9.943440437316895
20,-0.47594475746154785,-2.1677703857421875,0.036423809826374054,36.7157296,3.1834548,31.39,-5.51,-8.2,-1.6,88,235,10.01554012298584,9.886308670043945
21,-0.43324464559555054,-2.1662142276763916,-0.021838728338479996,36.7156424,3.183292,34.3,-5.51,-8.29,-1.61,87,235,10.090271949768066,9.960956573486328
22,-0.48554152250289917,-2.1634175777435303,-0.009875939227640629,36.715568,3.1831526,36.79,-5.52,-8.29,-1.61,87,236,10.093365669250488,9.964032173156738
23,-0.43169134855270386,-2.163644313812256,0.01775459572672844,36.7154809,3.1829901,39.7,-5.52,-8.3,-1.62,86,236,10.108442306518555,9.97668743133545
24,-0.4503779113292694,-2.163844347000122,-0.02768610045313835,36.7154059,3.1828498,42.2,-5.5,-8.28,-1.63,86,236,10.075925827026367,9.943071365356445
25,-0.49388477206230164,-2.1628403663635254,-0.00044270805665291846,36.7153313,3.1827101,44.69,-5.5,-8.29,-1.64,85,236,10.092785835266113,9.958600044250488
26,-0.4279736280441284,-2.1627089977264404,0.013743099756538868,36.715244,3.1825468,47.62,-5.54,-8.27,-1.64,85,236,10.098082542419434,9.96346664428711
27,-0.4638490080833435,-2.1653785705566406,-0.024912217631936073,36.7151692,3.1824073,50.13,-5.52,-8.3,-1.63,84,235,10.108268737792969,9.975116729736328
28,-0.46107780933380127,-2.164020299911499,0.04285915195941925,36.7150823,3.1822441,53.05,-5.49,-8.28,-1.63,84,236,10.075862884521484,9.94223403930664
29,-0.24122056365013123,-2.1696767807006836,-0.0020637549459934235,36.7150102,3.1821106,55.46,-4.88,-7.22,-1.45,83,235,8.842698097229004,8.72212028503418
30,-0.0764010101556778,-2.162346601486206,0.03677385300397873,36.7149481,3.1819947,57.45,-2.98,-4.56,-0.69,83,236,5.500961780548096,5.456526279449463
31,-0.12349171191453934,-2.120415210723877,-0.008278814144432545,36.7149145,3.1819277,58.09,-2.22,-3.72,-0.17,83,238,4.341065406799316,4.337480545043945
32,-0.1872483789920807,-2.1019933223724365,0.016879232600331306,36.714886,3.1818664,58.16,-2.08,-3.66,0.0,82,239,4.218728065490723,4.218727111816406
33,-0.021396758034825325,-2.103053331375122,-0.028610078617930412,36.7148542,3.1817972,58.15,-1.76,-3.1,0.03,82,239,3.571629524230957,3.5714807510375977
34,0.02216620184481144,-2.2796878814697266,-0.025206750258803368,36.7148345,3.1817587,57.48,-1.23,-1.53,1.0,82,229,2.207772970199585,1.9645404815673828
35,-0.057158827781677246,-2.476926326751709,-0.007627665996551514,36.7148169,3.1817386,54.95,-1.03,-0.8,1.45,81,218,1.9588899612426758,1.307940125465393
36,-0.011185971088707447,-2.4718058109283447,0.010412805713713169,36.7148028,3.1817255,52.71,-1.04,-0.82,1.42,81,218,1.9514920711517334,1.33014714717865
37,-0.06351035833358765,-2.4702205657958984,-0.007464146241545677,36.7147886,3.1817115,50.46,-1.05,-0.87,1.43,81,218,1.9869252443313599,1.3709906339645386
38,-0.02013777196407318,-2.4702017307281494,-0.018306804820895195,36.7147716,3.1816945,47.85,-1.07,-0.88,1.44,80,218,2.006746530532837,1.3940471410751343
39,-0.05707533285021782,-2.4695024490356445,0.019252397119998932,36.7147571,3.1816799,45.61,-1.06,-0.88,1.45,80,218,2.0077927112579346,1.3867835998535156
40,-0.052828043699264526,-2.469308376312256,-0.01843336783349514,36.7147401,3.1816628,42.99,-1.07,-0.89,1.46,79,218,2.0219199657440186,1.397727370262146
41,-0.025798829272389412,-2.4691858291625977,0.029961315914988518,36.7147255,3.1816481,40.75,-1.06,-0.88,1.46,79,218,2.0165164470672607,1.3822743892669678
42,-0.045345235615968704,-2.4695611000061035,-0.020261358469724655,36.7147109,3.1816334,38.51,-1.07,-0.88,1.47,79,218,2.0319936275482178,1.3925657272338867
43,-0.008916482329368591,-2.469531297683716,-0.004151004832237959,36.7146939,3.1816163,35.89,-1.07,-0.88,1.47,78,218,2.0264551639556885,1.3857696056365967
44,-0.06334109604358673,-2.4694554805755615,0.004805759992450476,36.7146794,3.1816016,33.63,-1.06,-0.89,1.47,78,218,2.0281734466552734,1.3888940811157227
45,-0.031964756548404694,-2.469465970993042,-0.024044159799814224,36.7146624,3.1815844,31.01,-1.06,-0.9,1.47,78,218,2.034686326980591,1.3988217115402222
46,-0.04361947998404503,-2.469895839691162,0.028539292514324188,36.7146477,3.1815696,28.76,-1.06,-0.87,1.47,77,218,2.019364833831787,1.3766682147979736
47,-0.05765635520219803,-2.4696216583251953,-0.010034723207354546,36.7146307,3.1815525,26.13,-1.05,-0.88,1.47,77,218,2.0194008350372314,1.3806328773498535
48,-0.01805475540459156,-2.4690439701080322,0.02073368802666664,36.7146161,3.1815378,23.88,-1.06,-0.88,1.47,76,218,2.020637035369873,1.3821332454681396
49,-0.05456977337598801,-2.4697864055633545,-0.01679077371954918,36.7146016,3.1815231,21.63,-1.05,-0.89,1.47,76,218,2.0234975814819336,1.3863309621810913
50,-0.08844741433858871,-2.993701934814453,-0.11368181556463242,36.7145817,3.1815082,19.08,-1.72,-0.32,1.23,76,188,2.144982099533081,1.7571343183517456
51,-0.2527092397212982,2.6682674884796143,-0.0070678601041436195,36.7145479,3.1815185,18.17,-3.27,1.53,0.02,75,152,3.618058681488037,3.6179347038269043
52,-0.16553111374378204,2.6719167232513428,-0.02870873548090458,36.7144878,3.1815558,18.26,-4.01,2.04,0.01,75,153,4.507661819458008,4.507649898529053
53,-0.029954759404063225,2.912292242050171,0.19216744601726532,36.714435,3.1815844,18.21,-3.61,0.83,0.05,75,166,3.712803363800049,3.7123758792877197
54,-0.34151971340179443,-2.277137041091919,0.12921367585659027,36.7143917,3.1815698,18.19,-2.92,-2.92,0.02,74,229,4.1383748054504395,4.138302803039551
55,-0.45980244874954224,-2.142620325088501,0.03071194887161255,36.714338,3.1814733,18.19,-4.11,-6.51,0.0,74,237,7.707245826721191,7.707239627838135
56,-0.44349798560142517,-2.1479899883270264,-0.02532895840704441,36.7142763,3.1813515,18.2,-4.89,-7.69,0.0,73,236,9.123048782348633,9.123048782348633
57,-0.33680227398872375,-2.152374505996704,0.03021564893424511,36.7141988,3.1812014,18.22,-4.72,-7.28,0.0,73,236,8.681365966796875,8.68136215209961
58,-0.22204826772212982,-2.147394895553589,-0.011963766999542713,36.7141404,3.1810885,18.22,-3.9,-6.1,0.02,73,236,7.245696544647217,7.245638370513916
59,-0.30225294828414917,-2.125089168548584,0.022507091984152794,36.7140916,3.1809903,18.19,-3.43,-5.69,0.01,72,238,6.645731449127197,6.6457085609436035
60,-0.2661026120185852,-2.10890793800354,-0.01734200119972229,36.7140389,3.1808792,18.19,-3.29,-5.64,0.0,72,239,6.5339674949646,6.533962726593018
61,-0.22292546927928925,-2.1086742877960205,0.01723461225628853,36.7139946,3.1807845,18.19,-3.16,-5.45,0.0,71,239,6.302224159240723,6.302223205566406
62,0.12293433398008347,-2.1094624996185303,-0.02822163887321949,36.7139533,3.1806963,18.17,-1.79,-3.07,0.03,71,239,3.5598909854888916,3.5596768856048584
63,0.12253862619400024,-2.1088712215423584,0.027319245040416718,36.7139401,3.1806679,18.18,-0.28,-0.51,-0.02,71,239,0.5875478386878967,0.5871043801307678
64,0.0039641838520765305,-2.1092655658721924,-0.011963045224547386,36.71394,3.1806676,18.17,0.11,0.15,0.03,70,239,0.19588667154312134,0.19297856092453003
