timestamp,pitch,yaw,roll,lat,lon,alt,velocity_x,velocity_y,velocity_z,battery,heading,airspeed,groundspeed
0,0.017615100368857384,-0.0063982876017689705,-0.02288980409502983,36.7156067,3.1846299,19.07,-0.03,0.02,0.05,96,359,0.06938581168651581,0.04401424527168274
1,-0.07038283348083496,-0.01090382132679224,0.1381906270980835,36.7156076,3.1846322,19.05,0.28,0.56,0.0,95,359,0.6308276653289795,0.6308010220527649
2,-0.22482262551784515,1.5773905515670776,-0.10179620236158371,36.7156223,3.1846642,19.01,1.63,2.83,-0.03,95,90,3.2761168479919434,3.275916814804077
3,-0.13698633015155792,0.9209288954734802,-0.014984442852437496,36.7156489,3.1847208,19.06,2.09,3.61,-0.04,95,52,4.176780700683594,4.176558017730713
4,0.13919959962368011,1.0287243127822876,0.036114249378442764,36.7156805,3.1847872,19.09,1.52,2.59,-0.01,94,58,3.0087716579437256,3.0087344646453857
5,0.2392282485961914,1.6477115154266357,0.19241265952587128,36.7156857,3.1847997,19.09,-1.01,-1.41,0.0,94,94,1.7432913780212402,1.743279218673706
6,-0.08602067828178406,-3.018049716949463,0.15499530732631683,36.7156618,3.1847567,19.13,-2.24,-3.19,-0.01,93,187,3.903552532196045,3.9035117626190186
7,-0.0995926782488823,-2.076540470123291,0.08437430113554001,36.7156269,3.1846916,19.12,-2.01,-3.23,0.0,93,241,3.808650255203247,3.8086423873901367
8,-0.07751431316137314,-1.394547462463379,0.22597065567970276,36.7156139,3.1846391,19.1,0.47,-2.84,0.0,93,280,2.881295919418335,2.8812875747680664
9,-0.41918447613716125,-0.6461247205734253,0.075155109167099,36.7156565,3.1845806,19.1,4.77,-3.45,0.0,92,322,5.892181396484375,5.892180442810059
10,-0.5184539556503296,-0.6286365985870361,-0.01675116829574108,36.7157377,3.1845098,19.11,7.08,-4.9,0.0,92,323,8.61931324005127,8.61931037902832
11,-0.49111220240592957,-0.6206341981887817,0.032742228358983994,36.7158582,3.184405,19.12,7.87,-5.55,0.0,91,324,9.633238792419434,9.633235931396484
12,-0.3137795031070709,-0.6246397495269775,-0.015785960480570793,36.7159633,3.1843121,19.15,7.29,-5.21,-0.02,91,324,8.971750259399414,8.971707344055176
13,-0.05605766549706459,-0.6315420866012573,-0.0404011495411396,36.7160489,3.1842359,19.16,5.01,-3.67,0.04,91,323,6.2162909507751465,6.2161455154418945
14,-0.11844654381275177,-1.4817131757736206,-0.31199294328689575,36.7160933,3.1841748,19.39,0.21,-2.97,-0.37,90,275,3.009860038757324,2.986863851547241
15,-0.42245733737945557,-2.139195680618286,-0.01800963655114174,36.7160704,3.1841123,20.44,-3.3,-4.76,-1.0,90,237,5.883460998535156,5.79616641998291
16,-0.4835631549358368,-2.161283016204834,-0.03364401310682297,36.7160007,3.1839895,22.77,-5.12,-7.39,-1.52,89,236,9.126662254333496,8.997736930847168
17,-0.4959198534488678,-2.1659369468688965,0.009166459552943707,36.715927,3.183857,25.21,-5.56,-8.07,-1.59,89,235,9.93979549407959,9.810440063476562
18,-0.4416123330593109,-2.1640663146972656,0.035972848534584045,36.7158519,3.1837189,27.67,-5.54,-8.25,-1.58,88,236,10.068321228027344,9.942173957824707
19,-0.47744518518447876,-2.1630632877349854,-0.032091494649648666,36.7157645,3.183556,30.55,-5.53,-8.23,-1.58,88,236,10.046187400817871,9.919986724853516
20,-0.48559385538101196,-2.1682260036468506,0.026159923523664474,36.7156891,3.1834163,33.03,-5.52,-8.22,-1.6,88,235,10.040608406066895,9.911322593688965
21,-0.4232276380062103,-2.165536642074585,-0.010519874282181263,36.7156019,3.1832536,35.93,-5.5,-8.3,-1.62,87,235,10.097084999084473,9.965455055236816
22,-0.4764510691165924,-2.1626081466674805,-0.02315051108598709,36.7155275,3.1831139,38.43,-5.51,-8.28,-1.62,87,236,10.078125,9.947044372558594
23,-0.443755567073822,-2.164121627807617,0.031176527962088585,36.7154406,3.1829517,41.34,-5.53,-8.3,-1.62,86,236,10.119073867797852,9.987141609191895
24,-0.43222522735595703,-2.164607286453247,-0.0194335225969553,36.7153654,3.1828113,43.83,-5.51,-8.29,-1.64,86,235,10.091543197631836,9.957107543945312
25,-0.4836719334125519,-2.162773370742798,-0.016896605491638184,36.7152907,3.1826713,46.34,-5.47,-8.28,-1.63,85,236,10.062566757202148,9.92886734008789
26,-0.4387930929660797,-2.16286301612854,0.0234629325568676,36.7152038,3.1825085,49.27,-5.54,-8.27,-1.63,85,236,10.099299430847168,9.965348243713379
27,-0.44659873843193054,-2.1648671627044678,-0.026103606447577477,36.715129,3.182369,51.77,-5.54,-8.32,-1.63,84,235,10.137857437133789,10.004500389099121
28,-0.4422816336154938,-2.163604497909546,0.026142731308937073,36.7150417,3.1822055,54.69,-5.44,-8.16,-1.62,84,236,9.94881820678711,9.815568923950195
29,-0.15996681153774261,-2.168236494064331,0.00914883054792881,36.7149729,3.1820782,57.0,-4.45,-6.59,-1.31,83,235,8.066107749938965,7.957367897033691
30,-0.08421212434768677,-2.1508431434631348,0.03945152088999748,36.7149184,3.1819754,58.65,-2.61,-4.11,-0.52,83,236,4.905645847320557,4.877294063568115
31,-0.11536319553852081,-2.098334312438965,-0.000674828072078526,36.7148877,3.1819116,59.07,-2.1,-3.7,-0.09,83,239,4.260753631591797,4.259662628173828
32,-0.187811017036438,-2.0862677097320557,0.0067777251824736595,36.7148605,3.1818501,59.08,-2.0,-3.69,0.0,82,240,4.207488059997559,4.207476615905762
33,0.025827208533883095,-2.100034236907959,-0.04591573774814606,36.7148313,3.1817843,59.02,-1.51,-2.66,0.19,82,239,3.074429512023926,3.0680320262908936
34,0.005868412554264069,-2.384324312210083,-0.015365381725132465,36.7148137,3.1817532,57.87,-1.18,-1.21,1.32,82,223,2.15655779838562,1.698639154434204
35,-0.054079558700323105,-2.468712568283081,-0.01587972603738308,36.7147964,3.181736,55.21,-1.04,-0.8,1.42,81,218,1.945489525794983,1.319698452949524
36,-0.013958157040178776,-2.4749457836151123,0.019309164956212044,36.7147822,3.1817227,52.98,-1.06,-0.83,1.43,81,218,1.9697211980819702,1.3541131019592285
37,-0.05722244456410408,-2.475579023361206,-0.016753187403082848,36.7147677,3.1817084,50.74,-1.07,-0.88,1.44,81,218,2.0064024925231934,1.3913769721984863
38,-0.012843123637139797,-2.4762725830078125,-0.01590191200375557,36.7147505,3.1816914,48.12,-1.08,-0.88,1.45,80,218,2.0151543617248535,1.3979928493499756
39,-0.05932299420237541,-2.475243330001831,0.006351761054247618,36.7147358,3.1816768,45.88,-1.07,-0.89,1.45,80,218,2.016479015350342,1.3969929218292236
40,-0.044894084334373474,-2.475567102432251,-0.02322324924170971,36.7147186,3.1816597,43.26,-1.08,-0.88,1.46,79,218,2.0300796031951904,1.4037553071975708
41,-0.03646276146173477,-2.4754798412323,0.02528153918683529,36.7147038,3.181645,41.01,-1.07,-0.88,1.46,79,218,2.0251383781433105,1.3940541744232178
42,-0.06161092594265938,-2.4758312702178955,0.0007399957394227386,36.7146865,3.1816278,38.39,-1.07,-0.88,1.46,79,218,2.030414581298828,1.4023783206939697
43,-0.013021528720855713,-2.4751834869384766,0.006414624862372875,36.7146719,3.1816132,36.15,-1.08,-0.88,1.47,78,218,2.0341930389404297,1.3991234302520752
44,-0.060241375118494034,-2.4753129482269287,-0.00915762409567833,36.714657,3.1815984,33.9,-1.08,-0.89,1.48,78,218,2.0395705699920654,1.4022905826568604
45,-0.020795607939362526,-2.4757962226867676,-0.020803019404411316,36.7146399,3.1815813,31.27,-1.07,-0.88,1.47,78,218,2.0307531356811523,1.3975963592529297
46,-0.0539565235376358,-2.4759151935577393,0.021805251017212868,36.714625,3.1815665,29.02,-1.07,-0.88,1.47,77,218,2.025447368621826,1.3890420198440552
47,-0.00834234245121479,-2.4756832122802734,-0.01070346124470234,36.7146103,3.1815518,26.78,-1.07,-0.88,1.48,77,218,2.0345914363861084,1.3949416875839233
48,-0.02891954593360424,-2.475184440612793,0.023463362827897072,36.7145931,3.1815346,24.15,-1.07,-0.88,1.47,76,218,2.030346632003784,1.3922929763793945
49,-0.04495168849825859,-2.475717782974243,-0.0281785000115633,36.7145784,3.18152,21.9,-1.08,-0.89,1.47,76,218,2.035705327987671,1.406774878501892
50,-0.1395423412322998,3.0011372566223145,-0.10977569222450256,36.7145549,3.181509,19.53,-2.12,0.19,0.88,76,171,2.3113224506378174,2.1361076831817627
51,-0.2480420023202896,2.6696109771728516,-0.0020334310829639435,36.714515,3.1815281,19.11,-3.61,1.81,-0.06,75,152,4.047413349151611,4.046958923339844
52,-0.11759024858474731,2.6752634048461914,0.00516394292935729,36.7144528,3.1815671,19.19,-3.99,1.99,0.05,75,153,4.464600086212158,4.464292526245117
53,-0.0531281940639019,-3.123293161392212,0.26495811343193054,36.714402,3.1815877,19.13,-3.35,-0.06,0.04,75,181,3.357724189758301,3.357412099838257
54,-0.3836510479450226,-2.1889896392822266,0.08103170990943909,36.7143607,3.181554,19.12,-3.04,-4.02,0.01,74,234,5.052311897277832,5.052280426025391
55,-0.48970773816108704,-2.15584397315979,0.039163775742053986,36.7143018,3.1814409,19.12,-4.4,-7.01,0.0,74,236,8.282308578491211,8.282306671142578
56,-0.4195491373538971,-2.1501286029815674,-0.004133644979447126,36.7142377,3.181315,19.13,-4.94,-7.74,0.0,73,236,9.18718147277832,9.187178611755371
57,-0.3276877999305725,-2.1528778076171875,0.018230756744742393,36.7141613,3.1811673,19.16,-4.5,-6.95,0.0,73,236,8.28208065032959,8.28208065032959
58,-0.22361506521701813,-2.1412465572357178,0.010082539170980453,36.7141061,3.1810599,19.14,-3.67,-5.83,0.03,73,237,6.891517639160156,6.89143705368042
59,-0.29375913739204407,-2.1187942028045654,-0.0012219958007335663,36.7140587,3.1809633,19.12,-3.34,-5.62,0.01,72,238,6.551159858703613,6.551150798797607
60,-0.2546108067035675,-2.107649326324463,-0.005776059813797474,36.7140068,3.1808527,19.12,-3.27,-5.65,0.0,72,239,6.538444519042969,6.538441181182861
61,-0.1559893637895584,-2.108311891555786,-0.00852916855365038,36.7139633,3.1807598,19.13,-2.97,-5.11,0.0,71,239,5.913798809051514,5.9137983322143555
62,0.17051415145397186,-2.1091394424438477,-0.026162469759583473,36.713928,3.1806846,19.09,-1.26,-2.15,0.01,71,239,2.5032896995544434,2.5032384395599365
63,0.07130450010299683,-2.109084367752075,0.021462850272655487,36.7139202,3.1806676,19.11,-0.04,-0.11,-0.01,71,239,0.12839919328689575,0.1273672878742218
64,-0.03402845188975334,-2.1119019985198975,0.07652562111616135,36.7139222,3.1806693,19.07,0.4,-0.09,0.01,70,239,0.4187088906764984,0.41839373111724854
