timestamp,pitch,yaw,roll,lat,lon,alt,velocity_x,velocity_y,velocity_z,battery,heading,airspeed,groundspeed
0,0.032864879816770554,-0.023028910160064697,0.0017050760798156261,36.7156066,3.18463,20.73,-0.03,0.02,-0.01,96,358,0.045848771929740906,0.04272657260298729
1,-0.08786122500896454,-0.031166020780801773,0.09733295440673828,36.7156076,3.184632,20.7,0.28,0.51,-0.02,95,358,0.5894445180892944,0.58888179063797
2,-0.21708279848098755,1.505223274230957,-0.13900068402290344,36.7156225,3.1846611,20.7,1.74,2.64,-0.02,95,86,3.172865629196167,3.1727399826049805
3,-0.14037033915519714,0.8751789927482605,0.014399275183677673,36.7156514,3.184715,20.72,2.36,3.55,-0.02,95,50,4.267421245574951,4.267331123352051
4,0.03584152087569237,0.9671358466148376,0.0320361964404583,36.7156882,3.1847825,20.72,1.93,2.88,0.0,94,55,3.4781970977783203,3.4781863689422607
5,0.3732524812221527,1.0145717859268188,-0.004065814893692732,36.7157003,3.1848041,20.71,-0.54,-0.79,0.0,94,58,0.9688918590545654,0.9688483476638794
6,-0.05026736855506897,2.7278528213500977,0.21174471080303192,36.7156796,3.1847666,20.74,-2.17,-3.1,-0.03,93,156,3.7854878902435303,3.7853336334228516
7,-0.13907259702682495,-1.9278959035873413,0.009130205027759075,36.7156445,3.1847021,20.74,-2.14,-3.25,0.0,93,249,3.9026734828948975,3.9026660919189453
8,0.005669742822647095,-1.6445468664169312,0.22294075787067413,36.7156263,3.1846488,20.72,-0.13,-2.92,0.0,93,265,2.93222975730896,2.9322214126586914
9,-0.4216891825199127,-0.6535865068435669,0.09639646112918854,36.7156589,3.1845921,20.71,4.22,-3.21,0.0,92,322,5.309937000274658,5.309933662414551
10,-0.4916996657848358,-0.6169053912162781,0.037025123834609985,36.7157202,3.1845381,20.72,6.48,-4.49,0.0,92,324,7.8871917724609375,7.887186527252197
11,-0.5176082253456116,-0.6180195808410645,0.01224648579955101,36.7158535,3.184423,20.74,7.89,-5.51,0.0,91,324,9.63076114654541,9.630760192871094
12,-0.35785767436027527,-0.6186212301254272,0.01436384953558445,36.71596,3.1843297,20.76,7.56,-5.34,-0.02,91,324,9.264793395996094,9.264747619628906
13,-0.056563809514045715,-0.626579225063324,-0.04198305681347847,36.7160637,3.1842381,20.78,5.07,-3.68,0.04,91,324,6.2682929039001465,6.268129348754883
14,0.029623936861753464,-1.2133166790008545,-0.2779790163040161,36.7161075,3.1841852,20.91,1.05,-2.86,-0.26,90,290,3.064645290374756,3.0530354976654053
15,-0.41853561997413635,-2.1258959770202637,-0.08107834309339523,36.7160943,3.1841281,21.8,-2.81,-4.35,-0.88,90,238,5.26096248626709,5.185608863830566
16,-0.4433746039867401,-2.1574113368988037,-0.011297565884888172,36.7160297,3.1840139,23.96,-4.96,-7.12,-1.48,89,236,8.814013481140137,8.688377380371094
17,-0.4631066620349884,-2.164247751235962,-0.032953739166259766,36.7159568,3.1838836,26.37,-5.55,-8.02,-1.61,89,236,9.893685340881348,9.761786460876465
18,-0.4580674469470978,-2.1634247303009033,0.03201194480061531,36.7158692,3.1837228,29.25,-5.53,-8.23,-1.58,88,236,10.046697616577148,9.92133903503418
19,-0.42356616258621216,-2.162611484527588,-0.0074321432039141655,36.715794,3.1835828,31.71,-5.53,-8.25,-1.6,88,236,10.066246032714844,9.938152313232422
20,-0.47342824935913086,-2.1636605262756348,-0.02762887254357338,36.7157192,3.1834435,34.19,-5.51,-8.24,-1.6,88,236,10.04639720916748,9.918169975280762
21,-0.452577143907547,-2.164771795272827,0.04107576608657837,36.7156322,3.1832813,37.09,-5.53,-8.26,-1.61,87,235,10.076154708862305,9.946420669555664
22,-0.42724159359931946,-2.1652674674987793,-0.006834624335169792,36.7155572,3.1831414,39.58,-5.51,-8.29,-1.62,87,235,10.096985816955566,9.96616268157959
23,-0.4860325753688812,-2.1647274494171143,0.013148359954357147,36.7154698,3.182978,42.49,-5.5,-8.28,-1.63,86,235,10.083740234375,9.95031452178955
24,-0.44503509998321533,-2.16382098197937,0.03261246904730797,36.7153954,3.1828387,45.0,-5.5,-8.29,-1.63,86,236,10.087054252624512,9.954243659973145
25,-0.46770039200782776,-2.1626484394073486,-0.032981112599372864,36.7153083,3.1826753,47.92,-5.52,-8.31,-1.63,85,236,10.111037254333496,9.97862434387207
26,-0.4838465750217438,-2.1638736724853516,0.011204722337424755,36.7152333,3.1825352,50.42,-5.5,-8.26,-1.64,85,236,10.07197093963623,9.937078475952148
27,-0.44069933891296387,-2.1638498306274414,0.037223588675260544,36.7151586,3.1823958,52.92,-5.49,-8.27,-1.64,84,236,10.06695556640625,9.931538581848145
28,-0.45157957077026367,-2.1632633209228516,-0.04094738885760307,36.7150717,3.1822332,55.85,-5.53,-8.3,-1.62,84,236,10.112431526184082,9.980262756347656
29,-0.2643205225467682,-2.1688458919525146,0.027524981647729874,36.7150005,3.1821012,58.22,-4.73,-7.05,-1.41,83,235,8.619996070861816,8.502315521240234
30,-0.04330926761031151,-2.162722587585449,0.016404669731855392,36.7149476,3.1820022,59.92,-3.07,-4.65,-0.75,83,236,5.6343560218811035,5.583898067474365
31,-0.1546250879764557,-2.1175243854522705,0.03910353034734726,36.7149083,3.1819242,60.66,-2.18,-3.69,-0.14,83,238,4.295233726501465,4.292758464813232
32,-0.12671054899692535,-2.1017048358917236,-0.01432209461927414,36.7148799,3.1818628,60.7,-2.07,-3.67,0.0,82,239,4.217545509338379,4.217537879943848
33,0.009151345118880272,-2.1046013832092285,0.01856043003499508,36.7148486,3.1817947,60.68,-1.68,-2.95,0.07,82,239,3.4020397663116455,3.4012107849121094
34,0.018181459978222847,-2.3164329528808594,-0.06889227777719498,36.7148297,3.1817589,59.86,-1.21,-1.42,1.13,82,227,2.185194492340088,1.8696259260177612
35,-0.004485195968300104,-2.4704837799072266,0.014034515246748924,36.7148122,3.18174,57.28,-1.03,-0.8,1.44,81,218,1.9492274522781372,1.3102023601531982
36,-0.06163054332137108,-2.470940589904785,-0.005591161549091339,36.7147982,3.1817268,55.04,-1.03,-0.82,1.43,81,218,1.953639030456543,1.3266446590423584
37,-0.015906814485788345,-2.4698264598846436,0.01845785230398178,36.7147841,3.1817128,52.79,-1.06,-0.87,1.43,81,218,1.9911364316940308,1.3787304162979126
38,-0.057854797691106796,-2.4703128337860107,0.018955260515213013,36.7147671,3.1816957,50.18,-1.07,-0.89,1.44,80,218,2.0100672245025635,1.39695405960083
39,-0.009286204352974892,-2.4692792892456055,-0.00460413284599781,36.7147525,3.181681,47.94,-1.07,-0.87,1.45,80,218,2.0133440494537354,1.3873361349105835
40,-0.030106328427791595,-2.4697041511535645,0.029846256598830223,36.7147355,3.181664,45.32,-1.07,-0.87,1.46,79,218,2.013993978500366,1.3817763328552246
41,-0.027813849970698357,-2.4694790840148926,-0.027722865343093872,36.714721,3.1816494,43.07,-1.07,-0.88,1.46,79,218,2.022705316543579,1.3952840566635132
42,-0.008798027411103249,-2.4695069789886475,0.009970284067094326,36.7147039,3.1816321,40.46,-1.06,-0.88,1.47,79,218,2.028134822845459,1.3920340538024902
43,-0.057112373411655426,-2.4690797328948975,-0.0189968328922987,36.7146893,3.1816174,38.21,-1.07,-0.88,1.47,78,218,2.0276284217834473,1.3896023035049438
44,-0.016097286716103554,-2.4694058895111084,0.02020924910902977,36.7146748,3.1816026,35.96,-1.06,-0.88,1.47,78,218,2.0226378440856934,1.3865910768508911
45,-0.05963832512497902,-2.469320297241211,0.016248852014541626,36.7146577,3.1815855,33.34,-1.06,-0.88,1.47,78,218,2.0286808013916016,1.387644648551941
46,-0.008737616240978241,-2.4695441722869873,-0.006813140586018562,36.7146431,3.1815708,31.09,-1.06,-0.87,1.47,77,218,2.022514581680298,1.3799842596054077
47,-0.030707206577062607,-2.4698808193206787,0.028697699308395386,36.7146261,3.1815536,28.46,-1.06,-0.88,1.47,77,218,2.0198235511779785,1.3830844163894653
48,-0.026519373059272766,-2.469362735748291,-0.023051777854561806,36.7146115,3.1815389,26.21,-1.07,-0.87,1.47,76,218,2.0231709480285645,1.3864471912384033
49,-0.010861726477742195,-2.4699676036834717,0.012339141219854355,36.7145945,3.1815217,23.59,-1.05,-0.87,1.48,76,218,2.018653631210327,1.3719135522842407
50,-0.15266898274421692,-3.0886290073394775,-0.1261405199766159,36.7145761,3.1815105,21.45,-1.85,-0.17,1.12,76,183,2.1815836429595947,1.8670411109924316
51,-0.2013179212808609,2.668276309967041,-0.03252634033560753,36.7145325,3.1815284,20.73,-3.59,1.8,-0.06,75,152,4.024535179138184,4.024039268493652
52,-0.19154585897922516,2.6723904609680176,0.002760630799457431,36.7144793,3.1815617,20.82,-4.0,2.04,0.02,75,153,4.499701023101807,4.499602794647217
53,-0.0013902017381042242,2.9889047145843506,0.18427802622318268,36.7144269,3.1815882,20.76,-3.53,0.56,0.05,75,171,3.5829837322235107,3.582554817199707
54,-0.4049683213233948,-2.200955390930176,0.13697145879268646,36.7143776,3.1815573,20.74,-3.06,-3.93,0.01,74,233,4.990722179412842,4.990682125091553
55,-0.45802196860313416,-2.1529152393341064,-0.00701783737167716,36.7143286,3.1814652,20.74,-4.26,-6.7,0.01,74,236,7.944466590881348,7.944459438323975
56,-0.4762972891330719,-2.1569130420684814,0.022901954129338264,36.7142541,3.1813202,20.75,-4.98,-7.71,0.0,73,236,9.18553352355957,9.18553352355957
57,-0.30874884128570557,-2.157280445098877,0.012978359125554562,36.7141875,3.1811929,20.78,-4.69,-7.16,0.0,73,236,8.563655853271484,8.563655853271484
58,-0.25148528814315796,-2.1488189697265625,-0.009095830842852592,36.7141295,3.1810815,20.77,-3.81,-5.99,0.03,73,236,7.108936786651611,7.108859539031982
59,-0.2427779734134674,-2.113290548324585,0.023097530007362366,36.7140739,3.1809684,20.74,-3.33,-5.64,0.01,72,238,6.55629825592041,6.5562872886657715
60,-0.2982705235481262,-2.1002376079559326,-0.01798958145081997,36.7140299,3.1808735,20.74,-3.21,-5.66,0.0,72,239,6.511851787567139,6.511844635009766
61,-0.1163017600774765,-2.0996289253234863,0.009360200725495815,36.7139799,3.1807642,20.75,-2.94,-5.15,0.0,71,239,5.935184001922607,5.935183525085449
62,0.12181812524795532,-2.1006102561950684,-0.009845608845353127,36.7139477,3.1806942,20.72,-1.58,-2.77,0.03,71,239,3.1990420818328857,3.198866605758667
63,0.13364651799201965,-2.1000864505767822,0.015160585753619671,36.7139366,3.1806698,20.73,-0.19,-0.36,-0.02,71,239,0.41223570704460144,0.4117458760738373
64,-0.030160527676343918,-2.10310435295105,0.08762338012456894,36.7139374,3.1806708,20.7,0.24,0.03,0.03,70,239,0.24742160737514496,0.2446645349264145
