timestamp,pitch,yaw,roll,lat,lon,alt,velocity_x,velocity_y,velocity_z,battery,heading,airspeed,groundspeed
0,0.030617551878094673,0.03660694882273674,-0.01874775066971779,36.7156067,3.1846299,22.31,-0.03,0.02,-0.07,96,2,0.0886085107922554,0.04337039217352867
1,-0.09004086256027222,0.032926078885793686,0.11358167976140976,36.7156078,3.1846323,22.29,0.33,0.56,-0.03,95,1,0.6567376852035522,0.6555776000022888
2,-0.23280204832553864,1.4251939058303833,-0.10060371458530426,36.7156241,3.1846626,22.32,1.78,2.68,-0.04,95,81,3.225921154022217,3.22564697265625
3,-0.13772617280483246,0.9517871737480164,-0.004083526786416769,36.715653,3.1847166,22.33,2.36,3.54,-0.01,95,54,4.260817527770996,4.260785102844238
4,-0.01575857773423195,0.9580273628234863,-0.014926543459296227,36.7156849,3.184775,22.32,2.1,3.07,0.0,94,54,3.7226650714874268,3.722661018371582
5,0.38492095470428467,0.9131283760070801,-0.030923942103981972,36.7157002,3.1848011,22.34,-0.72,-1.07,-0.02,94,52,1.295632004737854,1.2954663038253784
6,-0.05179669335484505,-0.8627240061759949,-0.14471951127052307,36.7156781,3.1847607,22.31,-2.19,-3.18,0.04,93,310,3.8674116134643555,3.867091178894043
7,-0.10263651609420776,-2.432575225830078,0.05625879019498825,36.7156428,3.1846958,22.36,-2.1,-3.25,0.0,93,220,3.8762500286102295,3.8762500286102295
8,-0.02288917452096939,-1.5194051265716553,0.243587926030159,36.7156265,3.1846426,22.32,0.06,-2.86,0.02,93,272,2.8630380630493164,2.8629350662231445
9,-0.4285867512226105,-0.6474238634109497,0.05959421768784523,36.7156534,3.1845949,22.31,3.87,-3.08,0.0,92,322,4.956377983093262,4.956376552581787
10,-0.502352774143219,-0.6176095604896545,0.04410909116268158,36.7157258,3.1845309,22.31,6.61,-4.59,0.0,92,324,8.048165321350098,8.0481595993042
11,-0.4936927258968353,-0.6168718338012695,-0.03452511876821518,36.7158429,3.1844297,22.33,7.84,-5.49,0.0,91,324,9.579529762268066,9.57952880859375
12,-0.36201977729797363,-0.6217215061187744,0.036523476243019104,36.7159663,3.184321,22.36,7.47,-5.29,-0.02,91,324,9.162924766540527,9.16290283203125
13,-0.0292208231985569,-0.6244988441467285,-0.03288193792104721,36.7160559,3.1842421,22.38,5.42,-3.86,0.04,91,324,6.664687633514404,6.664522171020508
14,0.023724092170596123,-1.0681191682815552,-0.24037621915340424,36.7161058,3.1841876,22.47,1.55,-2.87,-0.2,90,298,3.2741806507110596,3.267495632171631
15,-0.3945355713367462,-2.1297295093536377,-0.09686625003814697,36.7160918,3.1841204,23.48,-2.99,-4.49,-0.92,90,237,5.479366779327393,5.400545597076416
16,-0.510879635810852,-2.163985252380371,0.0306148212403059,36.7160367,3.184024,25.32,-4.86,-6.93,-1.44,89,236,8.59620475769043,8.474103927612305
17,-0.4176279604434967,-2.1662142276763916,-0.006570491939783096,36.7159522,3.1838721,28.12,-5.54,-8.05,-1.6,89,235,9.911044120788574,9.779497146606445
18,-0.4662633240222931,-2.163557291030884,-0.029044821858406067,36.715877,3.1837341,30.59,-5.52,-8.18,-1.56,88,236,9.998888969421387,9.874908447265625
19,-0.4949491024017334,-2.1635565757751465,0.006272480823099613,36.715802,3.183595,33.05,-5.56,-8.26,-1.58,88,236,10.089317321777344,9.96377944946289
20,-0.42254123091697693,-2.165079116821289,0.0038590722251683474,36.7157144,3.1834321,35.94,-5.52,-8.27,-1.6,87,235,10.074418067932129,9.945965766906738
21,-0.45885223150253296,-2.163473606109619,-0.028947053477168083,36.7156396,3.1832924,38.43,-5.49,-8.26,-1.6,87,236,10.04693603515625,9.91841983795166
22,-0.48021599650382996,-2.1648707389831543,0.04066604748368263,36.7155528,3.1831301,41.34,-5.5,-8.29,-1.61,87,235,10.089683532714844,9.959810256958008
23,-0.4292159676551819,-2.1644580364227295,0.01529440376907587,36.715478,3.1829902,43.83,-5.54,-8.29,-1.63,86,235,10.115121841430664,9.982535362243652
24,-0.4775308072566986,-2.1630170345306396,-0.011719572357833385,36.7153904,3.1828266,46.75,-5.5,-8.28,-1.62,86,236,10.07664966583252,9.945192337036133
25,-0.4728524386882782,-2.1658194065093994,0.03489135205745697,36.7153158,3.182687,49.26,-5.51,-8.28,-1.62,85,235,10.081472396850586,9.948934555053711
26,-0.442988783121109,-2.1631860733032227,0.027229711413383484,36.7152412,3.1825475,51.75,-5.53,-8.29,-1.64,85,236,10.103337287902832,9.969161033630371
27,-0.4747024476528168,-2.164621591567993,-0.018523389473557472,36.7151537,3.182384,54.68,-5.51,-8.3,-1.63,84,235,10.100031852722168,9.96689510345459
28,-0.4859030246734619,-2.1642346382141113,0.02024725265800953,36.7150791,3.1822444,57.19,-5.5,-8.28,-1.62,84,236,10.079700469970703,9.947129249572754
29,-0.2073703557252884,-2.168623447418213,-0.015308301895856857,36.7149967,3.1820913,59.95,-4.64,-6.92,-1.38,83,235,8.454975128173828,8.340597152709961
30,-0.08985275030136108,-2.1624135971069336,0.00929984264075756,36.7149452,3.1819947,61.59,-2.99,-4.57,-0.7,83,236,5.512337684631348,5.467174530029297
31,-0.11641760915517807,-2.1146628856658936,-0.0012026006588712335,36.7149065,3.1819175,62.26,-2.17,-3.68,-0.12,83,238,4.282222270965576,4.280341625213623
32,-0.18223580718040466,-2.1020469665527344,0.010009845718741417,36.7148782,3.1818563,62.29,-2.08,-3.68,0.0,82,239,4.234010696411133,4.234001636505127
33,0.015368998050689697,-2.102860927581787,3.902664320776239e-05,36.7148511,3.1817972,62.28,-1.76,-3.11,0.02,82,239,3.580507755279541,3.580397605895996
34,0.008775985799729824,-2.3398425579071045,-0.020734207704663277,36.7148286,3.1817545,61.33,-1.18,-1.33,1.2,82,225,2.148378610610962,1.7817072868347168
35,-0.009293735958635807,-2.477250099182129,-0.0053304266184568405,36.7148138,3.1817386,59.1,-1.03,-0.79,1.45,81,218,1.951133370399475,1.3055163621902466
36,-0.03329147771000862,-2.4702939987182617,0.0313422828912735,36.7147974,3.1817232,56.49,-1.04,-0.84,1.43,81,218,1.9625163078308105,1.3425604104995728
37,-0.028687147423624992,-2.4697885513305664,-0.0244674663990736,36.714783,3.181709,54.24,-1.06,-0.87,1.43,80,218,1.9891937971115112,1.3781814575195312
38,-0.045482784509658813,-2.470351457595825,0.024524223059415817,36.7147685,3.1816943,52.0,-1.05,-0.88,1.44,80,218,1.9916795492172241,1.3727593421936035
39,-0.05015093460679054,-2.4692323207855225,-0.02578260749578476,36.7147517,3.1816774,49.39,-1.08,-0.88,1.45,80,218,2.018171787261963,1.3954808712005615
40,-0.029701147228479385,-2.4697108268737793,0.0296060461550951,36.714737,3.1816627,47.14,-1.07,-0.88,1.46,79,218,2.015770196914673,1.3871543407440186
41,-0.06047294661402702,-2.4693031311035156,-0.0030113577377051115,36.71472,3.1816456,44.52,-1.07,-0.89,1.46,79,218,2.02154541015625,1.3946175575256348
42,-0.012049316428601742,-2.4694101810455322,0.01617594249546528,36.7147054,3.1816309,42.28,-1.06,-0.88,1.47,79,218,2.0231869220733643,1.3854546546936035
43,-0.051631856709718704,-2.469186305999756,-0.02043084427714348,36.7146908,3.1816162,40.03,-1.07,-0.89,1.47,78,218,2.0335614681243896,1.3986761569976807
44,-0.00635165860876441,-2.4693479537963867,0.001781358034349978,36.7146738,3.181599,37.41,-1.06,-0.88,1.47,78,218,2.0182456970214844,1.3805584907531738
45,-0.0630260780453682,-2.4692718982696533,-0.001592795131728053,36.7146592,3.1815842,35.16,-1.06,-0.89,1.47,78,218,2.0316736698150635,1.3929773569107056
46,-0.0205350611358881,-2.469449996948242,-0.01617547497153282,36.7146422,3.1815671,32.54,-1.06,-0.88,1.47,77,218,2.023266077041626,1.3830446004867554
47,-0.05356467887759209,-2.470069646835327,0.02107955515384674,36.7146276,3.1815524,30.28,-1.06,-0.89,1.47,77,218,2.023754835128784,1.3898988962173462
48,-0.03432736173272133,-2.469270944595337,-0.023050811141729355,36.7146106,3.1815352,27.66,-1.06,-0.88,1.47,76,218,2.023244857788086,1.3855741024017334
49,-0.04025869071483612,-2.4697117805480957,0.028131302446126938,36.714596,3.1815204,25.41,-1.06,-0.88,1.47,76,218,2.0255320072174072,1.3839935064315796
50,-0.09469907730817795,-2.9874589443206787,-0.12884795665740967,36.7145786,3.1815081,23.22,-1.72,-0.32,1.22,76,188,2.1427316665649414,1.7550561428070068
51,-0.20018453896045685,2.666788339614868,0.0035042741801589727,36.7145374,3.1815227,22.3,-3.46,1.7,-0.04,75,152,3.8632848262786865,3.8629796504974365
52,-0.17102450132369995,2.672213315963745,-0.03148709610104561,36.7144851,3.1815552,22.4,-4.02,2.04,0.0,75,153,4.513315200805664,4.513305187225342
53,-0.00020626284822355956,3.0405921936035156,0.21390728652477264,36.7144238,3.1815859,22.35,-3.47,0.37,0.04,75,174,3.499934673309326,3.499600887298584
54,-0.40587589144706726,-2.218838691711426,0.10235701501369476,36.7143818,3.181561,22.33,-2.98,-3.55,0.02,74,232,4.644800186157227,4.644754409790039
55,-0.48210370540618896,-2.1463911533355713,0.035150930285453796,36.7143349,3.1814744,22.33,-4.13,-6.52,0.01,74,237,7.723341941833496,7.72333288192749
56,-0.46476882696151733,-2.1537652015686035,-0.032765261828899384,36.7142616,3.1813313,22.34,-4.98,-7.67,0.0,73,236,9.15267562866211,9.15267562866211
57,-0.3692910373210907,-2.1566998958587646,0.010964333079755306,36.7141943,3.1812027,22.36,-4.77,-7.27,0.0,73,236,8.703656196594238,8.703651428222656
58,-0.22246378660202026,-2.1475234031677246,-0.009005204774439335,36.7141265,3.1810727,22.36,-3.77,-5.92,0.03,73,236,7.022207260131836,7.022130966186523
59,-0.29553815722465515,-2.1174981594085693,0.026602432131767273,36.7140788,3.180976,22.33,-3.35,-5.66,0.01,72,238,6.588281631469727,6.58826208114624
60,-0.263927161693573,-2.1000888347625732,-0.018024852499365807,36.7140274,3.180865,22.34,-3.21,-5.65,0.01,72,239,6.504586696624756,6.504576683044434
61,-0.19488313794136047,-2.1002635955810547,-0.004883401095867157,36.7139843,3.1807711,22.34,-3.01,-5.3,0.0,71,239,6.104396820068359,6.104396820068359
62,0.15565818548202515,-2.1007239818573,0.011040776036679745,36.7139502,3.1806969,22.32,-1.79,-3.13,0.04,71,239,3.614013910293579,3.6137771606445312
63,0.07852890342473984,-2.1004433631896973,0.019217852503061295,36.7139364,3.1806665,22.32,-0.14,-0.26,-0.01,71,239,0.30684736371040344,0.3062727451324463
64,0.020085133612155914,-2.100132942199707,0.031917065382003784,36.7139372,3.1806677,22.3,0.18,0.1,0.04,70,239,0.21761205792427063,0.2138383388519287
