timestamp,pitch,yaw,roll,lat,lon,alt,velocity_x,velocity_y,velocity_z,battery,heading,airspeed,groundspeed
0,0.022737443447113037,-0.05008696764707565,-0.019291594624519348,36.7156067,3.1846299,22.07,-0.02,0.02,-0.09,96,357,0.10101701319217682,0.0393323190510273
1,-0.03825022652745247,-0.032799042761325836,0.11984279006719589,36.715608,3.1846328,22.05,0.36,0.6,-0.04,95,358,0.7091356515884399,0.7075671553611755
2,-0.231530100107193,1.4707752466201782,-0.10710902512073517,36.7156207,3.1846563,22.08,1.62,2.36,-0.04,95,84,2.871499538421631,2.8710973262786865
3,-0.1781206876039505,0.9035536050796509,-0.021065272390842438,36.7156537,3.1847158,22.09,2.35,3.42,-0.01,95,51,4.159233093261719,4.159193992614746
4,0.02619595266878605,0.9395824670791626,0.03583253175020218,36.7156855,3.1847721,22.09,2.06,2.94,0.0,94,53,3.5979247093200684,3.597916841506958
5,0.31482982635498047,0.7901055812835693,-0.05240040272474289,36.7156999,3.1847961,22.11,-0.76,-1.17,-0.01,94,45,1.406051754951477,1.4059184789657593
6,-0.03002781607210636,-0.9402686357498169,-0.1793968230485916,36.7156774,3.1847549,22.08,-2.2,-3.18,0.04,93,306,3.8793277740478516,3.879075288772583
7,-0.12282457202672958,-2.3885529041290283,0.06097079813480377,36.715647,3.1846994,22.13,-2.22,-3.26,-0.02,93,223,3.9506936073303223,3.95062518119812
8,-0.07416120171546936,-1.5405470132827759,0.22649365663528442,36.7156264,3.1846369,22.09,0.14,-2.85,0.02,93,271,2.8545949459075928,2.8544809818267822
9,-0.38478565216064453,-0.6503004431724548,0.10113586485385895,36.7156546,3.184589,22.08,3.95,-3.1,0.0,92,322,5.029961109161377,5.0299577713012695
10,-0.5421149730682373,-0.6258434057235718,0.0007532130694016814,36.7157433,3.1845115,22.08,6.95,-4.83,0.0,92,324,8.473398208618164,8.473394393920898
11,-0.49085333943367004,-0.6191536784172058,0.030385859310626984,36.7158453,3.1844229,22.1,7.85,-5.52,0.0,91,324,9.604682922363281,9.604681968688965
12,-0.37037554383277893,-0.6195599436759949,-0.011942021548748016,36.7159518,3.1843295,22.13,7.62,-5.38,-0.01,91,324,9.338037490844727,9.338024139404297
13,-0.06695174425840378,-0.6237940192222595,0.0028377543203532696,36.7160579,3.1842358,22.16,5.33,-3.82,0.05,91,324,6.559877872467041,6.559651851654053
14,0.05924122780561447,-1.1093566417694092,-0.2883932590484619,36.7161062,3.1841816,22.25,1.42,-2.87,-0.21,90,296,3.214052438735962,3.2068710327148438
15,-0.37767913937568665,-2.133645534515381,-0.0336410254240036,36.7160906,3.1841142,23.28,-3.05,-4.54,-0.94,90,237,5.557363986968994,5.47644567489624
16,-0.4674220085144043,-2.158048391342163,-0.03463369235396385,36.7160351,3.1840164,25.15,-4.86,-7.01,-1.44,89,236,8.659337043762207,8.537446022033691
17,-0.49430137872695923,-2.1639559268951416,-0.01399143971502781,36.7159628,3.1838869,27.54,-5.54,-8.01,-1.59,89,236,9.876949310302734,9.746569633483887
18,-0.4275890588760376,-2.163097381591797,0.012695660814642906,36.715875,3.1837258,30.41,-5.51,-8.17,-1.57,88,236,9.989325523376465,9.863718032836914
19,-0.44545894861221313,-2.16294264793396,-0.030730485916137695,36.7158001,3.1835863,32.88,-5.53,-8.22,-1.58,88,236,10.039060592651367,9.913261413574219
20,-0.47284823656082153,-2.16410231590271,0.03633318841457367,36.715713,3.1834246,35.78,-5.55,-8.27,-1.59,87,236,10.090720176696777,9.964326858520508
21,-0.4263344705104828,-2.164287567138672,0.018820498138666153,36.7156379,3.1832849,38.26,-5.54,-8.27,-1.6,87,236,10.089820861816406,9.960692405700684
22,-0.4482906460762024,-2.1660685539245605,-0.023347409442067146,36.715563,3.1831451,40.75,-5.5,-8.28,-1.61,87,235,10.080775260925293,9.9508695602417
23,-0.4703107178211212,-2.1649460792541504,0.03575616702437401,36.715476,3.1829822,43.67,-5.5,-8.3,-1.61,86,235,10.101011276245117,9.970681190490723
24,-0.42208826541900635,-2.164102077484131,0.009867969900369644,36.7154012,3.1828422,46.17,-5.51,-8.3,-1.62,86,236,10.098066329956055,9.96576976776123
25,-0.4880281984806061,-2.1640872955322266,-0.007586339954286814,36.715314,3.1826789,49.09,-5.49,-8.3,-1.62,85,236,10.087158203125,9.955317497253418
26,-0.47382020950317383,-2.1641764640808105,0.039648547768592834,36.7152394,3.1825393,51.6,-5.5,-8.28,-1.62,85,236,10.077387809753418,9.945463180541992
27,-0.44872167706489563,-2.1635448932647705,-0.028185147792100906,36.7151523,3.1823764,54.51,-5.52,-8.3,-1.62,84,236,10.109689712524414,9.978107452392578
28,-0.47884824872016907,-2.1634371280670166,-0.018603364005684853,36.7150773,3.1822363,57.01,-5.53,-8.28,-1.63,84,236,10.099713325500488,9.966721534729004
29,-0.2638918161392212,-2.1693732738494873,0.039830826222896576,36.7150056,3.1821036,59.42,-4.84,-7.2,-1.43,83,235,8.807384490966797,8.689059257507324
30,-0.08093982189893723,-2.1616625785827637,-0.0070207067765295506,36.7149439,3.1819881,61.39,-2.94,-4.52,-0.68,83,236,5.445547103881836,5.402768611907959
31,-0.13285063207149506,-2.11960506439209,0.03990957513451576,36.7149107,3.1819216,61.99,-2.19,-3.69,-0.17,83,238,4.3051066398620605,4.301510334014893
32,-0.18657292425632477,-2.10178542137146,0.00291094440035522,36.7148776,3.1818503,62.05,-2.09,-3.68,-0.01,82,239,4.234912395477295,4.234877586364746
33,0.015979686751961708,-2.103080987930298,0.008349458687007427,36.7148506,3.1817916,62.05,-1.75,-3.1,0.03,82,239,3.5656347274780273,3.5654940605163574
34,0.0051260520704090595,-2.2862324714660645,-0.06543944776058197,36.714831,3.1817531,61.35,-1.23,-1.5,1.02,82,229,2.2006378173828125,1.9451133012771606
35,-0.003655568463727832,-2.475853681564331,-0.0059033469296991825,36.7148133,3.1817335,58.81,-1.03,-0.78,1.44,81,218,1.9411959648132324,1.2951295375823975
36,-0.06431914865970612,-2.4720816612243652,0.01880573108792305,36.7147994,3.1817205,56.56,-1.02,-0.81,1.41,81,218,1.9319137334823608,1.3147907257080078
37,-0.03171250969171524,-2.469668388366699,-0.022227518260478973,36.7147827,3.1817041,53.95,-1.06,-0.88,1.43,80,218,1.9946002960205078,1.3856762647628784
38,-0.03398532792925835,-2.4699888229370117,0.028215689584612846,36.7147683,3.1816893,51.71,-1.06,-0.88,1.44,80,218,2.000248670578003,1.3857827186584473
39,-0.06060263514518738,-2.4694478511810303,-0.006943853106349707,36.7147512,3.1816722,49.09,-1.07,-0.87,1.44,80,218,2.0028858184814453,1.3866541385650635
40,-0.008290656842291355,-2.469491720199585,0.017804168164730072,36.7147366,3.1816577,46.85,-1.07,-0.87,1.45,79,218,2.0073022842407227,1.3862385749816895
41,-0.049450818449258804,-2.469252109527588,-0.022120602428913116,36.714722,3.1816431,44.61,-1.06,-0.88,1.46,79,218,2.0178027153015137,1.3862568140029907
42,-0.013097679242491722,-2.469860792160034,-0.011456920765340328,36.7147051,3.181626,41.98,-1.06,-0.88,1.46,79,218,2.0170273780822754,1.3875283002853394
43,-0.060584794729948044,-2.469764471054077,0.010640312917530537,36.7146905,3.1816112,39.74,-1.06,-0.89,1.46,78,218,2.025299072265625,1.3956478834152222
44,-0.028341103345155716,-2.469435453414917,-0.02618515118956566,36.7146734,3.1815939,37.12,-1.07,-0.88,1.47,78,218,2.026176929473877,1.3882476091384888
45,-0.038617197424173355,-2.4696238040924072,0.030583050101995468,36.7146588,3.1815792,34.87,-1.06,-0.88,1.47,78,218,2.024155378341675,1.3849217891693115
46,-0.024141430854797363,-2.4697282314300537,-0.021737845614552498,36.7146443,3.1815646,32.62,-1.07,-0.88,1.47,77,218,2.02266001701355,1.3885656595230103
47,-0.01129827555269003,-2.469531774520874,0.017616113647818565,36.7146273,3.1815474,30.0,-1.05,-0.88,1.47,77,218,2.018612861633301,1.3764383792877197
48,-0.04944736510515213,-2.4691736698150635,-0.023826338350772858,36.7146127,3.1815327,27.75,-1.07,-0.88,1.47,76,218,2.026503086090088,1.388941764831543
49,-0.00927053950726986,-2.469583749771118,-0.009316223673522472,36.7145957,3.1815155,25.12,-1.06,-0.87,1.46,76,218,2.0174152851104736,1.3826910257339478
50,-0.1452423483133316,-3.0079684257507324,-0.0994076058268547,36.714578,3.1815034,22.95,-1.75,-0.3,1.21,76,187,2.155806064605713,1.7837519645690918
51,-0.2256719470024109,2.668067455291748,-0.044586095958948135,36.7145363,3.1815186,22.07,-3.51,1.74,-0.05,75,152,3.922300100326538,3.9218626022338867
52,-0.18051746487617493,2.6720759868621826,0.02075788378715515,36.7144835,3.1815515,22.17,-4.0,2.05,0.01,75,153,4.496722221374512,4.496707916259766
53,-0.010939156636595726,2.9285945892333984,0.1481751650571823,36.7144306,3.1815799,22.12,-3.6,0.79,0.05,75,167,3.688321590423584,3.687908887863159
54,-0.3625948131084442,-2.20680832862854,0.1410100907087326,36.7143806,3.1815549,22.1,-2.99,-3.66,0.01,74,233,4.731261253356934,4.7312331199646
55,-0.48504963517189026,-2.1473214626312256,-0.02830657921731472,36.7143335,3.1814669,22.1,-4.18,-6.58,0.01,74,236,7.802145481109619,7.8021368980407715
56,-0.455459862947464,-2.1545262336730957,0.029036041349172592,36.7142597,3.1813229,22.11,-5.0,-7.67,0.0,73,236,9.163647651672363,9.163647651672363
57,-0.30150505900382996,-2.1572864055633545,-0.008782150223851204,36.7141922,3.1811943,22.13,-4.75,-7.21,0.0,73,236,8.644082069396973,8.644076347351074
58,-0.256765753030777,-2.150960683822632,0.011480231769382954,36.7141333,3.1810819,22.14,-3.86,-6.04,0.03,73,236,7.17437219619751,7.174262046813965
59,-0.25101199746131897,-2.1146504878997803,0.0013410391984507442,36.7140778,3.180969,22.11,-3.35,-5.68,0.01,72,238,6.600100517272949,6.600071430206299
60,-0.31001681089401245,-2.1006083488464355,0.0041644386947155,36.7140334,3.1808738,22.11,-3.24,-5.67,0.01,72,239,6.539756774902344,6.539732933044434
61,-0.13017141819000244,-2.099839448928833,-0.004248030949383974,36.7139829,3.1807636,22.11,-2.99,-5.27,0.0,71,239,6.065863132476807,6.065861701965332
62,0.1106969565153122,-2.1007564067840576,0.009887452237308025,36.7139495,3.1806906,22.09,-1.72,-3.04,0.04,71,239,3.49765682220459,3.497394323348999
63,0.09524626284837723,-2.1002461910247803,-0.03236037492752075,36.7139364,3.1806617,22.09,-0.13,-0.22,-0.01,71,239,0.2621118724346161,0.26161739230155945
64,-0.008138636127114296,-2.1012041568756104,0.08290151506662369,36.7139373,3.1806634,22.07,0.18,0.09,0.03,70,239,0.20733682811260223,0.2034418135881424
