timestamp,pitch,yaw,roll,lat,lon,alt,velocity_x,velocity_y,velocity_z,battery,heading,airspeed,groundspeed
0,0.005286884494125843,-0.04287886619567871,0.03220294788479805,36.7156065,3.18463,21.18,-0.01,0.02,-0.02,96,357,0.03762342035770416,0.03014332801103592
1,-0.05594341456890106,-0.039650797843933105,0.06789427250623703,36.715608,3.1846326,21.13,0.34,0.57,-0.03,95,357,0.6701677441596985,0.669318437576294
2,-0.17996540665626526,1.4855782985687256,-0.08096481114625931,36.7156198,3.1846558,21.16,1.47,2.36,-0.04,95,85,2.7867026329040527,2.786316156387329
3,-0.15263277292251587,0.8963423371315002,0.035916201770305634,36.71565,3.1847153,21.18,2.15,3.41,-0.02,95,51,4.035201549530029,4.035130500793457
4,0.06895995140075684,0.9704119563102722,-0.029752546921372414,36.7156789,3.184771,21.18,1.84,2.84,-0.01,94,55,3.3880367279052734,3.3880186080932617
5,0.3415367901325226,1.3162198066711426,0.1389314830303192,36.7156893,3.1847905,21.21,-0.97,-1.4,-0.01,94,75,1.7117414474487305,1.7116527557373047
6,-0.08993257582187653,3.008110761642456,0.13199719786643982,36.7156656,3.1847476,21.18,-2.25,-3.18,0.04,93,172,3.9049174785614014,3.9047043323516846
7,-0.06813116371631622,-1.9479070901870728,0.02948123589158058,36.7156305,3.1846822,21.22,-2.03,-3.23,0.0,93,248,3.8181583881378174,3.81815505027771
8,-0.09956832230091095,-1.4091464281082153,0.2807888388633728,36.7156169,3.1846298,21.18,0.44,-2.81,0.01,93,279,2.8525450229644775,2.85249400138855
9,-0.3869389295578003,-0.6509904861450195,0.05428476259112358,36.7156487,3.1845813,21.18,4.19,-3.21,0.0,92,322,5.2886738777160645,5.288671016693115
10,-0.5317252278327942,-0.6279085874557495,0.03779000788927078,36.7157401,3.1845009,21.18,7.09,-4.92,-0.01,92,324,8.633906364440918,8.633898735046387
11,-0.4527330696582794,-0.6191904544830322,0.006352582015097141,36.7158432,3.1844113,21.2,7.85,-5.53,0.0,91,324,9.608491897583008,9.608488082885742
12,-0.3699704110622406,-0.6242003440856934,0.0014575649984180927,36.7159656,3.1843027,21.23,7.32,-5.21,-0.01,91,324,8.986806869506836,8.98678970336914
13,-0.01776789128780365,-0.632362425327301,-0.015194972977042198,36.7160518,3.1842264,21.25,5.04,-3.68,0.04,91,323,6.244822978973389,6.244636058807373
14,-0.14200037717819214,-1.4694775342941284,-0.2755504548549652,36.7160967,3.1841652,21.47,0.23,-2.98,-0.36,90,275,3.0124051570892334,2.990422487258911
15,-0.3751267194747925,-2.140655994415283,-0.05048264190554619,36.7160737,3.1841028,22.53,-3.32,-4.76,-1.0,90,237,5.89426851272583,5.80828332901001
16,-0.49698659777641296,-2.159189462661743,-0.02675895020365715,36.7160157,3.1840011,24.46,-4.97,-7.2,-1.48,89,236,8.879067420959473,8.754690170288086
17,-0.4456494450569153,-2.1641905307769775,0.035865142941474915,36.7159304,3.1838471,27.29,-5.52,-8.04,-1.6,89,236,9.888233184814453,9.757301330566406
18,-0.43325167894363403,-2.163883924484253,0.0002817822387441993,36.7158552,3.1837091,29.75,-5.54,-8.19,-1.57,88,236,10.022285461425781,9.897820472717285
19,-0.46811676025390625,-2.1630256175994873,-0.03536272794008255,36.7157802,3.1835696,32.21,-5.56,-8.26,-1.59,88,236,10.090470314025879,9.964343070983887
20,-0.45130372047424316,-2.164020299911499,0.03703033924102783,36.7156925,3.1834067,35.11,-5.52,-8.25,-1.6,87,236,10.063681602478027,9.934736251831055
21,-0.4221240282058716,-2.162824869155884,-0.0017989493208006024,36.7156178,3.1832672,37.6,-5.49,-8.26,-1.6,87,236,10.053888320922852,9.924482345581055
22,-0.48994067311286926,-2.1634774208068848,-0.005352295935153961,36.7155309,3.1831048,40.5,-5.5,-8.29,-1.61,87,236,10.088035583496094,9.958094596862793
23,-0.4630575180053711,-2.1643733978271484,0.040058981627225876,36.7154561,3.182965,43.0,-5.53,-8.3,-1.63,86,236,10.111345291137695,9.978196144104004
24,-0.43913763761520386,-2.163961887359619,-0.03416737541556358,36.7153686,3.1828014,45.92,-5.51,-8.28,-1.62,86,236,10.079671859741211,9.947654724121094
25,-0.4916337728500366,-2.163295269012451,-0.0019822220783680677,36.715294,3.1826618,48.43,-5.49,-8.28,-1.62,85,236,10.079731941223145,9.947556495666504
26,-0.47298943996429443,-2.164203643798828,0.03758636862039566,36.7152194,3.1825222,50.92,-5.52,-8.31,-1.64,85,236,10.113225936889648,9.97853946685791
27,-0.4472185969352722,-2.165022134780884,-0.025195199996232986,36.7151321,3.1823589,53.85,-5.52,-8.28,-1.63,84,235,10.093474388122559,9.959596633911133
28,-0.4665975272655487,-2.162686824798584,-0.026959283277392387,36.7150573,3.1822189,56.36,-5.51,-8.25,-1.62,84,236,10.056987762451172,9.92454719543457
29,-0.16424602270126343,-2.1679258346557617,0.010617131367325783,36.7149763,3.182069,59.07,-4.47,-6.64,-1.32,83,235,8.123377799987793,8.013848304748535
30,-0.0767754390835762,-2.157172203063965,-0.011085224337875843,36.7149275,3.1819772,60.58,-2.82,-4.36,-0.62,83,236,5.231966972351074,5.194177627563477
31,-0.11379925906658173,-2.097446918487549,0.020343760028481483,36.7148909,3.1819017,61.15,-2.07,-3.68,-0.09,83,239,4.229677200317383,4.22857141494751
32,-0.1812824308872223,-2.086308479309082,-0.006701447535306215,36.7148637,3.1818405,61.16,-2.01,-3.7,-0.01,82,240,4.21921443939209,4.219191074371338
33,0.025060927495360374,-2.0898263454437256,0.008222422562539577,36.7148381,3.1817826,61.14,-1.62,-2.93,0.08,82,240,3.3604958057403564,3.3593339920043945
34,-0.00914078764617443,-2.3786563873291016,-0.030444195494055748,36.7148169,3.1817433,59.95,-1.16,-1.21,1.32,82,223,2.1437618732452393,1.6844778060913086
35,-0.00476270355284214,-2.4689393043518066,0.006876314990222454,36.7148024,3.1817284,57.67,-1.03,-0.79,1.43,81,218,1.9425275325775146,1.3075690269470215
36,-0.04707511141896248,-2.4694712162017822,0.03076145239174366,36.714786,3.181713,55.06,-1.04,-0.84,1.43,81,218,1.9648702144622803,1.344183087348938
37,-0.022158624604344368,-2.469627618789673,-0.019682670012116432,36.7147716,3.1816987,52.82,-1.07,-0.88,1.43,80,218,1.9971487522125244,1.3890814781188965
38,-0.05262884497642517,-2.4703822135925293,0.019071070477366447,36.7147571,3.181684,50.58,-1.06,-0.87,1.44,80,218,2.00014066696167,1.3840453624725342
39,-0.04303969442844391,-2.469421863555908,-0.021507155150175095,36.7147401,3.1816671,47.97,-1.07,-0.88,1.45,80,218,2.020595073699951,1.3973852396011353
40,-0.03107461705803871,-2.469604730606079,0.027865376323461533,36.7147255,3.1816523,45.72,-1.06,-0.88,1.46,79,218,2.013920307159424,1.3844743967056274
41,-0.05809309333562851,-2.469338893890381,-0.005013614427298307,36.7147085,3.1816353,43.1,-1.06,-0.87,1.46,79,218,2.0119457244873047,1.380528450012207
42,-0.012502595782279968,-2.4695217609405518,0.015102813951671124,36.714694,3.1816206,40.86,-1.06,-0.88,1.47,79,218,2.025507926940918,1.389149785041809
43,-0.0564422681927681,-2.4690983295440674,-0.019869117066264153,36.7146794,3.1816058,38.61,-1.07,-0.89,1.47,78,218,2.034243583679199,1.4008166790008545
44,-0.008574205450713634,-2.4693307876586914,-0.0011600134894251823,36.7146622,3.1815886,35.98,-1.07,-0.87,1.47,78,218,2.019984483718872,1.3842592239379883
45,-0.0623420812189579,-2.469313383102417,0.0034257483202964067,36.7146477,3.181574,33.74,-1.05,-0.88,1.47,78,218,2.0229358673095703,1.3808598518371582
46,-0.02502576634287834,-2.4693822860717773,-0.024545449763536453,36.7146307,3.1815568,31.11,-1.07,-0.88,1.47,77,218,2.0276639461517334,1.389353632926941
47,-0.049424756318330765,-2.4698915481567383,0.02641785517334938,36.7146161,3.181542,28.86,-1.06,-0.88,1.47,77,218,2.0169320106506348,1.3795324563980103
48,-0.05150148272514343,-2.4692885875701904,-0.024016808718442917,36.7145992,3.1815249,26.24,-1.06,-0.88,1.47,76,218,2.0212268829345703,1.382916808128357
49,-0.028822869062423706,-2.469947576522827,0.026152197271585464,36.7145845,3.1815102,23.99,-1.07,-0.88,1.47,76,218,2.0273237228393555,1.3866639137268066
50,-0.1314621865749359,-3.1129984855651855,-0.13755179941654205,36.7145658,3.1814991,21.86,-1.89,-0.13,1.09,76,181,2.1889514923095703,1.8951876163482666
51,-0.19415052235126495,2.6763839721679688,-0.004080705810338259,36.7145214,3.1815177,21.19,-3.65,1.79,-0.06,75,153,4.069856643676758,4.069324016571045
52,-0.18347105383872986,2.679837703704834,-0.028529372066259384,36.7144676,3.1815507,21.27,-4.07,2.04,0.03,75,153,4.561539649963379,4.561413764953613
53,-0.008871805854141712,3.139010429382324,0.2242884635925293,36.7144066,3.1815782,21.21,-3.39,0.03,0.04,75,179,3.397810220718384,3.397500991821289
54,-0.42337748408317566,-2.1991946697235107,0.10796219110488892,36.7143652,3.1815464,21.2,-3.02,-3.93,0.02,74,234,4.96436071395874,4.964319229125977
55,-0.4608117341995239,-2.1470625400543213,0.027292832732200623,36.714317,3.1814547,21.2,-4.22,-6.72,0.0,74,236,7.943260192871094,7.94325590133667
56,-0.47498196363449097,-2.151554822921753,-0.01774243265390396,36.714243,3.1813093,21.21,-4.94,-7.72,0.0,73,236,9.168131828308105,9.168131828308105
57,-0.34044745564460754,-2.152869701385498,0.025368575006723404,36.7141769,3.1811815,21.23,-4.62,-7.14,0.0,73,236,8.517608642578125,8.517607688903809
58,-0.25210219621658325,-2.1406073570251465,-0.014790664426982403,36.7141111,3.1810535,21.22,-3.67,-5.87,0.03,73,237,6.925535678863525,6.9254608154296875
59,-0.2796783149242401,-2.112460136413574,0.04086948558688164,36.7140642,3.180957,21.2,-3.32,-5.66,0.01,72,238,6.564713478088379,6.564700603485107
60,-0.2554453909397125,-2.0996248722076416,-0.0068455287255346775,36.7140202,3.180862,21.21,-3.21,-5.64,0.01,72,239,6.493368148803711,6.493358135223389
61,-0.16287797689437866,-2.1000866889953613,0.023396218195557594,36.7139702,3.1807529,21.21,-2.94,-5.16,0.0,71,239,5.939589977264404,5.9395904541015625
62,0.1724865585565567,-2.100898265838623,-0.02043011598289013,36.713938,3.1806829,21.18,-1.6,-2.78,0.03,71,239,3.2195966243743896,3.2193901538848877
63,0.10313382744789124,-2.0997018814086914,0.026087014004588127,36.7139267,3.1806578,21.19,-0.05,-0.12,-0.01,71,239,0.14056967198848724,0.13958428800106049
64,-0.018161574378609657,-2.101477861404419,0.036122508347034454,36.7139279,3.1806596,21.16,0.22,0.04,0.03,70,239,0.23629797995090485,0.23310884833335876
