timestamp,pitch,yaw,roll,lat,lon,alt,velocity_x,velocity_y,velocity_z,battery,heading,airspeed,groundspeed
0,0.005200303625315428,-0.02383534424006939,-0.027268460020422935,36.7156066,3.1846299,17.38,-0.02,0.02,-0.01,96,358,0.04338884726166725,0.04027096927165985
1,-0.044146858155727386,0.0043822117149829865,0.10367066413164139,36.7156083,3.1846331,17.44,0.39,0.63,0.0,95,0,0.7448924779891968,0.7448924779891968
2,-0.22169408202171326,1.4488238096237183,-0.09361197054386139,36.7156216,3.1846578,17.4,1.69,2.42,-0.01,95,83,2.956685781478882,2.956629753112793
3,-0.17957167327404022,0.9375166893005371,-0.012110475450754166,36.7156556,3.1847173,17.43,2.38,3.37,-0.02,95,53,4.127295017242432,4.127211093902588
4,0.07097844034433365,0.9372448325157166,0.029161861166357994,36.7156873,3.1847722,17.44,1.98,2.78,-0.01,94,53,3.4150547981262207,3.415039300918579
5,0.3350805938243866,0.7613224983215332,-0.08409661054611206,36.7157002,3.1847932,17.43,-0.49,-0.79,0.01,94,43,0.938216507434845,0.9381402134895325
6,-0.05124511942267418,-1.0959759950637817,-0.169670969247818,36.7156749,3.1847467,17.47,-2.24,-3.24,-0.01,93,297,3.940912961959839,3.940868616104126
7,-0.09803037345409393,-2.4259841442108154,0.09022229164838791,36.7156445,3.1846913,17.46,-2.16,-3.27,0.01,93,221,3.9230568408966064,3.923032760620117
8,-0.10747076570987701,-1.4519250392913818,0.2492903470993042,36.7156269,3.1846294,17.44,0.46,-2.8,0.01,93,276,2.8452329635620117,2.845205068588257
9,-0.3902710974216461,-0.6559933423995972,0.09419310092926025,36.7156595,3.1845806,17.44,4.23,-3.2,0.0,92,322,5.315234661102295,5.315234184265137
10,-0.545204222202301,-0.6271719932556152,0.010336915962398052,36.7157511,3.1845004,17.45,7.09,-4.88,0.0,92,324,8.614300727844238,8.614299774169922
11,-0.4777166545391083,-0.616364061832428,0.02741839736700058,36.715854,3.1844117,17.46,7.89,-5.5,0.0,91,324,9.620006561279297,9.620003700256348
12,-0.3578055202960968,-0.6208078861236572,-0.013484960421919823,36.7159601,3.1843186,17.48,7.54,-5.35,-0.02,91,324,9.25442123413086,9.254393577575684
13,-0.051760684698820114,-0.627558708190918,-0.011163471266627312,36.7160635,3.1842271,17.5,5.07,-3.67,0.04,91,324,6.268063068389893,6.267908096313477
14,0.01425600703805685,-1.208124041557312,-0.30377787351608276,36.7161075,3.1841741,17.63,1.08,-2.86,-0.26,90,290,3.0745136737823486,3.063004970550537
15,-0.3898538649082184,-2.1375925540924072,-0.0272858627140522,36.7160873,3.1841043,18.76,-3.27,-4.71,-0.99,90,237,5.8264970779418945,5.741269111633301
16,-0.4681284725666046,-2.1574878692626953,-0.03559383004903793,36.7160299,3.1840032,20.69,-4.95,-7.12,-1.47,89,236,8.804064750671387,8.680355072021484
17,-0.49352511763572693,-2.1639280319213867,-0.014846009202301502,36.7159572,3.1838729,23.1,-5.55,-8.03,-1.59,89,236,9.899433135986328,9.769779205322266
18,-0.4319393038749695,-2.163693904876709,0.0163795817643404,36.7158694,3.1837119,25.96,-5.54,-8.22,-1.58,88,236,10.042792320251465,9.916988372802734
19,-0.4489807188510895,-2.1629931926727295,-0.027849696576595306,36.7157944,3.1835724,28.42,-5.53,-8.25,-1.59,88,236,10.072208404541016,9.944864273071289
20,-0.47195926308631897,-2.163707733154297,0.03481425344944,36.715707,3.1834098,31.31,-5.53,-8.25,-1.61,87,236,10.069324493408203,9.93892765045166
21,-0.4269903302192688,-2.163034439086914,0.01665622740983963,36.7156322,3.1832704,33.8,-5.51,-8.25,-1.61,87,236,10.063976287841797,9.932744026184082
22,-0.4802568852901459,-2.163670301437378,-0.027108458802103996,36.7155449,3.1831074,36.71,-5.5,-8.26,-1.62,87,236,10.062918663024902,9.931554794311523
23,-0.46852222084999084,-2.1654438972473145,0.039223313331604004,36.7154701,3.1829677,39.21,-5.51,-8.28,-1.63,86,235,10.089197158813477,9.956099510192871
24,-0.4228901267051697,-2.16483473777771,0.012199055403470993,36.7153954,3.182828,41.71,-5.5,-8.29,-1.63,86,235,10.089512825012207,9.956021308898926
25,-0.48914748430252075,-2.1646039485931396,-0.008350949734449387,36.7153084,3.1826648,44.64,-5.5,-8.3,-1.62,85,235,10.092087745666504,9.960346221923828
26,-0.47924190759658813,-2.1647956371307373,0.03854180499911308,36.7152338,3.1825249,47.14,-5.52,-8.28,-1.63,85,235,10.089545249938965,9.956548690795898
27,-0.44956499338150024,-2.163668155670166,-0.027815166860818863,36.7151466,3.1823622,50.05,-5.53,-8.3,-1.64,84,236,10.117535591125488,9.9829683303833
28,-0.46744489669799805,-2.163710594177246,-0.018071958795189857,36.7150717,3.1822223,52.56,-5.52,-8.27,-1.64,84,236,10.08720874786377,9.952936172485352
29,-0.1688874512910843,-2.1684255599975586,0.00804390199482441,36.7149902,3.1820713,55.29,-4.49,-6.69,-1.34,83,235,8.626605033874512,8.509191513061523
30,-0.08406506478786469,-2.159942626953125,-0.007246732711791992,36.7149411,3.1819787,56.82,-2.85,-4.39,-0.63,83,236,5.278913497924805,5.239990711212158
31,-0.13370826840400696,-2.1167092323303223,0.03906765207648277,36.7149085,3.1819132,57.38,-2.18,-3.68,-0.14,83,238,4.284011363983154,4.28145694732666
32,-0.18594999611377716,-2.102527618408203,0.0011411500163376331,36.7148753,3.1818418,57.42,-2.07,-3.67,-0.01,82,239,4.225282192230225,4.225266456604004
33,0.02406155690550804,-2.104473829269409,0.003689482342451811,36.7148487,3.181784,57.4,-1.68,-2.96,0.07,82,239,3.4134697914123535,3.412661075592041
34,0.0011301063932478428,-2.3736684322357178,-0.018731236457824707,36.714827,3.1817443,56.27,-1.18,-1.24,1.29,82,224,2.158604860305786,1.7233128547668457
35,-0.005676590837538242,-2.4707303047180176,-0.0023729109670966864,36.7148123,3.1817291,54.0,-1.03,-0.8,1.44,81,218,1.9472973346710205,1.3100011348724365
36,-0.06326068192720413,-2.4711830615997314,0.010493440553545952,36.7147983,3.1817158,51.77,-1.02,-0.83,1.43,81,218,1.9483438730239868,1.318656325340271
37,-0.035000961273908615,-2.4694461822509766,-0.022027792409062386,36.7147816,3.1816994,49.16,-1.07,-0.88,1.44,81,218,2.0065722465515137,1.389210820198059
38,-0.03916522115468979,-2.4701943397521973,0.029050424695014954,36.7147671,3.1816847,46.91,-1.07,-0.88,1.45,80,218,2.008991003036499,1.3874157667160034
39,-0.0577026829123497,-2.4691226482391357,-0.018054118379950523,36.7147501,3.1816677,44.3,-1.07,-0.88,1.45,80,218,2.014347791671753,1.3892600536346436
40,-0.01901806890964508,-2.469172239303589,0.021774230524897575,36.7147356,3.1816531,42.05,-1.06,-0.88,1.46,79,218,2.0120224952697754,1.3801031112670898
41,-0.04448037967085838,-2.4691054821014404,-0.02127283811569214,36.714721,3.1816384,39.8,-1.08,-0.89,1.46,79,218,2.031984329223633,1.405320405960083
42,-0.007877420634031296,-2.4696786403656006,-0.0035219325218349695,36.714704,3.1816212,37.18,-1.07,-0.88,1.47,79,218,2.023287296295166,1.389817237854004
43,-0.06097117438912392,-2.469313144683838,-0.004881561268121004,36.7146893,3.1816065,34.94,-1.06,-0.88,1.47,78,218,2.023872137069702,1.3870302438735962
44,-0.020140092819929123,-2.469547986984253,-0.023254169151186943,36.7146724,3.1815893,32.32,-1.06,-0.88,1.47,78,218,2.024482011795044,1.3844459056854248
45,-0.05213455483317375,-2.4697723388671875,0.025583429262042046,36.7146578,3.1815746,30.07,-1.07,-0.89,1.48,78,218,2.0355634689331055,1.3954524993896484
46,-0.01278179232031107,-2.4698679447174072,-0.01520747970789671,36.7146432,3.1815598,27.82,-1.07,-0.88,1.48,77,218,2.0360279083251953,1.3922574520111084
47,-0.02423126995563507,-2.4698610305786133,0.025767425075173378,36.7146261,3.1815426,25.19,-1.05,-0.87,1.48,77,218,2.0169262886047363,1.3692411184310913
48,-0.03230484947562218,-2.4695446491241455,-0.02692311257123947,36.7146116,3.1815279,22.94,-1.06,-0.87,1.47,77,218,2.0216755867004395,1.3810973167419434
49,-0.00825430266559124,-2.4695112705230713,0.005735745653510094,36.7145946,3.1815107,20.31,-1.06,-0.87,1.47,76,218,2.020129680633545,1.3795464038848877
50,-0.15403009951114655,-3.0849695205688477,-0.12113455682992935,36.7145761,3.1814995,18.17,-1.85,-0.17,1.13,76,183,2.1791369915008545,1.8608837127685547
51,-0.207248717546463,2.6687536239624023,-0.035833366215229034,36.7145326,3.1815173,17.45,-3.58,1.78,-0.06,75,152,4.005207061767578,4.004711151123047
52,-0.1871304214000702,2.6715869903564453,0.01609538495540619,36.7144796,3.1815506,17.53,-4.0,2.04,0.02,75,153,4.497036457061768,4.496953964233398
53,-0.0019621008541435003,2.985766649246216,0.1806143969297409,36.7144273,3.181577,17.48,-3.54,0.59,0.05,75,171,3.592805862426758,3.5924429893493652
54,-0.39995360374450684,-2.2011168003082275,0.1387426257133484,36.7143777,3.1815465,17.46,-3.05,-3.92,0.01,74,233,4.970569133758545,4.970534324645996
55,-0.4591352343559265,-2.1535797119140625,-0.009719113819301128,36.714329,3.1814549,17.46,-4.27,-6.7,0.0,74,236,7.950213432312012,7.950210094451904
56,-0.4760828912258148,-2.156385898590088,0.02663249708712101,36.7142544,3.1813099,17.47,-4.97,-7.72,0.0,73,236,9.192996978759766,9.192996978759766
57,-0.3064596354961395,-2.157526969909668,0.012548704631626606,36.7141877,3.1811821,17.49,-4.69,-7.14,0.0,73,236,8.550267219543457,8.550263404846191
58,-0.2728152871131897,-2.1457626819610596,0.02770090103149414,36.7141213,3.1810543,17.48,-3.7,-5.85,0.03,73,236,7.115189552307129,7.115124702453613
59,-0.24432407319545746,-2.1134276390075684,0.02404874563217163,36.7140741,3.1809579,17.46,-3.34,-5.65,0.01,72,238,6.572512149810791,6.57250452041626
60,-0.2968910038471222,-2.1007001399993896,-0.0159296914935112,36.71403,3.1808628,17.46,-3.22,-5.66,0.01,72,239,6.515113353729248,6.515105247497559
61,-0.1141437441110611,-2.099503517150879,0.011273922398686409,36.71398,3.1807532,17.46,-2.93,-5.15,0.0,71,239,5.929862022399902,5.929861068725586
62,0.11923585832118988,-2.1008410453796387,-0.011339263059198856,36.7139478,3.1806835,17.44,-1.6,-2.79,0.03,71,239,3.2216153144836426,3.2214622497558594
63,0.1340799182653427,-2.100165605545044,0.01825810596346855,36.7139366,3.1806588,17.45,-0.2,-0.37,-0.01,71,239,0.4288738965988159,0.42841780185699463
64,-0.03189343214035034,-2.1030378341674805,0.07854799926280975,36.7139373,3.1806597,17.43,0.22,0.05,0.03,70,239,0.23556026816368103,0.2323935329914093
