timestamp,pitch,yaw,roll,lat,lon,alt,velocity_x,velocity_y,velocity_z,battery,heading,airspeed,groundspeed
0,0.01677071675658226,-0.014669065363705158,0.02821206860244274,36.7156065,3.1846299,21.06,-0.02,0.03,-0.02,96,359,0.045785874128341675,0.0383540540933609
1,-0.07914792746305466,-0.022508515045046806,0.06642007827758789,36.7156077,3.184632,21.0,0.31,0.5,-0.01,95,358,0.5925877690315247,0.5922695994377136
2,-0.1985906958580017,1.4326341152191162,-0.12976454198360443,36.7156234,3.18466,21.03,1.78,2.54,-0.04,95,82,3.110206127166748,3.1098568439483643
3,-0.1528508961200714,0.8789433836936951,0.030219480395317078,36.715653,3.1847118,21.05,2.42,3.41,-0.02,95,50,4.183036804199219,4.182966232299805
4,0.029189057648181915,0.9377119541168213,0.002647561486810446,36.7156908,3.1847766,21.05,2.0,2.77,0.0,94,53,3.4224531650543213,3.4224419593811035
5,0.3874356150627136,0.6861251592636108,-0.10335219651460648,36.7157035,3.1847966,21.08,-0.57,-0.91,-0.02,94,39,1.080396294593811,1.0801575183868408
6,-0.07790137827396393,-0.9311727285385132,-0.16064192354679108,36.7156826,3.1847579,21.06,-2.16,-3.14,0.04,93,306,3.8219242095947266,3.821629285812378
7,-0.1063261553645134,-2.422226667404175,0.03987709432840347,36.7156473,3.1846934,21.11,-2.15,-3.25,0.0,93,221,3.90510892868042,3.905109167098999
8,-0.01468072459101677,-1.6179784536361694,0.25812777876853943,36.7156296,3.18464,21.06,-0.08,-2.9,0.02,93,267,2.9072985649108887,2.9071524143218994
9,-0.4368245303630829,-0.6617076992988586,0.09517596662044525,36.7156634,3.1845831,21.05,4.29,-3.22,0.0,92,322,5.371535301208496,5.37153434753418
10,-0.49785175919532776,-0.6164309978485107,0.03995863348245621,36.7157253,3.1845289,21.05,6.51,-4.53,0.0,92,324,7.936966896057129,7.93696403503418
11,-0.507893443107605,-0.617695689201355,-0.02765999548137188,36.7158413,3.1844287,21.07,7.88,-5.48,0.0,91,324,9.605031967163086,9.605032920837402
12,-0.35351553559303284,-0.6201779842376709,0.021453285589814186,36.7159652,3.18432,21.1,7.54,-5.33,-0.02,91,324,9.240906715393066,9.24088191986084
13,-0.07320763170719147,-0.6231958866119385,-0.035624824464321136,36.7160561,3.1842397,21.12,5.52,-3.94,0.04,91,324,6.785203456878662,6.785032749176025
14,0.019023271277546883,-1.2410708665847778,-0.2874619960784912,36.716111,3.1841765,21.26,0.98,-2.87,-0.27,90,288,3.0539541244506836,3.041810989379883
15,-0.42095649242401123,-2.1268954277038574,-0.07677963376045227,36.7160967,3.1841189,22.16,-2.87,-4.39,-0.89,90,238,5.328005313873291,5.251823902130127
16,-0.44915589690208435,-2.1614041328430176,-0.007929637096822262,36.7160314,3.1840038,24.34,-4.99,-7.15,-1.48,89,236,8.491231918334961,8.370157241821289
17,-0.46483221650123596,-2.1627988815307617,-0.03439643979072571,36.7159588,3.1838732,26.76,-5.52,-8.04,-1.59,89,236,9.891916275024414,9.761995315551758
18,-0.4818354547023773,-2.1633565425872803,0.025884976610541344,36.7158835,3.1837351,29.22,-5.54,-8.2,-1.57,88,236,10.026161193847656,9.901631355285645
19,-0.42914262413978577,-2.1644287109375,-0.019060920923948288,36.7157955,3.1835722,32.09,-5.54,-8.22,-1.59,88,235,10.046345710754395,9.918971061706543
20,-0.48442983627319336,-2.162895679473877,-0.0173175111413002,36.715721,3.1834332,34.57,-5.49,-8.24,-1.59,88,236,10.034159660339355,9.90658950805664
21,-0.43047502636909485,-2.1653082370758057,0.02751660719513893,36.715634,3.1832709,37.47,-5.56,-8.29,-1.61,87,235,10.124317169189453,9.994893074035645
22,-0.44335684180259705,-2.165539503097534,-0.02153419889509678,36.7155589,3.1831309,39.96,-5.51,-8.28,-1.61,87,235,10.080232620239258,9.949610710144043
23,-0.4951561987400055,-2.164510726928711,-0.002101397607475519,36.7154844,3.1829912,42.46,-5.49,-8.28,-1.61,86,235,10.0764799118042,9.945589065551758
24,-0.4246774911880493,-2.165463447570801,0.014095567166805267,36.7153971,3.1828285,45.38,-5.53,-8.3,-1.62,86,235,10.10854434967041,9.977339744567871
25,-0.4595308303833008,-2.1631104946136475,-0.030645666643977165,36.7153225,3.1826884,47.88,-5.48,-8.3,-1.63,85,236,10.083279609680176,9.950572967529297
26,-0.4758511185646057,-2.163851261138916,0.03231903538107872,36.7152353,3.1825253,50.81,-5.53,-8.26,-1.63,85,236,10.084779739379883,9.951591491699219
27,-0.42525362968444824,-2.1653084754943848,0.004223222844302654,36.7151604,3.1823856,53.31,-5.52,-8.3,-1.63,84,235,10.106863975524902,9.974385261535645
28,-0.470723956823349,-2.1626179218292236,-0.02823224849998951,36.7150859,3.1822456,55.81,-5.51,-8.3,-1.62,84,236,10.097390174865723,9.965348243713379
29,-0.21475891768932343,-2.168717861175537,0.029691487550735474,36.7150025,3.1820911,58.59,-4.71,-6.98,-1.41,83,235,8.545884132385254,8.4287109375
30,-0.05933928117156029,-2.1628005504608154,-0.013420578092336655,36.7149502,3.1819933,60.28,-3.05,-4.65,-0.73,83,236,5.61469841003418,5.5668110847473145
31,-0.11422218382358551,-2.1156439781188965,0.02275260165333748,36.714911,3.1819153,60.99,-2.19,-3.71,-0.14,83,238,4.311680793762207,4.309277534484863
32,-0.17637136578559875,-2.1013081073760986,-0.015472299419343472,36.7148827,3.1818538,61.03,-2.07,-3.68,-0.01,82,239,4.225399971008301,4.22538423538208
33,0.0009948525112122297,-2.1026859283447266,0.021135231480002403,36.7148554,3.1817945,61.02,-1.8,-3.16,0.01,82,239,3.642573595046997,3.6425561904907227
34,0.00029521589749492705,-2.3218650817871094,-0.0315721333026886,36.7148326,3.1817505,60.16,-1.2,-1.39,1.14,82,226,2.1761927604675293,1.8476468324661255
35,-0.008145023137331009,-2.4810893535614014,-0.013291087932884693,36.7148176,3.1817338,57.95,-1.03,-0.8,1.45,81,217,1.9601587057113647,1.3080477714538574
36,-0.029749926179647446,-2.4710471630096436,0.028928477317094803,36.7148012,3.1817185,55.33,-1.04,-0.82,1.42,81,218,1.951390266418457,1.3315223455429077
37,-0.03854991868138313,-2.4705631732940674,-0.02308563143014908,36.7147869,3.1817045,53.08,-1.06,-0.87,1.43,81,218,1.9862052202224731,1.3770712614059448
38,-0.01113175880163908,-2.470299243927002,0.004697855561971664,36.71477,3.1816875,50.47,-1.06,-0.87,1.44,80,218,2.0004591941833496,1.3790613412857056
39,-0.060720693320035934,-2.4694395065307617,-0.009398138150572777,36.7147555,3.1816728,48.23,-1.07,-0.88,1.45,80,218,2.011836290359497,1.3931472301483154
40,-0.008662369102239609,-2.46972393989563,0.008489031344652176,36.7147409,3.1816582,45.98,-1.06,-0.88,1.45,79,218,2.012653112411499,1.3909095525741577
41,-0.05478576570749283,-2.4701755046844482,0.024840915575623512,36.7147238,3.1816411,43.37,-1.06,-0.88,1.46,79,218,2.019333839416504,1.390554666519165
42,-0.019893687218427658,-2.470513105392456,-0.020067472010850906,36.7147093,3.1816265,41.13,-1.06,-0.88,1.47,79,218,2.0222716331481934,1.384469747543335
43,-0.015023007057607174,-2.4697327613830566,0.023263921961188316,36.7146923,3.1816094,38.5,-1.06,-0.88,1.47,78,218,2.020061492919922,1.3852639198303223
44,-0.05105002596974373,-2.4697506427764893,-0.02135292813181877,36.7146777,3.1815945,36.25,-1.06,-0.9,1.47,78,218,2.030231237411499,1.3963263034820557
45,-0.008651413954794407,-2.469778060913086,-0.013266514986753464,36.7146607,3.1815773,33.63,-1.06,-0.88,1.48,78,218,2.031203269958496,1.3911364078521729
46,-0.06160037964582443,-2.470163583755493,0.010778275318443775,36.7146461,3.1815627,31.38,-1.05,-0.88,1.47,77,218,2.021909713745117,1.3794286251068115
47,-0.005406273063272238,-2.4698431491851807,0.002270917408168316,36.7146315,3.1815481,29.13,-1.06,-0.88,1.47,77,218,2.0250983238220215,1.3871182203292847
48,-0.04247593134641647,-2.4698212146759033,0.02751103602349758,36.7146145,3.1815308,26.51,-1.06,-0.88,1.47,76,218,2.025477886199951,1.3847469091415405
49,-0.029101980850100517,-2.4701573848724365,-0.02501852437853813,36.7145999,3.1815161,24.25,-1.06,-0.89,1.47,76,218,2.0257036685943604,1.385891079902649
50,-0.10639659315347672,-3.1115615367889404,-0.09368949383497238,36.7145789,3.1815025,21.75,-1.88,-0.14,1.1,76,181,2.186802864074707,1.8864068984985352
51,-0.2511976659297943,2.668046712875366,-0.028342915698885918,36.7145428,3.1815163,21.04,-3.43,1.67,-0.03,75,152,3.821260690689087,3.8211357593536377
52,-0.15292994678020477,2.6724369525909424,0.01907319761812687,36.7144907,3.1815488,21.14,-4.0,2.04,0.0,75,153,4.497643947601318,4.497642517089844
53,-0.04764354228973389,2.9929070472717285,0.21403492987155914,36.7144293,3.1815807,21.09,-3.51,0.5,0.05,75,171,3.5513834953308105,3.5510151386260986
54,-0.34137555956840515,-2.21789813041687,0.11409717053174973,36.714387,3.1815586,21.07,-2.95,-3.39,0.01,74,232,4.502132415771484,4.502093315124512
55,-0.49159350991249084,-2.1491408348083496,0.04083123058080673,36.7143315,3.1814551,21.07,-4.24,-6.74,0.0,74,236,7.971529960632324,7.971524715423584
56,-0.4295436441898346,-2.14794921875,-0.0009027292835526168,36.714269,3.1813316,21.08,-4.93,-7.72,0.0,73,236,9.162951469421387,9.162951469421387
57,-0.3446076512336731,-2.1527903079986572,0.019006190821528435,36.7141915,3.1811818,21.11,-4.64,-7.13,0.0,73,236,8.757518768310547,8.757514953613281
58,-0.23751400411128998,-2.148190498352051,0.03849685937166214,36.7141428,3.1810879,21.1,-3.92,-6.13,0.03,73,236,7.2883195877075195,7.288251876831055
59,-0.296917587518692,-2.122697591781616,-0.002077690325677395,36.7140862,3.180974,21.08,-3.38,-5.66,0.02,72,238,6.5994486808776855,6.5994181632995605
60,-0.25657907128334045,-2.1085240840911865,-0.0009573059505783021,36.714034,3.1808634,21.08,-3.28,-5.66,0.0,72,239,6.55084228515625,6.550834655761719
61,-0.19799578189849854,-2.1081671714782715,-0.009741230867803097,36.7139898,3.1807689,21.08,-3.1,-5.33,0.0,71,239,6.176902770996094,6.176902770996094
62,0.14914420247077942,-2.1096935272216797,0.010409512557089329,36.7139545,3.1806937,21.06,-1.89,-3.21,0.04,71,239,3.7305214405059814,3.730276107788086
63,0.09364476054906845,-2.1093215942382812,0.0220652986317873,36.7139397,3.1806618,21.06,-0.17,-0.33,-0.01,71,239,0.37374013662338257,0.3733065128326416
64,0.01815289445221424,-2.1085901260375977,0.018785640597343445,36.7139403,3.1806628,21.04,0.16,0.1,0.04,70,239,0.20084474980831146,0.19673947989940643
