timestamp,pitch,yaw,roll,lat,lon,alt,velocity_x,velocity_y,velocity_z,battery,heading,airspeed,groundspeed
0,0.02191689796745777,-0.01590893045067787,0.022649643942713737,36.7156066,3.1846299,18.51,-0.02,0.02,0.03,96,359,0.046276554465293884,0.03423520550131798
1,-0.07424677163362503,-0.02396906167268753,0.07174872606992722,36.7156075,3.1846318,18.52,0.26,0.47,-0.01,95,358,0.5420814156532288,0.5419546365737915
2,-0.21149331331253052,1.4847692251205444,-0.14122992753982544,36.7156212,3.1846584,18.48,1.61,2.48,-0.02,95,85,2.9647574424743652,2.9646661281585693
3,-0.15898630023002625,0.862300455570221,0.03470699489116669,36.7156488,3.1847103,18.52,2.29,3.51,-0.03,95,49,4.1949286460876465,4.194743633270264
4,-0.012325534597039223,0.9664247035980225,0.01821146160364151,36.7156854,3.1847786,18.55,2.05,3.07,-0.01,94,55,3.697915554046631,3.697862386703491
5,0.3919551372528076,1.0146461725234985,0.003292219014838338,36.7157008,3.1848064,18.55,-0.25,-0.36,0.01,94,58,0.4439879059791565,0.4437435567378998
6,-0.03889359161257744,2.585169553756714,0.22835232317447662,36.7156827,3.1847733,18.58,-2.09,-3.02,-0.03,93,148,3.6805002689361572,3.6803321838378906
7,-0.13515298068523407,-1.9905027151107788,-0.02308756671845913,36.7156476,3.1847092,18.58,-2.21,-3.27,0.0,93,245,3.958132266998291,3.958120346069336
8,0.024510076269507408,-1.7881962060928345,0.21311885118484497,36.7156266,3.1846551,18.56,-0.46,-2.98,0.0,93,257,3.0168404579162598,3.016829252243042
9,-0.4131534993648529,-0.6587126851081848,0.10704179108142853,36.7156533,3.1845988,18.56,3.89,-3.09,0.0,92,322,4.977551460266113,4.977550029754639
10,-0.47733455896377563,-0.6207758188247681,0.004781715571880341,36.7157256,3.1845347,18.56,6.6,-4.57,0.0,92,324,8.035762786865234,8.035758018493652
11,-0.5246245861053467,-0.6145142316818237,-0.028931861743330956,36.7158248,3.1844492,18.57,7.82,-5.42,0.0,91,324,9.52573299407959,9.52573299407959
12,-0.3759687542915344,-0.6185317039489746,0.018272608518600464,36.7159491,3.1843404,18.6,7.66,-5.4,-0.02,91,324,9.379050254821777,9.379015922546387
13,-0.12141114473342896,-0.6222200989723206,-0.026491031050682068,36.7160431,3.1842575,18.63,5.88,-4.19,0.03,91,324,7.224250316619873,7.224174499511719
14,0.07960902899503708,-1.0801857709884644,-0.26087501645088196,36.7161056,3.1841917,18.71,1.55,-2.87,-0.2,90,298,3.281278133392334,3.2746174335479736
15,-0.40348005294799805,-2.1228139400482178,-0.09317541867494583,36.7160981,3.1841367,19.5,-2.5,-4.12,-0.81,90,238,4.88932991027832,4.82008695602417
16,-0.4517115652561188,-2.161984443664551,-0.00839872658252716,36.7160369,3.1840283,21.56,-4.85,-6.96,-1.44,89,236,8.610576629638672,8.48840618133545
17,-0.4697582721710205,-2.162224054336548,-0.03818884864449501,36.715965,3.1838992,23.95,-5.5,-8.02,-1.61,89,236,9.862685203552246,9.730113983154297
18,-0.4822264015674591,-2.164611339569092,0.028876183554530144,36.7158897,3.1837616,26.42,-5.52,-8.17,-1.58,88,235,9.992300033569336,9.866434097290039
19,-0.43007659912109375,-2.164424419403076,-0.01786019280552864,36.7158018,3.183599,29.29,-5.53,-8.23,-1.58,88,235,10.047026634216309,9.920857429504395
20,-0.48902952671051025,-2.161668300628662,-0.018749384209513664,36.7157276,3.1834603,31.76,-5.51,-8.28,-1.59,88,236,10.07435417175293,9.946514129638672
21,-0.4312519133090973,-2.164856195449829,0.03022012487053871,36.71564,3.1832972,34.67,-5.55,-8.26,-1.61,87,235,10.088842391967773,9.959031105041504
22,-0.4388692080974579,-2.164689779281616,-0.025709373876452446,36.7155651,3.1831574,37.16,-5.5,-8.27,-1.61,87,235,10.067038536071777,9.936477661132812
23,-0.4913181960582733,-2.1634926795959473,-0.008779892697930336,36.7154906,3.1830179,39.65,-5.5,-8.29,-1.62,86,236,10.085116386413574,9.953754425048828
24,-0.42955800890922546,-2.1638145446777344,0.021602768450975418,36.7154035,3.182855,42.57,-5.51,-8.28,-1.63,86,236,10.091795921325684,9.95843505859375
25,-0.4497739374637604,-2.166181802749634,-0.024991944432258606,36.7153287,3.1827151,45.07,-5.54,-8.29,-1.63,85,235,10.10997200012207,9.977667808532715
26,-0.4821182191371918,-2.165834665298462,0.04003069922327995,36.7152414,3.182552,47.99,-5.51,-8.3,-1.63,85,235,10.097644805908203,9.964200973510742
27,-0.42173463106155396,-2.1629326343536377,0.0038618971593677998,36.7151668,3.182412,50.49,-5.5,-8.3,-1.64,84,236,10.100752830505371,9.965505599975586
28,-0.45807117223739624,-2.16536808013916,-0.025570472702383995,36.7150919,3.1822723,53.0,-5.52,-8.28,-1.63,84,235,10.097599029541016,9.964344024658203
29,-0.26762670278549194,-2.1676509380340576,0.03309369087219238,36.7150077,3.1821157,55.83,-4.88,-7.27,-1.45,83,235,8.878349304199219,8.758094787597656
30,-0.04915151745080948,-2.1647963523864746,-0.008124276995658875,36.7149523,3.1820123,57.64,-3.25,-4.89,-0.82,83,235,5.933398723602295,5.875767230987549
31,-0.12438561022281647,-2.121013641357422,0.037305865436792374,36.7149114,3.181932,58.47,-2.21,-3.69,-0.18,83,238,4.312662601470947,4.308846950531006
32,-0.1616162657737732,-2.102240800857544,-0.019808216020464897,36.7148829,3.1818706,58.55,-2.06,-3.67,0.0,82,239,4.218216896057129,4.2182135581970215
33,0.011729951947927475,-2.10305118560791,-0.0024540249723941088,36.7148513,3.1818016,58.53,-1.77,-3.12,0.02,82,239,3.5932114124298096,3.593109607696533
34,-0.0017335572047159076,-2.2752411365509033,-0.057662565261125565,36.7148314,3.1817626,57.88,-1.23,-1.53,0.99,82,229,2.211101770401001,1.9747424125671387
35,-0.0031009044032543898,-2.4859020709991455,0.009750526398420334,36.714816,3.1817447,55.74,-1.03,-0.79,1.47,81,217,1.9676361083984375,1.3044629096984863
36,-0.05387226864695549,-2.47198224067688,0.028919972479343414,36.7147998,3.1817295,53.12,-1.03,-0.82,1.42,81,218,1.9433374404907227,1.3193378448486328
37,-0.017924675717949867,-2.470344305038452,-0.01829778403043747,36.7147855,3.1817155,50.88,-1.06,-0.88,1.44,81,218,1.999351143836975,1.3851042985916138
38,-0.017541395500302315,-2.4695839881896973,0.023523926734924316,36.7147686,3.1816984,48.25,-1.07,-0.88,1.44,80,218,2.002934217453003,1.3881703615188599
39,-0.04051057621836662,-2.4691779613494873,-0.02271883375942707,36.7147541,3.1816838,46.02,-1.07,-0.88,1.45,80,218,2.016388177871704,1.3989509344100952
40,-0.026336461305618286,-2.4692914485931396,0.026738325133919716,36.7147395,3.1816692,43.78,-1.06,-0.88,1.46,79,218,2.014822483062744,1.3858736753463745
41,-0.05838540196418762,-2.469409942626953,0.0014839404029771686,36.7147224,3.181652,41.15,-1.06,-0.88,1.46,79,218,2.0189080238342285,1.389056921005249
42,-0.01252089161425829,-2.4700002670288086,0.004168691113591194,36.7147079,3.1816374,38.91,-1.07,-0.87,1.47,79,218,2.0196573734283447,1.3839699029922485
43,-0.04011896252632141,-2.4696099758148193,0.024031514301896095,36.7146909,3.1816202,36.29,-1.06,-0.88,1.47,78,218,2.023184299468994,1.3841196298599243
44,-0.02372598834335804,-2.4695916175842285,-0.02401062846183777,36.7146763,3.1816054,34.04,-1.07,-0.88,1.47,78,218,2.0258846282958984,1.3908337354660034
45,-0.01234394684433937,-2.4691460132598877,0.017418235540390015,36.7146592,3.1815882,31.41,-1.06,-0.88,1.46,78,218,2.019810914993286,1.3859058618545532
46,-0.055776435881853104,-2.4695615768432617,-0.017529061064124107,36.7146447,3.1815736,29.17,-1.07,-0.88,1.47,77,218,2.0288872718811035,1.3896877765655518
47,-0.02199559099972248,-2.4691214561462402,0.02797013893723488,36.7146301,3.1815589,26.92,-1.06,-0.88,1.47,77,218,2.0232675075531006,1.3854365348815918
48,-0.05696464702486992,-2.4693892002105713,0.006319194566458464,36.714613,3.1815416,24.29,-1.06,-0.88,1.47,76,218,2.020019292831421,1.3826273679733276
49,-0.008951593190431595,-2.469693660736084,-0.004764596465975046,36.7145985,3.181527,22.04,-1.07,-0.87,1.47,76,218,2.025224447250366,1.387627124786377
50,-0.11271630972623825,-2.9817636013031006,-0.07670231908559799,36.7145787,3.1815121,19.49,-1.71,-0.34,1.24,76,189,2.1485114097595215,1.7530665397644043
51,-0.23672336339950562,2.668241024017334,-0.056900184601545334,36.7145453,3.181522,18.55,-3.27,1.54,0.02,75,152,3.616492509841919,3.616396188735962
52,-0.1803859919309616,2.672849655151367,0.01892639882862568,36.7144944,3.1815533,18.65,-4.01,2.03,-0.02,75,153,4.501148700714111,4.5010600090026855
53,-0.05503864958882332,2.9028401374816895,0.14574883878231049,36.7144322,3.181588,18.61,-3.64,0.86,0.05,75,166,3.7485849857330322,3.7481377124786377
54,-0.32574817538261414,-2.28810715675354,0.17711062729358673,36.7143886,3.1815741,18.58,-2.93,-2.89,0.02,74,228,4.124016284942627,4.123944282531738
55,-0.5182919502258301,-2.146247148513794,0.006018952000886202,36.7143349,3.1814787,18.58,-4.13,-6.52,0.01,74,237,7.719338893890381,7.719324588775635
56,-0.45719850063323975,-2.151115894317627,0.02048717997968197,36.7142726,3.181357,18.59,-4.92,-7.64,0.0,73,236,9.090779304504395,9.090777397155762
57,-0.3554167151451111,-2.156424045562744,-0.026794463396072388,36.714205,3.1812274,18.6,-4.87,-7.45,0.0,73,236,8.907261848449707,8.907256126403809
58,-0.22354237735271454,-2.150766372680664,0.043044328689575195,36.714135,3.1810935,18.61,-3.89,-6.07,0.03,73,236,7.2129435539245605,7.212876796722412
59,-0.26496657729148865,-2.1220178604125977,-0.007494104094803333,36.7140866,3.1809964,18.59,-3.4,-5.68,0.02,72,238,6.624171257019043,6.62413215637207
60,-0.2661287188529968,-2.100529193878174,0.03163310885429382,36.7140347,3.1808851,18.59,-3.2,-5.66,0.0,72,239,6.510468482971191,6.510461330413818
61,-0.19285999238491058,-2.100292205810547,-0.02658979967236519,36.7139912,3.18079,18.59,-3.12,-5.46,0.0,71,239,6.296153545379639,6.2961530685424805
62,0.15315721929073334,-2.100748062133789,0.010805457830429077,36.7139503,3.180701,18.57,-1.79,-3.12,0.04,71,239,3.6043059825897217,3.6040735244750977
63,0.10316644608974457,-2.099975347518921,-0.015386311337351799,36.7139369,3.1806718,18.57,-0.3,-0.54,-0.02,71,239,0.6217464208602905,0.6213855743408203
64,0.024449612945318222,-2.1001861095428467,0.03566715493798256,36.7139368,3.1806713,18.56,0.11,0.14,0.03,70,239,0.19002319872379303,0.18731345236301422
