timestamp,pitch,yaw,roll,lat,lon,alt,velocity_x,velocity_y,velocity_z,battery,heading,airspeed,groundspeed
0,-0.00487595284357667,0.041220780462026596,-0.022794585675001144,36.7156067,3.1846299,18.69,-0.03,0.02,0.04,96,2,0.061038121581077576,0.04109842702746391
1,-0.05773944780230522,0.040794629603624344,0.13553538918495178,36.7156076,3.1846321,18.68,0.3,0.54,-0.01,95,2,0.6228641271591187,0.6227763295173645
2,-0.2122679203748703,1.4761301279067993,-0.07327396422624588,36.7156234,3.1846637,18.64,1.75,2.8,-0.03,95,84,3.3120758533477783,3.3118882179260254
3,-0.16930356621742249,0.9592610597610474,-0.025575069710612297,36.7156516,3.1847195,18.69,2.25,3.58,-0.03,95,54,4.237736701965332,4.237548351287842
4,0.1457006335258484,1.0019770860671997,0.004520320799201727,36.7156858,3.1847858,18.72,1.65,2.58,-0.01,94,57,3.0714492797851562,3.071420192718506
5,0.2935851514339447,1.3579158782958984,0.1375715732574463,36.7156926,3.1847991,18.72,-0.96,-1.35,0.0,94,77,1.665083408355713,1.6650782823562622
6,-0.0988260954618454,-3.0018131732940674,0.08781872689723969,36.7156638,3.1847473,18.76,-2.29,-3.26,0.0,93,188,3.9924240112304688,3.9924156665802
7,-0.07000080496072769,-1.964123010635376,0.07516197860240936,36.7156338,3.184691,18.74,-2.02,-3.21,0.0,93,247,3.7991018295288086,3.7991015911102295
8,-0.1073058694601059,-1.421558141708374,0.23010572791099548,36.7156201,3.1846388,18.73,0.41,-2.83,0.0,93,278,2.8687689304351807,2.8687663078308105
9,-0.41129109263420105,-0.6436083316802979,0.04607776179909706,36.7156614,3.1845808,18.73,4.71,-3.42,0.0,92,323,5.826883316040039,5.826882362365723
10,-0.5419140458106995,-0.626707911491394,-0.0006410811911337078,36.7157427,3.1845099,18.73,7.06,-4.89,-0.01,92,324,8.594751358032227,8.594744682312012
11,-0.45527371764183044,-0.6192970275878906,0.0076421769335865974,36.7158633,3.1844048,18.75,7.85,-5.56,0.0,91,324,9.624008178710938,9.624004364013672
12,-0.35969018936157227,-0.6221134066581726,-0.02747839130461216,36.7159678,3.1843123,18.79,7.33,-5.23,-0.01,91,324,9.009828567504883,9.00981616973877
13,-0.03278854489326477,-0.6314281225204468,-0.01526632159948349,36.7160546,3.1842352,18.8,5.06,-3.7,0.04,91,323,6.276369094848633,6.276186943054199
14,-0.13482977449893951,-1.456135869026184,-0.2949129641056061,36.7160999,3.1841739,19.02,0.26,-2.97,-0.35,90,276,3.0073273181915283,2.9858360290527344
15,-0.39003127813339233,-2.1404428482055664,-0.02973182313144207,36.7160774,3.184112,20.06,-3.3,-4.74,-0.99,90,237,5.874348163604736,5.788696765899658
16,-0.5150697231292725,-2.162958860397339,0.001995595172047615,36.7160078,3.1839899,22.37,-5.12,-7.43,-1.52,89,236,9.15410041809082,9.025747299194336
17,-0.46538421511650085,-2.163662910461426,0.0366988331079483,36.7159341,3.1838565,24.82,-5.53,-8.03,-1.6,89,236,9.893314361572266,9.762208938598633
18,-0.4272414445877075,-2.165898084640503,-0.0006810060003772378,36.7158587,3.1837184,27.29,-5.53,-8.19,-1.57,88,235,10.017813682556152,9.893171310424805
19,-0.49577316641807556,-2.16396164894104,0.013997904025018215,36.7157715,3.1835557,30.17,-5.53,-8.27,-1.58,88,236,10.078795433044434,9.953892707824707
20,-0.4375646114349365,-2.1662750244140625,0.035148609429597855,36.7156962,3.183416,32.64,-5.55,-8.26,-1.6,88,235,10.088813781738281,9.959539413452148
21,-0.4794297516345978,-2.162177801132202,-0.02698042429983616,36.7156092,3.1832537,35.55,-5.48,-8.26,-1.6,87,236,10.048870086669922,9.919849395751953
22,-0.4830896854400635,-2.162437677383423,0.01736867055296898,36.7155346,3.1831139,38.04,-5.52,-8.29,-1.61,87,236,10.100255966186523,9.970136642456055
23,-0.42670148611068726,-2.1638400554656982,0.028600890189409256,36.7154594,3.1829739,40.54,-5.52,-8.27,-1.62,86,236,10.079615592956543,9.947379112243652
24,-0.48393601179122925,-2.163006067276001,-0.016962744295597076,36.7153725,3.1828109,43.45,-5.49,-8.28,-1.62,86,236,10.069916725158691,9.937119483947754
25,-0.47792118787765503,-2.1671791076660156,0.03896070271730423,36.7152979,3.1826716,45.96,-5.54,-8.3,-1.63,85,235,10.120438575744629,9.987751960754395
26,-0.4281073212623596,-2.163327693939209,-0.01772741973400116,36.7152105,3.182508,48.88,-5.5,-8.31,-1.63,85,236,10.102560997009277,9.9691801071167
27,-0.4912392199039459,-2.163705825805664,-0.006637953221797943,36.7151358,3.182368,51.38,-5.51,-8.28,-1.63,84,236,10.089591979980469,9.956192016601562
28,-0.38783079385757446,-2.163911819458008,0.00977146066725254,36.7150486,3.1822054,54.31,-5.46,-8.16,-1.62,84,236,9.959317207336426,9.826202392578125
29,-0.2009771168231964,-2.1681060791015625,-0.022351544350385666,36.71498,3.182078,56.61,-4.47,-6.66,-1.32,83,235,8.137039184570312,8.027779579162598
30,-0.07262655347585678,-2.157332420349121,0.03934016078710556,36.714931,3.181986,58.13,-2.82,-4.35,-0.63,83,236,5.2264227867126465,5.188194274902344
31,-0.16577497124671936,-2.099013566970825,0.0003616884059738368,36.7148943,3.1819108,58.7,-2.07,-3.68,-0.09,83,239,4.231466293334961,4.2303972244262695
32,-0.13821862637996674,-2.0862467288970947,0.02697279490530491,36.7148672,3.1818494,58.71,-2.01,-3.71,-0.01,82,240,4.222338676452637,4.222313404083252
33,0.0037439658772200346,-2.0983006954193115,-0.0061589740216732025,36.7148379,3.1817833,58.65,-1.52,-2.69,0.18,82,239,3.101331949234009,3.095709800720215
34,0.03940296545624733,-2.3776187896728516,-0.050200238823890686,36.7148202,3.1817518,57.52,-1.17,-1.2,1.31,82,223,2.141671895980835,1.686836838722229
35,-0.03767648711800575,-2.462867259979248,0.02984010986983776,36.7148033,3.1817348,54.86,-1.03,-0.79,1.42,81,218,1.9300634860992432,1.3054327964782715
36,-0.0424748919904232,-2.4688024520874023,-0.022069687023758888,36.7147892,3.1817216,52.63,-1.04,-0.85,1.42,81,218,1.965779185295105,1.3513771295547485
37,-0.039019856601953506,-2.4698874950408936,0.027900952845811844,36.7147749,3.1817072,50.39,-1.06,-0.87,1.43,81,218,1.99343740940094,1.3791943788528442
38,-0.06221449747681618,-2.46975040435791,-0.003688912373036146,36.714758,3.1816901,47.76,-1.08,-0.87,1.44,80,218,2.0071568489074707,1.3962980508804321
39,-0.01121453009545803,-2.468979597091675,0.019617384299635887,36.7147433,3.1816755,45.53,-1.07,-0.87,1.45,80,218,2.005890130996704,1.384592890739441
40,-0.04811370000243187,-2.4697823524475098,0.027113525196909904,36.7147263,3.1816585,42.91,-1.05,-0.87,1.46,79,218,2.0074875354766846,1.375821590423584
41,-0.011468112468719482,-2.469609260559082,-0.016773412004113197,36.7147118,3.1816438,40.66,-1.06,-0.88,1.46,79,218,2.0159566402435303,1.3864562511444092
42,-0.0160992294549942,-2.469543218612671,0.022996805608272552,36.7146948,3.1816266,38.05,-1.07,-0.88,1.47,79,218,2.023388147354126,1.3898555040359497
43,-0.0495043620467186,-2.46915340423584,-0.024305367842316628,36.7146802,3.1816118,35.8,-1.07,-0.88,1.47,78,218,2.027545213699341,1.3927175998687744
44,-0.01978585310280323,-2.4692599773406982,0.02610168606042862,36.7146656,3.1815971,33.54,-1.06,-0.88,1.47,78,218,2.017514705657959,1.3806277513504028
45,-0.059416264295578,-2.469670534133911,0.015299472957849503,36.7146486,3.18158,30.92,-1.05,-0.88,1.46,78,218,2.015146017074585,1.379165768623352
46,-0.007654036395251751,-2.4696600437164307,-0.0035700718872249126,36.714634,3.1815653,28.68,-1.06,-0.88,1.47,77,218,2.02593994140625,1.3842127323150635
47,-0.030223779380321503,-2.470048189163208,0.029686490073800087,36.714617,3.1815481,26.05,-1.06,-0.88,1.47,77,218,2.0261433124542236,1.3901969194412231
48,-0.02652066759765148,-2.4694762229919434,-0.021780341863632202,36.7146024,3.1815333,23.8,-1.06,-0.88,1.47,76,218,2.0229456424713135,1.3876490592956543
49,-0.041476454585790634,-2.47035551071167,0.02632051520049572,36.7145878,3.1815186,21.55,-1.06,-0.87,1.47,76,218,2.017971992492676,1.37659752368927
50,-0.1937645971775055,3.020587682723999,-0.12795346975326538,36.7145646,3.1815076,19.17,-2.11,0.16,0.89,76,173,2.303469657897949,2.1224958896636963
51,-0.2006748914718628,2.6770107746124268,0.001037084381096065,36.7145252,3.1815257,18.73,-3.64,1.78,-0.06,75,153,4.058291435241699,4.05772066116333
52,-0.15983900427818298,2.680418014526367,0.041171662509441376,36.7144619,3.1815647,18.82,-4.03,2.0,0.05,75,153,4.510056495666504,4.509761810302734
53,-0.010364322923123837,3.129939079284668,0.20618759095668793,36.7144101,3.1815865,18.76,-3.39,0.05,0.04,75,179,3.3997366428375244,3.3994455337524414
54,-0.4243505001068115,-2.198775291442871,0.11894895136356354,36.7143687,3.1815554,18.75,-3.0,-3.9,0.01,74,234,4.92713737487793,4.927098751068115
55,-0.4750978350639343,-2.1553337574005127,-0.022301696240901947,36.7143109,3.1814447,18.75,-4.39,-6.98,0.0,74,236,8.25650691986084,8.256505012512207
56,-0.4794493317604065,-2.149190664291382,-0.004958343226462603,36.7142468,3.1813187,18.76,-4.91,-7.7,0.0,73,236,9.134764671325684,9.134763717651367
57,-0.2910705506801605,-2.152613639831543,-0.011876848526299,36.7141703,3.1811709,18.79,-4.52,-6.97,0.0,73,236,8.314956665039062,8.314955711364746
58,-0.2737882137298584,-2.1416585445404053,0.018366647884249687,36.7141147,3.1810627,18.77,-3.67,-5.85,0.03,73,237,6.911777496337891,6.911684513092041
59,-0.2528737485408783,-2.109128475189209,-0.009923834353685379,36.7140605,3.1809504,18.76,-3.29,-5.65,0.01,72,239,6.5407023429870605,6.5406904220581055
60,-0.31427037715911865,-2.0999860763549805,0.014551062136888504,36.7140167,3.1808556,18.76,-3.23,-5.67,0.01,72,239,6.530895233154297,6.530877590179443
61,-0.11595241725444794,-2.1002938747406006,0.013218507170677185,36.7139737,3.180762,18.76,-2.95,-5.17,0.0,71,239,5.958707332611084,5.958707332611084
62,0.15366578102111816,-2.1014370918273926,0.025923140347003937,36.7139381,3.1806843,18.73,-1.28,-2.26,0.02,71,239,2.603708267211914,2.6036133766174316
63,0.10547199845314026,-2.1009442806243896,-0.02305625006556511,36.71393,3.1806662,18.74,-0.07,-0.13,-0.01,71,239,0.1556999236345291,0.15505696833133698
64,0.011573828756809235,-2.0996274948120117,0.10704103857278824,36.7139316,3.1806681,18.7,0.33,-0.05,0.02,70,239,0.3443094491958618,0.34348931908607483
