timestamp,pitch,yaw,roll,lat,lon,alt,velocity_x,velocity_y,velocity_z,battery,heading,airspeed,groundspeed
0,-0.02613384835422039,0.037466976791620255,0.0013758662389591336,36.7156066,3.1846299,22.96,-0.01,0.02,-0.13,96,2,0.1420309990644455,0.03104572556912899
1,-0.03467820584774017,0.032620869576931,0.09527258574962616,36.7156078,3.184632,22.99,0.31,0.51,-0.04,95,1,0.6001806855201721,0.5986359715461731
2,-0.19471211731433868,1.4094878435134888,-0.06913120299577713,36.7156237,3.1846607,23.03,1.78,2.64,-0.03,95,80,3.1927647590637207,3.1925365924835205
3,-0.19742120802402496,0.9353578090667725,-0.010354237630963326,36.7156529,3.1847146,23.03,2.39,3.54,-0.01,95,53,4.276790618896484,4.276777267456055
4,0.07688549906015396,0.9613205790519714,-0.024332446977496147,36.7156904,3.1847819,23.0,2.01,2.87,0.0,94,55,3.5154950618743896,3.5154948234558105
5,0.3466004729270935,0.8729026913642883,-0.005399733781814575,36.7157038,3.1848042,23.02,-0.49,-0.77,-0.02,94,50,0.9237344264984131,0.9233465790748596
6,-0.08494643867015839,-1.009904384613037,-0.15025776624679565,36.7156785,3.1847576,22.99,-2.21,-3.22,0.03,93,313,3.8009414672851562,3.8005504608154297
7,-0.06304633617401123,-2.4163296222686768,0.06015019863843918,36.7156481,3.1847021,23.04,-2.17,-3.24,-0.01,93,221,3.9008584022521973,3.9008443355560303
8,-0.06375358998775482,-1.617454171180725,0.22065797448158264,36.7156298,3.1846487,23.0,-0.19,-2.91,0.02,93,267,2.9179887771606445,2.9178497791290283
9,-0.4131088852882385,-0.6558890342712402,0.04534028097987175,36.7156617,3.1845921,22.99,4.16,-3.19,0.0,92,322,5.251619815826416,5.2516188621521
10,-0.5314031839370728,-0.6244015693664551,0.03826729208230972,36.7157371,3.184526,22.99,6.78,-4.69,0.0,92,324,8.248802185058594,8.248798370361328
11,-0.46840640902519226,-0.6172562837600708,-0.024435436353087425,36.7158554,3.1844237,23.01,7.88,-5.53,0.0,91,324,9.632630348205566,9.63262939453125
12,-0.4142780601978302,-0.6214598417282104,0.004073953256011009,36.7159616,3.1843302,23.04,7.56,-5.37,-0.01,91,324,9.277368545532227,9.277353286743164
13,-0.06229180097579956,-0.6227557063102722,0.01547902263700962,36.7160535,3.1842491,23.07,5.62,-3.99,0.04,91,324,6.901915073394775,6.901768207550049
14,-0.013494583778083324,-1.1780385971069336,-0.2551576495170593,36.7161106,3.1841852,23.18,1.12,-2.87,-0.25,90,292,3.0980265140533447,3.0876927375793457
15,-0.35460367798805237,-2.129836082458496,-0.0928395614027977,36.716098,3.1841282,24.05,-2.78,-4.31,-0.88,90,237,5.20763635635376,5.132471561431885
16,-0.49823567271232605,-2.158931016921997,0.029476696625351906,36.7160338,3.184015,26.2,-4.93,-7.1,-1.47,89,236,8.776991844177246,8.652146339416504
17,-0.43069690465927124,-2.1635425090789795,0.02864869497716427,36.7159611,3.1838846,28.61,-5.54,-8.01,-1.61,89,236,9.876585006713867,9.744235038757324
18,-0.44806331396102905,-2.1646745204925537,-0.025940263643860817,36.715886,3.1837468,31.08,-5.53,-8.19,-1.57,88,235,10.008378982543945,9.884248733520508
19,-0.47380444407463074,-2.163978099822998,0.03333326056599617,36.7157987,3.1835845,33.96,-5.55,-8.24,-1.58,88,236,10.069059371948242,9.94382381439209
20,-0.42644554376602173,-2.1663858890533447,0.013795548118650913,36.7157236,3.1834451,36.43,-5.56,-8.27,-1.59,88,235,10.10374927520752,9.977045059204102
21,-0.4896697700023651,-2.1654624938964844,-0.0034970680717378855,36.715636,3.1832821,39.33,-5.51,-8.28,-1.6,87,235,10.084694862365723,9.95637035369873
22,-0.46496525406837463,-2.164921998977661,0.03765418753027916,36.7155613,3.1831423,41.82,-5.49,-8.26,-1.62,87,235,10.060373306274414,9.928667068481445
23,-0.44864946603775024,-2.1638412475585938,-0.03209903836250305,36.7154744,3.1829794,44.73,-5.51,-8.29,-1.62,86,236,10.089561462402344,9.95754623413086
24,-0.49127694964408875,-2.165940761566162,0.0068911234848201275,36.7153996,3.18284,47.24,-5.52,-8.3,-1.62,86,235,10.10244369506836,9.970502853393555
25,-0.45396730303764343,-2.16605281829834,0.04229142516851425,36.7153247,3.1827,49.74,-5.51,-8.32,-1.63,85,235,10.116352081298828,9.983287811279297
26,-0.441930890083313,-2.163219928741455,-0.024251427501440048,36.7152375,3.1825365,52.66,-5.49,-8.28,-1.62,85,236,10.076268196105957,9.943720817565918
27,-0.495419442653656,-2.164414167404175,0.01157764345407486,36.7151632,3.1823973,55.17,-5.52,-8.28,-1.62,84,235,10.085271835327148,9.953593254089355
28,-0.4114275574684143,-2.164597511291504,0.0019174660556018353,36.7150756,3.1822341,58.09,-5.53,-8.3,-1.63,84,235,10.115981101989746,9.983529090881348
29,-0.2593844532966614,-2.1673736572265625,-0.024304663762450218,36.7150046,3.1821019,60.47,-4.73,-7.07,-1.41,83,235,8.631681442260742,8.515206336975098
30,-0.0343640111386776,-2.1592769622802734,0.019496899098157883,36.7149446,3.1819896,62.36,-2.88,-4.38,-0.64,83,236,5.2827019691467285,5.243305206298828
31,-0.16436129808425903,-2.1177141666412354,0.0024649337865412235,36.7149119,3.1819242,62.92,-2.18,-3.69,-0.15,83,238,4.297983646392822,4.295175552368164
32,-0.13876421749591827,-2.10166072845459,0.026814917102456093,36.7148836,3.1818631,62.97,-2.07,-3.68,-0.01,82,239,4.2285661697387695,4.228545665740967
33,-0.026521004736423492,-2.104304790496826,0.004118434153497219,36.7148523,3.1817947,62.95,-1.7,-2.99,0.06,82,239,3.4443774223327637,3.443741798400879
34,0.046555984765291214,-2.312798261642456,-0.0484849251806736,36.7148331,3.1817583,62.16,-1.22,-1.42,1.11,82,227,2.183537244796753,1.8787425756454468
35,-0.039431605488061905,-2.471900463104248,0.025530939921736717,36.7148157,3.1817393,59.57,-1.02,-0.79,1.44,81,218,1.9393266439437866,1.2963361740112305
36,-0.03230510279536247,-2.47170090675354,-0.01996629312634468,36.7148016,3.1817262,57.33,-1.05,-0.83,1.42,81,218,1.9565203189849854,1.344155192375183
37,-0.046655505895614624,-2.4706015586853027,0.02913535013794899,36.7147874,3.1817121,55.09,-1.05,-0.86,1.43,81,218,1.9796890020370483,1.3685539960861206
38,-0.054556965827941895,-2.4702563285827637,-0.011251873336732388,36.7147704,3.1816951,52.47,-1.07,-0.89,1.44,80,218,2.0044422149658203,1.3927719593048096
39,-0.016699710860848427,-2.4694104194641113,0.023883378133177757,36.7147558,3.1816805,50.23,-1.06,-0.87,1.44,80,218,1.9981979131698608,1.3756128549575806
40,-0.05662069469690323,-2.4700350761413574,0.020718051120638847,36.7147389,3.1816635,47.62,-1.06,-0.88,1.46,79,218,2.0126497745513916,1.380849003791809
41,-0.00792782288044691,-2.4699831008911133,-0.00908597745001316,36.7147243,3.1816488,45.38,-1.07,-0.88,1.46,79,218,2.0212957859039307,1.387558102607727
42,-0.0617387630045414,-2.4706153869628906,0.010015444830060005,36.7147097,3.1816341,43.13,-1.06,-0.89,1.47,79,218,2.0249826908111572,1.3909357786178589
43,-0.038194019347429276,-2.4698736667633057,-0.02870088443160057,36.7146927,3.1816169,40.51,-1.07,-0.89,1.47,78,218,2.02945613861084,1.3967372179031372
44,-0.03797406703233719,-2.46991229057312,0.029802540317177773,36.7146781,3.1816022,38.26,-1.06,-0.88,1.47,78,218,2.0206239223480225,1.3822072744369507
45,-0.05931485444307327,-2.46970272064209,-0.0034392462112009525,36.7146611,3.1815851,35.63,-1.06,-0.89,1.47,78,218,2.027967929840088,1.3932304382324219
46,-0.011310149915516376,-2.4697885513305664,0.01608709618449211,36.7146465,3.1815704,33.38,-1.06,-0.88,1.47,77,218,2.0194926261901855,1.3823885917663574
47,-0.05151494964957237,-2.4697105884552,-0.012731696479022503,36.7146319,3.1815556,31.14,-1.06,-0.88,1.47,77,218,2.0232150554656982,1.3874363899230957
48,-0.008421925827860832,-2.4697329998016357,-0.012344904243946075,36.7146149,3.1815384,28.52,-1.06,-0.87,1.47,76,218,2.0198378562927246,1.3748610019683838
49,-0.05796442925930023,-2.469856023788452,0.01525066141039133,36.7146003,3.1815238,26.26,-1.06,-0.88,1.47,76,218,2.0261149406433105,1.3844908475875854
50,-0.13565753400325775,-3.0770797729492188,-0.13317257165908813,36.7145796,3.18151,23.74,-1.84,-0.19,1.14,76,183,2.1771535873413086,1.8522030115127563
51,-0.2174561768770218,2.6678197383880615,0.004434286616742611,36.7145442,3.1815226,22.97,-3.38,1.63,-0.02,75,152,3.7559728622436523,3.7558796405792236
52,-0.1948588639497757,2.672877311706543,-0.006920456420630217,36.7144832,3.1815605,23.08,-3.99,2.04,0.02,75,153,4.4942708015441895,4.494225978851318
53,-0.001426418893970549,2.9786112308502197,0.1952623724937439,36.7144309,3.1815873,23.03,-3.53,0.6,0.05,75,170,3.586940288543701,3.586575508117676
54,-0.3928658664226532,-2.2381439208984375,0.12486909329891205,36.7143883,3.1815674,23.01,-2.95,-3.28,0.01,74,231,4.4160661697387695,4.416024208068848
55,-0.45567968487739563,-2.146357774734497,-0.0043127695098519325,36.7143335,3.1814658,23.01,-4.22,-6.7,0.0,74,237,7.920387268066406,7.920384407043457
56,-0.4758123755455017,-2.1477653980255127,-0.03224535286426544,36.7142708,3.1813422,23.02,-4.91,-7.68,0.0,73,236,9.117512702941895,9.117511749267578
57,-0.2996155321598053,-2.152235746383667,0.016904819756746292,36.7141933,3.1811926,23.05,-4.65,-7.16,0.0,73,236,8.538623809814453,8.53862190246582
58,-0.2483421117067337,-2.1463842391967773,-0.012435581535100937,36.7141357,3.1810812,23.04,-3.81,-6.0,0.03,73,237,7.11524772644043,7.115145206451416
59,-0.2797810733318329,-2.1227569580078125,0.0435464009642601,36.7140876,3.180984,23.02,-3.39,-5.67,0.02,72,238,6.614797592163086,6.614762783050537
60,-0.2998283803462982,-2.1090381145477295,-0.01677207462489605,36.7140353,3.1808733,23.02,-3.29,-5.67,0.01,72,239,6.559122085571289,6.559109210968018
61,-0.1804036796092987,-2.1083388328552246,0.03203882649540901,36.713991,3.1807786,23.02,-3.11,-5.36,0.0,71,239,6.20522928237915,6.205228805541992
62,0.12018099427223206,-2.1087729930877686,-0.005965957418084145,36.7139512,3.1806938,22.99,-1.63,-2.8,0.03,71,239,3.2453267574310303,3.2451250553131104
63,0.1396006941795349,-2.108304977416992,0.01543419435620308,36.7139397,3.180669,23.0,-0.2,-0.37,-0.01,71,239,0.4281933903694153,0.42778220772743225
64,-0.024046918377280235,-2.110947847366333,0.08818982541561127,36.7139407,3.1806701,22.97,0.22,0.04,0.03,70,239,0.2330363690853119,0.22995606064796448
