timestamp,pitch,yaw,roll,lat,lon,alt,velocity_x,velocity_y,velocity_z,battery,heading,airspeed,groundspeed
0,0.008651317097246647,0.03262905031442642,-0.0235324427485466,36.7156067,3.18463,19.75,-0.03,0.02,0.04,96,1,0.06455763429403305,0.04237408563494682
1,-0.06964579224586487,0.0279711801558733,0.1386532336473465,36.7156077,3.1846321,19.7,0.3,0.54,0.0,95,1,0.6246442198753357,0.624610424041748
2,-0.22247782349586487,1.4365160465240479,-0.06851811707019806,36.715624,3.1846628,19.67,1.77,2.75,-0.03,95,82,3.2791216373443604,3.27889347076416
3,-0.14930042624473572,0.9498872756958008,-0.028699850663542747,36.7156523,3.1847171,19.72,2.26,3.47,-0.04,95,54,4.150187969207764,4.149969100952148
4,0.1624055951833725,0.9814894199371338,0.018293926492333412,36.7156864,3.1847806,19.75,1.6,2.37,-0.01,94,56,2.8629300594329834,2.862891674041748
5,0.29858994483947754,1.194093942642212,0.07085753232240677,36.7156918,3.1847899,19.74,-1.07,-1.57,-0.01,94,68,1.9076021909713745,1.9075751304626465
6,-0.03154001012444496,2.9937705993652344,0.15116572380065918,36.7156672,3.1847452,19.79,-2.25,-3.2,-0.02,93,171,3.922778606414795,3.922722339630127
7,-0.08049164712429047,-1.9223966598510742,0.08109910786151886,36.7156323,3.1846796,19.77,-1.94,-3.2,0.0,93,249,3.7487645149230957,3.7487642765045166
8,-0.12852194905281067,-1.3402717113494873,0.22173741459846497,36.7156205,3.1846278,19.76,0.62,-2.8,0.0,93,283,2.8706178665161133,2.8706154823303223
9,-0.4196723699569702,-0.6359719634056091,0.03655595704913139,36.7156654,3.1845694,19.75,4.89,-3.51,0.0,92,323,6.028217315673828,6.028214931488037
10,-0.5388960838317871,-0.6257282495498657,-0.010685175657272339,36.7157486,3.1844969,19.76,7.14,-4.98,-0.01,92,324,8.707467079162598,8.707459449768066
11,-0.4693185091018677,-0.6210078597068787,0.020577000454068184,36.7158695,3.1843913,19.78,7.87,-5.58,0.0,91,324,9.655496597290039,9.655495643615723
12,-0.33088746666908264,-0.6237466335296631,-0.025079146027565002,36.715974,3.1842988,19.82,7.25,-5.18,-0.01,91,324,8.92007827758789,8.920065879821777
13,-0.030096642673015594,-0.6359908580780029,-0.031167499721050262,36.7160589,3.1842235,19.83,4.85,-3.6,0.04,91,323,6.044772148132324,6.044567584991455
14,-0.1766953319311142,-1.5521719455718994,-0.2943325936794281,36.7161001,3.1841632,20.09,0.0,-3.02,-0.39,90,271,3.0521013736724854,3.0269720554351807
15,-0.40209484100341797,-2.1460442543029785,-0.009782593697309494,36.7160746,3.1840993,21.18,-3.45,-4.92,-1.03,90,237,6.103179931640625,6.015115737915039
16,-0.5121256113052368,-2.1623964309692383,-0.0150574566796422,36.7160036,3.1839744,23.54,-5.15,-7.51,-1.54,89,236,9.238978385925293,9.109567642211914
17,-0.4796614944934845,-2.1657865047454834,0.03965381160378456,36.7159296,3.1838404,26.01,-5.53,-8.06,-1.59,89,235,9.909652709960938,9.780545234680176
18,-0.42293351888656616,-2.1644513607025146,0.007221763487905264,36.7158544,3.183702,28.47,-5.54,-8.21,-1.57,88,235,10.032308578491211,9.908312797546387
19,-0.49410808086395264,-2.1635477542877197,-0.00412130169570446,36.7157668,3.1835392,31.34,-5.53,-8.26,-1.58,88,236,10.072745323181152,9.94703197479248
20,-0.45175743103027344,-2.16660737991333,0.03994957357645035,36.7156917,3.1833997,33.82,-5.53,-8.25,-1.6,88,235,10.064005851745605,9.934544563293457
21,-0.4640369117259979,-2.162292957305908,-0.03257357329130173,36.715605,3.1832375,36.73,-5.5,-8.29,-1.6,87,236,10.082900047302246,9.954318046569824
22,-0.48626381158828735,-2.1635148525238037,0.004396392032504082,36.71553,3.1830974,39.22,-5.53,-8.29,-1.61,87,236,10.096288681030273,9.96603775024414
23,-0.4388285279273987,-2.164557933807373,0.040315184742212296,36.7154549,3.1829576,41.72,-5.5,-8.27,-1.62,86,235,10.067378044128418,9.934589385986328
24,-0.475200891494751,-2.162508249282837,-0.027859138324856758,36.7153682,3.1827948,44.64,-5.5,-8.29,-1.62,86,236,10.081476211547852,9.949936866760254
25,-0.4867918789386749,-2.166138172149658,0.027516556903719902,36.7152934,3.1826552,47.14,-5.55,-8.31,-1.63,85,235,10.131301879882812,9.999027252197266
26,-0.4201294481754303,-2.163029432296753,-0.005886620841920376,36.7152059,3.1824916,50.06,-5.49,-8.29,-1.63,85,236,10.081172943115234,9.947686195373535
27,-0.48676902055740356,-2.164229393005371,-0.020367395132780075,36.7151314,3.1823518,52.57,-5.51,-8.27,-1.62,84,236,10.0824556350708,9.9501953125
28,-0.4479823112487793,-2.1646909713745117,0.026219584047794342,36.7150566,3.1822123,55.07,-5.49,-8.24,-1.62,84,235,10.045002937316895,9.912508964538574
29,-0.16724255681037903,-2.168217658996582,-0.023555006831884384,36.7149763,3.1820632,57.76,-4.37,-6.5,-1.29,83,235,7.948488712310791,7.8424272537231445
30,-0.08006720244884491,-2.1551430225372314,0.033987898379564285,36.7149286,3.1819737,59.22,-2.73,-4.25,-0.59,83,236,5.096848487854004,5.062546730041504
31,-0.15853717923164368,-2.097219467163086,-0.007752828299999237,36.7148927,3.1818992,59.73,-2.06,-3.7,-0.08,83,239,4.239451885223389,4.2386603355407715
32,-0.14764513075351715,-2.0863749980926514,0.0286282766610384,36.7148656,3.1818376,59.74,-2.01,-3.71,-0.02,82,240,4.228518009185791,4.2284698486328125
33,0.010142006911337376,-2.103681802749634,-0.019830141216516495,36.7148366,3.1817726,59.65,-1.48,-2.58,0.22,82,239,2.992971181869507,2.984445333480835
34,0.03657703846693039,-2.3958752155303955,-0.03656240180134773,36.7148193,3.1817426,58.42,-1.16,-1.15,1.36,82,222,2.137037754058838,1.6431043148040771
35,-0.0575726144015789,-2.466428756713867,-0.003885888960212469,36.7148048,3.1817282,56.13,-1.03,-0.79,1.42,81,218,1.9353021383285522,1.3065530061721802
36,-0.029984716325998306,-2.4689674377441406,-0.02112315408885479,36.7147884,3.1817127,53.52,-1.05,-0.85,1.42,81,218,1.9674046039581299,1.35433828830719
37,-0.05146288499236107,-2.4698879718780518,0.02441026270389557,36.7147741,3.1816983,51.27,-1.07,-0.88,1.43,81,218,1.9947983026504517,1.3866928815841675
38,-0.054856181144714355,-2.4695913791656494,-0.01429880503565073,36.7147571,3.1816812,48.66,-1.08,-0.87,1.44,80,218,2.0068917274475098,1.3941477537155151
39,-0.02037527598440647,-2.468972682952881,0.027252942323684692,36.7147425,3.1816666,46.42,-1.06,-0.87,1.45,80,218,2.001345634460449,1.3778045177459717
40,-0.05340488255023956,-2.469252109527588,-0.02068985626101494,36.7147279,3.181652,44.17,-1.06,-0.87,1.45,79,218,2.005840539932251,1.379214882850647
41,-0.004894034471362829,-2.469444513320923,0.000282332650385797,36.714711,3.1816349,41.56,-1.06,-0.88,1.46,79,218,2.0159859657287598,1.3900277614593506
42,-0.061825431883335114,-2.4700944423675537,0.008340816013514996,36.7146964,3.1816201,39.32,-1.07,-0.88,1.47,79,218,2.0263314247131348,1.3920066356658936
43,-0.03662634268403053,-2.469346761703491,-0.029842114076018333,36.7146793,3.181603,36.69,-1.07,-0.88,1.46,78,218,2.0241355895996094,1.3920818567276
44,-0.034389760345220566,-2.469525098800659,0.029469549655914307,36.7146647,3.1815883,34.44,-1.05,-0.88,1.46,78,218,2.0123157501220703,1.3754944801330566
45,-0.06261387467384338,-2.4692611694335938,-0.003370481077581644,36.7146477,3.1815711,31.82,-1.05,-0.88,1.47,78,218,2.0188562870025635,1.3777141571044922
46,-0.009741152636706829,-2.469580888748169,0.0131700923666358,36.7146332,3.1815564,29.57,-1.06,-0.87,1.48,77,218,2.024667263031006,1.3816068172454834
47,-0.056457776576280594,-2.4691109657287598,-0.017117179930210114,36.7146186,3.1815416,27.32,-1.06,-0.88,1.47,77,218,2.0249152183532715,1.3903194665908813
48,-0.014907904900610447,-2.4693732261657715,-0.015833675861358643,36.7146015,3.1815244,24.7,-1.06,-0.88,1.47,76,218,2.0229692459106445,1.3832309246063232
49,-0.05751245096325874,-2.4709532260894775,0.011453335173428059,36.7145869,3.1815097,22.45,-1.06,-0.87,1.47,76,218,2.0173964500427246,1.3743979930877686
50,-0.19244717061519623,2.9660348892211914,-0.14005142450332642,36.714563,3.1814998,20.11,-2.21,0.28,0.8,76,169,2.3683502674102783,2.228426933288574
51,-0.20704054832458496,2.678013563156128,0.01776166260242462,36.7145221,3.1815195,19.77,-3.71,1.82,-0.06,75,153,4.142833232879639,4.1422553062438965
52,-0.15273888409137726,2.683180570602417,0.029846951365470886,36.7144585,3.1815587,19.85,-4.01,1.97,0.05,75,153,4.477165222167969,4.4767842292785645
53,-0.014794840477406979,-3.0867397785186768,0.24042420089244843,36.7144073,3.1815786,19.79,-3.33,-0.16,0.04,75,183,3.337273359298706,3.3370001316070557
54,-0.43776047229766846,-2.195032835006714,0.08980074524879456,36.7143662,3.1815433,19.78,-3.06,-4.14,0.01,74,234,5.158176422119141,5.158141136169434
55,-0.46278131008148193,-2.156658411026001,-0.0058366102166473866,36.7143072,3.1814293,19.78,-4.45,-7.06,0.0,74,236,8.355409622192383,8.35540771484375
56,-0.48420315980911255,-2.1501734256744385,-0.021101264283061028,36.7142427,3.1813026,19.79,-4.95,-7.7,0.0,73,236,9.160774230957031,9.160774230957031
57,-0.27764299511909485,-2.1528894901275635,0.014351987279951572,36.7141663,3.1811554,19.82,-4.47,-6.89,0.0,73,236,8.217129707336426,8.217124938964844
58,-0.2125420719385147,-2.143641471862793,-0.0030188923701643944,36.7141197,3.181065,19.81,-3.74,-5.93,0.03,73,237,7.013590335845947,7.0134992599487305
59,-0.24580182135105133,-2.107405424118042,0.009928367100656033,36.7140576,3.1809364,19.79,-3.27,-5.64,0.01,72,239,6.5308003425598145,6.530784606933594
60,-0.31060951948165894,-2.0998058319091797,-0.008903454057872295,36.7140139,3.1808416,19.79,-3.23,-5.69,0.01,72,239,6.556056499481201,6.556042671203613
61,-0.10750987380743027,-2.099839687347412,0.02538483962416649,36.7139711,3.1807483,19.79,-2.89,-5.08,0.0,71,239,5.850721836090088,5.850720405578613
62,0.13779594004154205,-2.101142168045044,0.013222312554717064,36.713937,3.1806738,19.76,-1.17,-2.07,0.01,71,239,2.3840513229370117,2.3840012550354004
63,0.10944412648677826,-2.1004281044006348,-0.00716040376573801,36.7139299,3.1806581,19.78,-0.03,-0.06,0.0,71,239,0.0726851299405098,0.07211311906576157
64,-0.012022584676742554,-2.1019115447998047,0.12950727343559265,36.713932,3.1806603,19.73,0.4,-0.12,0.01,70,239,0.4273335337638855,0.4271034300327301
