timestamp,pitch,yaw,roll,lat,lon,alt,velocity_x,velocity_y,velocity_z,battery,heading,airspeed,groundspeed
0,-0.0017047029687091708,-0.023706018924713135,-0.021341728046536446,36.7156066,3.1846299,21.5,-0.02,0.02,-0.06,96,358,0.0707433894276619,0.0334426648914814
1,-0.038922570645809174,-0.018828032538294792,0.09891775995492935,36.715608,3.1846325,21.46,0.35,0.57,-0.03,95,358,0.6737859845161438,0.6727548837661743
2,-0.23085159063339233,1.4399384260177612,-0.08169350773096085,36.7156203,3.1846553,21.49,1.57,2.34,-0.04,95,82,2.8269240856170654,2.826526403427124
3,-0.18934614956378937,0.912997305393219,0.00030592517578043044,36.7156531,3.1847153,21.5,2.33,3.46,-0.02,95,52,4.176321983337402,4.1762518882751465
4,0.029811108484864235,0.946221113204956,0.02367549203336239,36.7156846,3.1847724,21.5,2.08,3.03,-0.01,94,54,3.6834583282470703,3.6834428310394287
5,0.3502058684825897,0.9170169830322266,-0.035682305693626404,36.7157009,3.1848006,21.52,-0.17,-0.31,-0.03,94,52,0.3608247637748718,0.3586985766887665
6,-0.034443628042936325,-0.873580813407898,-0.19924615323543549,36.7156784,3.1847589,21.5,-2.18,-3.17,0.04,93,309,3.853950023651123,3.853686809539795
7,-0.11485277861356735,-2.3472237586975098,0.07154860347509384,36.7156479,3.1847035,21.55,-2.24,-3.23,-0.02,93,225,3.938563346862793,3.9384572505950928
8,-0.0730416402220726,-1.563469409942627,0.23929424583911896,36.7156265,3.184641,21.51,0.02,-2.87,0.02,93,270,2.8798880577087402,2.8797731399536133
9,-0.3719182312488556,-0.6447620987892151,0.08672358095645905,36.7156527,3.1845932,21.49,3.83,-3.07,0.0,92,323,4.913430690765381,4.913426399230957
10,-0.5409472584724426,-0.6242935657501221,0.018136339262127876,36.7157398,3.1845166,21.5,6.87,-4.76,0.0,92,324,8.362601280212402,8.362595558166504
11,-0.47622090578079224,-0.6166623830795288,0.026434047147631645,36.7158411,3.1844288,21.52,7.85,-5.5,0.0,91,324,9.593008995056152,9.593006134033203
12,-0.3911389708518982,-0.62010657787323,-0.023474618792533875,36.7159476,3.1843354,21.54,7.65,-5.42,-0.01,91,324,9.381643295288086,9.381630897521973
13,-0.06642543524503708,-0.6234702467918396,0.014765474945306778,36.7160549,3.1842406,21.58,5.44,-3.88,0.04,91,324,6.694088459014893,6.693902015686035
14,0.06131841242313385,-1.0595777034759521,-0.28546974062919617,36.7161054,3.1841859,21.66,1.62,-2.87,-0.19,90,299,3.3102259635925293,3.304506301879883
15,-0.36418166756629944,-2.1321918964385986,-0.05410235747694969,36.7160923,3.1841195,22.65,-2.96,-4.45,-0.91,90,237,5.432378768920898,5.354063510894775
16,-0.47828298807144165,-2.159440517425537,-0.03373328223824501,36.7160375,3.184023,24.48,-4.79,-6.92,-1.43,89,236,8.547266960144043,8.425629615783691
17,-0.5068932771682739,-2.1633265018463135,-0.006492025684565306,36.715966,3.1838947,26.87,-5.52,-7.99,-1.59,89,236,9.848861694335938,9.71816635131836
18,-0.422272264957428,-2.1645913124084473,0.007408378645777702,36.7158781,3.1837338,29.74,-5.54,-8.21,-1.57,88,235,10.030311584472656,9.906188011169434
19,-0.45682159066200256,-2.163564443588257,-0.032412126660346985,36.7158029,3.1835941,32.2,-5.54,-8.23,-1.58,88,236,10.053144454956055,9.927497863769531
20,-0.45818161964416504,-2.1649234294891357,0.03602885454893112,36.7157157,3.1834319,35.09,-5.51,-8.23,-1.59,87,235,10.037965774536133,9.909955978393555
21,-0.4228576421737671,-2.1646525859832764,0.006625069305300713,36.7156411,3.1832928,37.58,-5.52,-8.3,-1.6,87,235,10.107304573059082,9.978581428527832
22,-0.48835334181785583,-2.1630468368530273,-0.00980426836758852,36.7155538,3.1831296,40.49,-5.52,-8.29,-1.61,87,236,10.091901779174805,9.962519645690918
23,-0.4644482433795929,-2.1642260551452637,0.039698950946331024,36.7154791,3.1829899,42.99,-5.51,-8.28,-1.61,86,236,10.079625129699707,9.948685646057129
24,-0.4275133013725281,-2.1627864837646484,0.0032328038942068815,36.7154045,3.1828504,45.49,-5.52,-8.29,-1.61,86,236,10.10135555267334,9.970741271972656
25,-0.4903202950954437,-2.164001703262329,-0.0009235756588168442,36.7153172,3.1826871,48.4,-5.51,-8.29,-1.62,85,236,10.09552001953125,9.963587760925293
26,-0.4726736843585968,-2.1651248931884766,0.03208627924323082,36.7152423,3.1825475,50.91,-5.5,-8.28,-1.63,85,235,10.07844066619873,9.945319175720215
27,-0.4492957592010498,-2.1660208702087402,-0.020980050787329674,36.7151551,3.1823844,53.83,-5.52,-8.32,-1.62,84,235,10.123856544494629,9.992453575134277
28,-0.4821464717388153,-2.1640231609344482,-0.012322084046900272,36.7150803,3.1822442,56.33,-5.51,-8.29,-1.62,84,236,10.093522071838379,9.96121883392334
29,-0.19825884699821472,-2.168484687805176,0.009154689498245716,36.7149974,3.1820903,59.1,-4.65,-6.93,-1.39,83,235,8.467611312866211,8.351862907409668
30,-0.08333510160446167,-2.162407875061035,-0.01215043943375349,36.7149458,3.1819936,60.76,-3.0,-4.59,-0.71,83,236,5.533954620361328,5.48784065246582
31,-0.13765914738178253,-2.1212692260742188,0.04042970761656761,36.714912,3.1819266,61.41,-2.21,-3.71,-0.18,83,238,4.33223819732666,4.328232288360596
32,-0.18087400496006012,-2.1014842987060547,-0.00553902518004179,36.7148788,3.1818549,61.48,-2.07,-3.69,-0.01,82,239,4.239437580108643,4.239418029785156
33,0.009321671910583973,-2.1026535034179688,0.014643814414739609,36.7148515,3.1817957,61.47,-1.78,-3.13,0.01,82,239,3.608184576034546,3.6081442832946777
34,0.0010002118069678545,-2.333479166030884,-0.027244295924901962,36.7148289,3.1817524,60.56,-1.2,-1.35,1.18,82,226,2.1659018993377686,1.814022421836853
35,-0.0074498001486063,-2.478703260421753,-0.004837069194763899,36.714814,3.1817363,58.32,-1.03,-0.78,1.45,81,217,1.9487224817276,1.298494577407837
36,-0.06170082837343216,-2.472461223602295,0.007816408760845661,36.7147999,3.1817232,56.08,-1.03,-0.84,1.41,81,218,1.947688341140747,1.334930181503296
37,-0.02530686929821968,-2.469999074935913,-0.023592092096805573,36.7147833,3.1817068,53.46,-1.06,-0.86,1.42,80,218,1.981750726699829,1.37557852268219
38,-0.04745054244995117,-2.4703023433685303,0.028183629736304283,36.7147688,3.1816922,51.23,-1.06,-0.88,1.44,80,218,1.998194694519043,1.381880760192871
39,-0.054931316524744034,-2.469348907470703,-0.01731281727552414,36.7147518,3.1816752,48.61,-1.07,-0.88,1.44,80,218,2.007749557495117,1.3898712396621704
40,-0.01926897093653679,-2.469533920288086,0.02642490714788437,36.7147372,3.1816605,46.36,-1.07,-0.88,1.45,79,218,2.0086302757263184,1.3866233825683594
41,-0.060448840260505676,-2.469425916671753,0.010942080989480019,36.7147202,3.1816435,43.75,-1.06,-0.88,1.46,79,218,2.0145137310028076,1.3824149370193481
42,-0.008909191936254501,-2.469522476196289,0.004088039044290781,36.7147056,3.1816288,41.51,-1.06,-0.88,1.47,79,218,2.0213139057159424,1.3842318058013916
43,-0.06373423337936401,-2.4693856239318848,-0.007069145329296589,36.7146911,3.181614,39.26,-1.07,-0.89,1.47,78,218,2.029432535171509,1.398049235343933
44,-0.014986466616392136,-2.4694199562072754,-0.013315453194081783,36.714674,3.1815968,36.64,-1.07,-0.88,1.47,78,218,2.0260543823242188,1.3909019231796265
45,-0.05427667498588562,-2.469675302505493,0.021534020081162453,36.7146594,3.1815821,34.39,-1.05,-0.88,1.47,78,218,2.019474983215332,1.3754873275756836
46,-0.04379637539386749,-2.469383716583252,-0.02211643196642399,36.7146425,3.181565,31.76,-1.06,-0.89,1.47,77,218,2.027264356613159,1.3901400566101074
47,-0.030693383887410164,-2.469968318939209,0.03061034344136715,36.7146279,3.1815502,29.51,-1.06,-0.88,1.47,77,218,2.0269250869750977,1.388978123664856
48,-0.06129937246441841,-2.4692890644073486,-0.010878317058086395,36.7146108,3.181533,26.89,-1.06,-0.88,1.47,76,218,2.0255913734436035,1.3860204219818115
49,-0.0109547795727849,-2.469618082046509,0.015017128549516201,36.7145963,3.1815183,24.63,-1.05,-0.87,1.47,76,218,2.012596368789673,1.3691309690475464
50,-0.13262693583965302,-2.965611219406128,-0.12002216279506683,36.7145791,3.1815059,22.44,-1.71,-0.36,1.24,76,190,2.1462807655334473,1.750139594078064
51,-0.2034783959388733,2.6664645671844482,-0.03843515366315842,36.7145382,3.1815196,21.49,-3.45,1.71,-0.04,75,152,3.8561129570007324,3.855849027633667
52,-0.19581064581871033,2.6721136569976807,-0.0013817009748890996,36.7144859,3.1815524,21.59,-4.0,2.04,0.0,75,153,4.498650550842285,4.498642444610596
53,-0.02029377780854702,3.0234358310699463,0.17528890073299408,36.7144246,3.1815835,21.54,-3.49,0.41,0.05,75,173,3.5209920406341553,3.5206289291381836
54,-0.39199554920196533,-2.221414804458618,0.150305837392807,36.7143823,3.1815596,21.52,-2.97,-3.5,0.02,74,232,4.597411632537842,4.5973591804504395
55,-0.4543269872665405,-2.1444003582000732,-0.013187144882977009,36.7143356,3.1814732,21.52,-4.11,-6.48,0.01,74,237,7.677883625030518,7.677875518798828
56,-0.49035826325416565,-2.1531670093536377,0.013129151426255703,36.7142626,3.1813308,21.53,-4.98,-7.68,0.0,73,236,9.161375045776367,9.161373138427734
57,-0.31930622458457947,-2.1567671298980713,0.024189531803131104,36.714195,3.1812019,21.55,-4.79,-7.29,-0.01,73,236,8.73453426361084,8.734524726867676
58,-0.2663467526435852,-2.148967981338501,0.01985553652048111,36.7141269,3.1810715,21.55,-3.77,-5.91,0.03,73,236,7.021997451782227,7.021890163421631
59,-0.2508751451969147,-2.1162567138671875,0.03377280384302139,36.7140794,3.180975,21.53,-3.34,-5.66,0.01,72,238,6.580341339111328,6.580311298370361
60,-0.284426212310791,-2.1005592346191406,-0.022674649953842163,36.7140354,3.18088,21.53,-3.22,-5.67,0.01,72,239,6.526576042175293,6.526560306549072
61,-0.14968803524971008,-2.0996556282043457,0.02303984947502613,36.7139848,3.1807697,21.53,-3.03,-5.32,0.0,71,239,6.124906539916992,6.124906063079834
62,0.10975528508424759,-2.1006014347076416,-0.023402754217386246,36.7139504,3.180695,21.51,-1.8,-3.16,0.04,71,239,3.643390655517578,3.64314866065979
63,0.13348205387592316,-2.100245714187622,-0.001514325849711895,36.7139365,3.1806642,21.51,-0.15,-0.28,-0.01,71,239,0.32788950204849243,0.327474981546402
64,-0.033213045448064804,-2.1019933223724365,0.04682157561182976,36.7139372,3.1806655,21.49,0.15,0.1,0.03,70,239,0.1926930546760559,0.188638374209404
