timestamp,pitch,yaw,roll,lat,lon,alt,velocity_x,velocity_y,velocity_z,battery,heading,airspeed,groundspeed
0,-0.022163020446896553,0.03277022764086723,-0.004855877719819546,36.7156067,3.18463,17.98,-0.03,0.02,0.0,96,1,0.04312574118375778,0.04258875176310539
1,-0.09974002093076706,0.11039190739393234,0.09206026792526245,36.7156085,3.1846338,18.01,0.47,0.78,0.0,95,6,0.912603497505188,0.912594199180603
2,-0.1864081621170044,1.4600969552993774,-0.0814579576253891,36.7156236,3.1846632,17.97,1.79,2.78,-0.02,95,83,3.3162949085235596,3.3161749839782715
3,-0.189675971865654,0.9456424117088318,-0.006071601994335651,36.7156525,3.1847187,18.01,2.3,3.57,-0.03,95,54,4.2549543380737305,4.254831314086914
4,0.12422368675470352,0.9871388673782349,-0.02289743721485138,36.7156878,3.1847853,18.03,1.74,2.65,0.0,94,56,3.1827914714813232,3.1827802658081055
5,0.33530402183532715,1.1833702325820923,0.10461194813251495,36.7156962,3.1848007,18.02,-0.87,-1.22,0.0,94,67,1.5079139471054077,1.5079131126403809
6,-0.09977848082780838,3.131833076477051,0.11715635657310486,36.715668,3.1847499,18.06,-2.27,-3.23,-0.01,93,179,3.960361957550049,3.960347890853882
7,-0.05848471075296402,-1.9129658937454224,0.03785506635904312,36.7156379,3.1846937,18.04,-2.06,-3.2,0.0,93,250,3.8119735717773438,3.8119726181030273
8,-0.14433281123638153,-1.2243601083755493,0.2844074070453644,36.7156245,3.1846335,18.03,0.91,-2.76,0.0,93,289,2.9070115089416504,2.907006025314331
9,-0.4262845516204834,-0.6433894634246826,0.023153308779001236,36.7156626,3.184584,18.03,4.6,-3.36,0.0,92,323,5.7028656005859375,5.702865123748779
10,-0.5351881980895996,-0.6260047554969788,0.03524141013622284,36.7157428,3.1845143,18.03,6.99,-4.84,-0.01,92,324,8.507494926452637,8.507484436035156
11,-0.46855291724205017,-0.618073582649231,-0.02172713726758957,36.7158628,3.1844103,18.05,7.88,-5.54,0.0,91,324,9.641295433044434,9.6412935256958
12,-0.389315664768219,-0.6202689409255981,-0.0033194872085005045,36.7159684,3.1843175,18.08,7.42,-5.27,-0.01,91,324,9.109318733215332,9.109296798706055
13,0.03108181431889534,-0.6416428685188293,-0.07330093532800674,36.7160683,3.1842292,18.1,4.69,-3.52,0.04,91,323,5.868903160095215,5.868716716766357
14,-0.08872545510530472,-1.365062952041626,-0.2701067328453064,36.7161061,3.1841778,18.29,0.53,-2.93,-0.32,90,281,2.9959707260131836,2.9784936904907227
15,-0.3765197694301605,-2.1361355781555176,-0.07125578820705414,36.7160864,3.1841176,19.27,-3.16,-4.61,-0.96,90,237,5.680739402770996,5.598989009857178
16,-0.50181645154953,-2.1613519191741943,0.03205331787467003,36.7160183,3.1839982,21.53,-5.05,-7.34,-1.51,89,236,9.040263175964355,8.912060737609863
17,-0.43117475509643555,-2.1630308628082275,0.028317170217633247,36.715945,3.1838657,23.98,-5.53,-8.04,-1.6,89,236,9.896798133850098,9.766074180603027
18,-0.4884898066520691,-2.1652445793151855,-0.011821295134723186,36.7158572,3.1837043,26.85,-5.55,-8.21,-1.56,88,235,10.040963172912598,9.917865753173828
19,-0.46882936358451843,-2.16436767578125,0.03742492198944092,36.7157822,3.1835647,29.31,-5.51,-8.24,-1.58,88,236,10.05105972290039,9.924863815307617
20,-0.42086973786354065,-2.1657521724700928,0.007627996616065502,36.7157071,3.1834252,31.79,-5.53,-8.24,-1.6,88,235,10.065018653869629,9.936189651489258
21,-0.4978499114513397,-2.1619088649749756,-0.001882050884887576,36.7156203,3.1832632,34.7,-5.49,-8.29,-1.6,87,236,10.076592445373535,9.948562622070312
22,-0.45196810364723206,-2.1620357036590576,0.02918170765042305,36.7155454,3.183123,37.19,-5.52,-8.29,-1.62,87,236,10.093539237976074,9.962620735168457
23,-0.45945656299591064,-2.16591215133667,-0.020948119461536407,36.7154578,3.1829598,40.1,-5.5,-8.26,-1.62,86,235,10.066838264465332,9.93516731262207
24,-0.49340254068374634,-2.1635444164276123,0.013157800771296024,36.7153836,3.1828205,42.61,-5.49,-8.28,-1.62,86,236,10.070357322692871,9.938566207885742
25,-0.4423680603504181,-2.1657636165618896,0.037890080362558365,36.7153089,3.1826808,45.1,-5.56,-8.31,-1.63,85,235,10.138937950134277,10.006400108337402
26,-0.45841896533966064,-2.163870096206665,-0.024242211133241653,36.7152213,3.1825172,48.03,-5.49,-8.29,-1.62,85,236,10.08209228515625,9.949480056762695
27,-0.48314914107322693,-2.164064407348633,0.022574981674551964,36.7151468,3.1823775,50.54,-5.51,-8.29,-1.63,84,236,10.088143348693848,9.954882621765137
28,-0.3978613615036011,-2.164315938949585,-0.02242814004421234,36.7150595,3.1822146,53.45,-5.49,-8.22,-1.62,84,236,10.023130416870117,9.890769958496094
29,-0.23729248344898224,-2.1679465770721436,-0.0061783455312252045,36.71499,3.1820856,55.79,-4.55,-6.78,-1.35,83,235,8.290855407714844,8.17856216430664
30,-0.041666459292173386,-2.1557013988494873,0.000637496414128691,36.7149333,3.1819792,57.53,-2.71,-4.2,-0.56,83,236,5.036441802978516,5.005068302154541
31,-0.16712352633476257,-2.1141674518585205,0.02099665440618992,36.7149018,3.1819152,57.99,-2.15,-3.69,-0.11,83,238,4.279545307159424,4.278051853179932
32,-0.13054433465003967,-2.101956844329834,0.008207452483475208,36.7148736,3.1818539,58.01,-2.08,-3.7,-0.01,82,239,4.249194145202637,4.249162197113037
33,0.010710274800658226,-2.109337329864502,0.011070214211940765,36.7148429,3.181787,57.96,-1.6,-2.77,0.13,82,239,3.2120845317840576,3.2092082500457764
34,0.03010512888431549,-2.358751058578491,-0.06477338075637817,36.7148245,3.1817541,56.95,-1.2,-1.28,1.25,82,224,2.1576502323150635,1.7565299272537231
35,-0.014502978883683681,-2.464970827102661,0.02189277485013008,36.7148074,3.1817365,54.31,-1.03,-0.79,1.42,81,218,1.9290324449539185,1.3011783361434937
36,-0.06007208302617073,-2.469689130783081,-0.010704651474952698,36.7147934,3.1817233,52.08,-1.04,-0.85,1.42,81,218,1.9588782787322998,1.3465397357940674
37,-0.01478661596775055,-2.469860315322876,-0.011205247603356838,36.7147768,3.1817066,49.46,-1.07,-0.88,1.43,81,218,1.9937652349472046,1.387778639793396
38,-0.05529161915183067,-2.470595121383667,0.017972417175769806,36.7147622,3.181692,47.22,-1.07,-0.88,1.44,80,218,2.003258228302002,1.3904563188552856
39,-0.009396311827003956,-2.4696455001831055,-0.004142251331359148,36.7147476,3.1816773,44.98,-1.08,-0.86,1.45,80,218,2.006700277328491,1.3868576288223267
40,-0.02550582028925419,-2.4698519706726074,0.028915859758853912,36.7147305,3.1816604,42.36,-1.06,-0.87,1.45,79,218,2.0061872005462646,1.3805508613586426
41,-0.035397641360759735,-2.46968150138855,-0.023852061480283737,36.714716,3.1816457,40.12,-1.07,-0.89,1.45,79,218,2.0185062885284424,1.39425528049469
42,-0.00860572885721922,-2.4699862003326416,0.0016244740691035986,36.714699,3.1816285,37.5,-1.07,-0.88,1.47,79,218,2.0232596397399902,1.3874160051345825
43,-0.061527758836746216,-2.4696483612060547,-0.007986974902451038,36.7146844,3.1816137,35.25,-1.06,-0.88,1.46,78,218,2.0220417976379395,1.3889354467391968
44,-0.0066771721467375755,-2.4697015285491943,0.0069878301583230495,36.7146698,3.1815991,33.0,-1.07,-0.88,1.46,78,218,2.0196502208709717,1.3863661289215088
45,-0.04305100068449974,-2.469961404800415,0.026042500510811806,36.7146528,3.181582,30.38,-1.05,-0.87,1.47,78,218,2.0162622928619385,1.3749531507492065
46,-0.021298237144947052,-2.4702067375183105,-0.020756326615810394,36.7146382,3.1815673,28.14,-1.06,-0.88,1.47,77,218,2.025942802429199,1.3842860460281372
47,-0.014613458886742592,-2.470048189163208,0.016644030809402466,36.7146213,3.1815501,25.51,-1.06,-0.87,1.47,77,218,2.018307685852051,1.3811554908752441
48,-0.05062371864914894,-2.469491481781006,-0.022203410044312477,36.7146066,3.1815353,23.26,-1.07,-0.88,1.47,77,218,2.025813102722168,1.3901684284210205
49,-0.014750191941857338,-2.469961166381836,0.021454593166708946,36.714592,3.1815206,21.01,-1.05,-0.87,1.47,76,218,2.0172994136810303,1.3745158910751343
50,-0.1791056990623474,3.0867321491241455,-0.1039462760090828,36.7145699,3.1815084,18.56,-2.01,0.01,0.98,76,176,2.2408320903778076,2.0123863220214844
51,-0.2009078711271286,2.676456928253174,-0.03112766332924366,36.7145317,3.1815246,18.02,-3.57,1.74,-0.06,75,153,3.977902889251709,3.977386474609375
52,-0.14664337038993835,2.6803829669952393,0.034634385257959366,36.714469,3.1815631,18.12,-4.05,2.02,0.04,75,153,4.531863212585449,4.531652450561523
53,-0.02806972712278366,3.060931921005249,0.17955535650253296,36.7144166,3.1815872,18.06,-3.48,0.27,0.04,75,175,3.494098424911499,3.4937667846679688
54,-0.3966905474662781,-2.2081453800201416,0.143768310546875,36.7143746,3.1815605,18.05,-2.98,-3.66,0.01,74,233,4.727684020996094,4.727648735046387
55,-0.5009610652923584,-2.1532106399536133,-0.01773100346326828,36.714318,3.1814533,18.05,-4.32,-6.88,0.0,74,236,8.13200569152832,8.131999969482422
56,-0.4768303334712982,-2.1495566368103027,0.0275399312376976,36.7142546,3.1813282,18.06,-4.92,-7.7,0.0,73,236,9.1448392868042,9.144838333129883
57,-0.3068050444126129,-2.153651714324951,-0.02235325798392296,36.7141775,3.1811795,18.09,-4.58,-7.04,0.0,73,236,8.408551216125488,8.408552169799805
58,-0.257213830947876,-2.143566131591797,0.03706569969654083,36.7141209,3.1810699,18.08,-3.7,-5.89,0.03,73,237,6.961174488067627,6.961071968078613
59,-0.27376994490623474,-2.1103503704071045,-0.015438152477145195,36.7140666,3.1809577,18.06,-3.29,-5.65,0.01,72,239,6.540925979614258,6.540903568267822
60,-0.2993209660053253,-2.0998141765594482,0.02940620854496956,36.7140229,3.1808629,18.06,-3.22,-5.69,0.01,72,239,6.542830944061279,6.54281759262085
61,-0.1300695538520813,-2.100475549697876,-0.012729079462587833,36.7139796,3.1807685,18.06,-3.01,-5.26,0.0,71,239,6.064755439758301,6.064754962921143
62,0.17337872087955475,-2.1006650924682617,0.027995828539133072,36.7139424,3.1806878,18.03,-1.4,-2.45,0.02,71,239,2.8325002193450928,2.832350015640259
63,0.09383093565702438,-2.1005868911743164,-0.028618931770324707,36.7139332,3.1806672,18.04,-0.11,-0.21,-0.01,71,239,0.2465299814939499,0.2459871470928192
64,0.016301827505230904,-2.099090814590454,0.08058977872133255,36.7139347,3.180669,18.01,0.29,-0.02,0.03,70,239,0.2990282475948334,0.2974455654621124
