timestamp,pitch,yaw,roll,lat,lon,alt,velocity_x,velocity_y,velocity_z,battery,heading,airspeed,groundspeed
0,0.02694014273583889,-0.00552120478823781,-0.0029076100327074528,36.7156067,3.1846299,18.89,-0.02,0.02,0.04,96,359,0.06224479526281357,0.038400523364543915
1,-0.07724042981863022,-0.013336265459656715,0.09744420647621155,36.7156075,3.1846318,18.88,0.25,0.47,0.0,95,359,0.5384483337402344,0.5384085774421692
2,-0.22173702716827393,1.505728006362915,-0.11783555150032043,36.7156204,3.1846579,18.84,1.52,2.42,-0.02,95,86,2.8667590618133545,2.8666183948516846
3,-0.1280767172574997,0.8681858777999878,0.0036117034032940865,36.7156464,3.1847082,18.88,2.13,3.34,-0.04,95,49,3.9672298431396484,3.966992139816284
4,0.05672313645482063,0.9805043339729309,0.03519164025783539,36.71568,3.1847721,18.92,1.76,2.74,-0.02,94,56,3.264939308166504,3.2648675441741943
5,0.3423125743865967,1.1718127727508545,0.03537508100271225,36.7156903,3.1847918,18.92,-0.63,-0.88,0.0,94,67,1.0950016975402832,1.0949742794036865
6,-0.05255782976746559,2.833549976348877,0.21172858774662018,36.7156692,3.1847537,18.95,-2.18,-3.1,-0.02,93,162,3.797569513320923,3.797459602355957
7,-0.13363783061504364,-1.915363073348999,0.032364364713430405,36.7156339,3.1846889,18.95,-2.16,-3.26,0.0,93,250,3.919158458709717,3.919153928756714
8,-0.014977308921515942,-1.5715017318725586,0.2159414440393448,36.7156166,3.1846355,18.93,-0.01,-2.92,0.0,93,269,2.9216673374176025,2.9216599464416504
9,-0.4157768785953522,-0.6508408188819885,0.0935124084353447,36.7156514,3.1845782,18.93,4.35,-3.27,0.0,92,322,5.442843914031982,5.442840099334717
10,-0.4942588210105896,-0.6282891035079956,-0.015086439438164234,36.7157289,3.1845101,18.93,6.86,-4.77,-0.01,92,324,8.36281967163086,8.362810134887695
11,-0.49917736649513245,-0.6209986209869385,0.030037662014365196,36.7158476,3.1844067,18.95,7.88,-5.54,0.0,91,324,9.641798973083496,9.64179515838623
12,-0.3405189514160156,-0.6238441467285156,-0.001421087421476841,36.7159534,3.1843134,18.97,7.48,-5.33,-0.02,91,324,9.189972877502441,9.189935684204102
13,-0.0812617838382721,-0.6262614130973816,-0.03509526327252388,36.7160432,3.1842336,19.0,5.39,-3.88,0.04,91,324,6.651320934295654,6.651187419891357
14,-0.01975519210100174,-1.2950611114501953,-0.3091362714767456,36.7160955,3.1841708,19.15,0.79,-2.89,-0.29,90,285,3.0164847373962402,3.0017833709716797
15,-0.41933679580688477,-2.1286046504974365,-0.047253306955099106,36.7160792,3.184112,20.09,-2.98,-4.49,-0.92,90,238,5.473945617675781,5.395083904266357
16,-0.4422752857208252,-2.1598494052886963,0.0061698975041508675,36.716024,3.184015,21.93,-4.83,-6.94,-1.44,89,236,8.582118034362793,8.459146499633789
17,-0.48950788378715515,-2.1646785736083984,-0.005080405622720718,36.7159396,3.1838638,24.73,-5.54,-8.05,-1.6,89,235,9.908904075622559,9.77800178527832
18,-0.4579257369041443,-2.1639578342437744,0.038026485592126846,36.7158645,3.1837259,27.2,-5.53,-8.22,-1.57,88,236,10.040657997131348,9.91569995880127
19,-0.45449113845825195,-2.1637508869171143,-0.034013114869594574,36.7157768,3.1835629,30.06,-5.55,-8.23,-1.59,88,236,10.061256408691406,9.933335304260254
20,-0.49065470695495605,-2.16744065284729,0.01394603494554758,36.7157015,3.1834236,32.55,-5.52,-8.25,-1.6,88,235,10.064177513122559,9.93527603149414
21,-0.42648065090179443,-2.1626572608947754,0.000549411284737289,36.7156147,3.183261,35.46,-5.48,-8.29,-1.6,87,236,10.077171325683594,9.947746276855469
22,-0.462230920791626,-2.162658214569092,-0.02871669828891754,36.7155401,3.1831211,37.95,-5.53,-8.27,-1.61,87,236,10.085702896118164,9.95551872253418
23,-0.4887202978134155,-2.164761781692505,0.018697312101721764,36.715465,3.1829815,40.44,-5.52,-8.28,-1.63,86,235,10.088486671447754,9.95522689819336
24,-0.42831936478614807,-2.163527011871338,-0.00967590231448412,36.715378,3.1828186,43.36,-5.51,-8.3,-1.63,86,236,10.10053825378418,9.96764087677002
25,-0.47831353545188904,-2.16266131401062,-0.02730926126241684,36.7153034,3.1826787,45.87,-5.5,-8.28,-1.62,85,236,10.077116966247559,9.945032119750977
26,-0.45537617802619934,-2.163973569869995,0.03215579316020012,36.715216,3.1825154,48.78,-5.53,-8.26,-1.64,85,236,10.080376625061035,9.945430755615234
27,-0.4302702248096466,-2.164665937423706,-0.01352528017014265,36.7151411,3.1823755,51.29,-5.51,-8.29,-1.64,84,235,10.09195613861084,9.957147598266602
28,-0.4827786684036255,-2.161924123764038,-0.0264882892370224,36.7150668,3.1822361,53.79,-5.51,-8.3,-1.63,84,236,10.106606483459473,9.973915100097656
29,-0.20215199887752533,-2.1689233779907227,0.023884980008006096,36.7149838,3.1820825,56.56,-4.66,-6.9,-1.39,83,235,8.44874095916748,8.33316421508789
30,-0.07020425796508789,-2.1607799530029297,-0.013387209735810757,36.7149324,3.1819861,58.2,-2.98,-4.55,-0.7,83,236,5.492474555969238,5.446457386016846
31,-0.11274200677871704,-2.101917028427124,0.01668659970164299,36.7148944,3.181909,58.88,-2.12,-3.7,-0.12,83,239,4.269391059875488,4.2675089836120605
32,-0.18072926998138428,-2.085432291030884,-0.007364994380623102,36.714867,3.1818474,58.91,-2.0,-3.69,0.0,82,240,4.207801818847656,4.207796096801758
33,0.024507880210876465,-2.0915818214416504,-0.03471490740776062,36.7148371,3.1817797,58.88,-1.59,-2.87,0.11,82,240,3.2848598957061768,3.2828292846679688
34,-0.0004019199695903808,-2.335545778274536,-0.024623027071356773,36.7148189,3.1817455,57.95,-1.18,-1.34,1.2,82,226,2.159881114959717,1.7899283170700073
35,-0.012350814417004585,-2.4780704975128174,-0.01671558991074562,36.7148041,3.1817295,55.7,-1.03,-0.79,1.45,81,218,1.9547260999679565,1.309124231338501
36,-0.026513105258345604,-2.4703550338745117,0.028924625366926193,36.7147877,3.181714,53.09,-1.04,-0.82,1.43,81,218,1.9582197666168213,1.3324496746063232
37,-0.04446684569120407,-2.4702811241149902,-0.024435600265860558,36.7147734,3.1817,50.85,-1.06,-0.88,1.43,81,218,1.9963620901107788,1.38508939743042
38,-0.009107912890613079,-2.4701902866363525,0.0017976451199501753,36.7147564,3.181683,48.23,-1.07,-0.88,1.44,80,218,2.007347583770752,1.3915854692459106
39,-0.058915723115205765,-2.4694831371307373,-0.006374898366630077,36.7147419,3.1816683,46.0,-1.06,-0.89,1.45,80,218,2.0170488357543945,1.3918575048446655
40,-0.010309218429028988,-2.4699788093566895,0.008740399032831192,36.7147273,3.1816537,43.75,-1.07,-0.88,1.46,79,218,2.0189778804779053,1.3892818689346313
41,-0.047844793647527695,-2.4699902534484863,0.02620975859463215,36.7147103,3.1816366,41.12,-1.06,-0.89,1.46,79,218,2.0176870822906494,1.3888345956802368
42,-0.017885424196720123,-2.470517635345459,-0.02067704312503338,36.7146957,3.1816219,38.89,-1.07,-0.88,1.47,79,218,2.027425765991211,1.3910020589828491
43,-0.01464085467159748,-2.469428777694702,0.021325426176190376,36.7146787,3.1816047,36.27,-1.06,-0.88,1.47,78,218,2.0228006839752197,1.3818678855895996
44,-0.05069225654006004,-2.4696009159088135,-0.021832847967743874,36.7146641,3.18159,34.01,-1.07,-0.89,1.47,78,218,2.02913236618042,1.3951469659805298
45,-0.01123244408518076,-2.469957113265991,-0.01092015765607357,36.7146471,3.1815728,31.39,-1.07,-0.88,1.48,78,218,2.032583475112915,1.3925604820251465
46,-0.06114364042878151,-2.4700400829315186,0.006804126780480146,36.7146325,3.1815581,29.14,-1.06,-0.88,1.47,77,218,2.0251917839050293,1.3835185766220093
47,-0.010225554928183556,-2.469707489013672,0.006067310459911823,36.714618,3.1815435,26.89,-1.06,-0.88,1.47,77,218,2.0203874111175537,1.3838574886322021
48,-0.042193226516246796,-2.4698679447174072,0.02590073086321354,36.7146009,3.1815263,24.26,-1.06,-0.88,1.47,76,218,2.020949363708496,1.38200843334198
49,-0.024061396718025208,-2.4701287746429443,-0.021335488185286522,36.7145863,3.1815116,22.02,-1.07,-0.88,1.48,76,218,2.029104232788086,1.3879307508468628
50,-0.12126819044351578,3.12549090385437,-0.09397496283054352,36.7145647,3.1814986,19.54,-1.95,-0.06,1.04,76,179,2.21439528465271,1.9519339799880981
51,-0.2545233368873596,2.6755950450897217,-0.03088051825761795,36.7145274,3.1815137,18.93,-3.52,1.69,-0.04,75,153,3.9123635292053223,3.9120607376098633
52,-0.15630631148815155,2.6798152923583984,0.025471940636634827,36.7144742,3.1815463,19.02,-4.06,2.02,0.0,75,153,4.546336650848389,4.546329021453857
53,-0.05235457420349121,3.0174434185028076,0.2071307748556137,36.7144124,3.181577,18.97,-3.53,0.41,0.04,75,172,3.5550343990325928,3.5546953678131104
54,-0.34593141078948975,-2.2114930152893066,0.11767368763685226,36.7143702,3.1815533,18.95,-2.98,-3.46,0.01,74,233,4.574596405029297,4.574553966522217
55,-0.501242995262146,-2.1509127616882324,0.03390796110033989,36.714314,3.1814485,18.95,-4.26,-6.79,0.0,74,236,8.023266792297363,8.023262977600098
56,-0.4243638813495636,-2.1482276916503906,0.009527351707220078,36.714251,3.1813244,18.96,-4.89,-7.69,0.0,73,236,9.125500679016113,9.125499725341797
57,-0.350312739610672,-2.1523427963256836,0.00548635795712471,36.7141741,3.1811755,18.98,-4.62,-7.12,0.0,73,236,8.499238014221191,8.499236106872559
58,-0.2111385315656662,-2.142967462539673,0.02860140986740589,36.714117,3.1810648,18.97,-3.75,-5.94,0.02,73,237,7.034295082092285,7.034237861633301
59,-0.2821545898914337,-2.1160640716552734,-0.009486646391451359,36.7140695,3.1809679,18.95,-3.34,-5.66,0.01,72,238,6.576643943786621,6.576626300811768
60,-0.25683701038360596,-2.0998241901397705,0.014517778530716896,36.7140183,3.1808572,18.95,-3.21,-5.66,0.0,72,239,6.513628005981445,6.513622283935547
61,-0.1841435730457306,-2.100111246109009,-0.019933735951781273,36.7139751,3.1807629,18.96,-3.03,-5.31,0.0,71,239,6.122900009155273,6.122899532318115
62,0.18135881423950195,-2.1014297008514404,-0.016006123274564743,36.713937,3.1806803,18.93,-1.49,-2.6,0.03,71,239,3.00592303276062,3.0057694911956787
63,0.07979784905910492,-2.100520133972168,0.010587195865809917,36.7139269,3.180658,18.94,-0.15,-0.29,-0.01,71,239,0.3366734981536865,0.3361199200153351
64,-0.01167325396090746,-2.10168719291687,0.043692879378795624,36.7139281,3.1806592,18.91,0.26,0.0,0.03,70,239,0.19552049040794373,0.1908549666404724
