timestamp,pitch,yaw,roll,lat,lon,alt,velocity_x,velocity_y,velocity_z,battery,heading,airspeed,groundspeed
0,-0.016466863453388214,0.041454605758190155,0.021463749930262566,36.7156065,3.1846299,21.63,-0.01,0.02,-0.05,96,2,0.06194940209388733,0.030060188844799995
1,-0.11126740276813507,0.11095651984214783,0.09528441727161407,36.7156086,3.1846339,21.58,0.47,0.76,-0.04,95,6,0.9034832119941711,0.9022092223167419
2,-0.1727750301361084,1.4478509426116943,-0.08741788566112518,36.7156238,3.1846625,21.61,1.73,2.72,-0.04,95,82,3.231558322906494,3.231253147125244
3,-0.19173084199428558,0.9521434903144836,0.016985556110739708,36.7156517,3.1847175,21.63,2.27,3.59,-0.01,95,54,4.255431652069092,4.2553863525390625
4,0.07778845727443695,0.9895061254501343,-0.030399564653635025,36.7156868,3.1847845,21.62,1.82,2.76,0.0,94,56,3.3106577396392822,3.3106532096862793
5,0.35798898339271545,1.173203706741333,0.10899188369512558,36.7156966,3.1848021,21.65,-0.74,-1.06,-0.02,94,67,1.3019977807998657,1.3017939329147339
6,-0.06834303587675095,2.8729734420776367,0.13726264238357544,36.7156746,3.1847621,21.63,-2.19,-3.13,0.05,93,164,3.825059175491333,3.824692487716675
7,-0.07573185116052628,-1.9087620973587036,0.013698852621018887,36.7156395,3.1846975,21.67,-2.11,-3.24,0.0,93,250,3.8694546222686768,3.8694546222686768
8,-0.07243999093770981,-1.5492178201675415,0.25474265217781067,36.7156231,3.1846445,21.62,0.08,-2.88,0.02,93,271,2.887021780014038,2.886950731277466
9,-0.434965580701828,-0.647326648235321,0.03256464749574661,36.7156593,3.1845875,21.62,4.41,-3.27,0.0,92,322,5.500717639923096,5.500716686248779
10,-0.5190609097480774,-0.6262519359588623,0.044490210711956024,36.7157375,3.184519,21.62,6.91,-4.78,0.0,92,324,8.407848358154297,8.407842636108398
11,-0.4818679392337799,-0.6173895597457886,-0.030881360173225403,36.7158568,3.1844159,21.64,7.9,-5.5,0.0,91,324,9.638784408569336,9.63878345489502
12,-0.40340837836265564,-0.6204155683517456,0.009919882752001286,36.7159627,3.1843232,21.67,7.49,-5.3,-0.02,91,324,9.183392524719238,9.183366775512695
13,-0.0021607126109302044,-0.6339594721794128,-0.07258247584104538,36.7160643,3.1842335,21.68,4.9,-3.6,0.03,91,323,6.085689067840576,6.085568904876709
14,-0.04909246414899826,-1.2852190732955933,-0.26088660955429077,36.7161052,3.1841812,21.84,0.8,-2.9,-0.3,90,286,3.030898094177246,3.015702247619629
15,-0.3704949617385864,-2.132025718688965,-0.0950620099902153,36.7160889,3.184122,22.78,-3.0,-4.47,-0.92,90,237,5.467525959014893,5.388242244720459
16,-0.4979063868522644,-2.1640477180480957,0.040635451674461365,36.7160223,3.1840055,25.0,-5.05,-7.2,-1.49,89,236,8.92463493347168,8.798261642456055
17,-0.4161956310272217,-2.163006067276001,0.025657959282398224,36.715949,3.183874,27.42,-5.5,-8.05,-1.62,89,236,9.886093139648438,9.752370834350586
18,-0.49159660935401917,-2.1632139682769775,-0.007329040206968784,36.7158615,3.1837131,30.29,-5.53,-8.23,-1.58,88,236,10.047401428222656,9.921731948852539
19,-0.464312881231308,-2.1645474433898926,0.035574644804000854,36.7157862,3.1835735,32.76,-5.55,-8.25,-1.59,88,235,10.077409744262695,9.949785232543945
20,-0.42329102754592896,-2.163588285446167,0.0054442849941551685,36.7157114,3.1834338,35.24,-5.51,-8.27,-1.6,88,236,10.0689115524292,9.939533233642578
21,-0.491598516702652,-2.162552833557129,-0.003963587339967489,36.7156243,3.183271,38.13,-5.49,-8.24,-1.61,87,236,10.04015064239502,9.90927505493164
22,-0.4629083275794983,-2.1632323265075684,0.03948870301246643,36.7155498,3.183132,40.64,-5.52,-8.28,-1.62,87,236,10.090085983276367,9.958578109741211
23,-0.45539894700050354,-2.1642656326293945,-0.02968873269855976,36.7154623,3.1829688,43.55,-5.53,-8.29,-1.62,86,236,10.103586196899414,9.971870422363281
24,-0.48929837346076965,-2.1643664836883545,0.0032906567212194204,36.7153875,3.1828288,46.05,-5.5,-8.29,-1.63,86,236,10.092070579528809,9.959112167358398
25,-0.4235283136367798,-2.163756847381592,0.005105767864733934,36.7153004,3.1826655,48.96,-5.5,-8.28,-1.64,85,236,10.085341453552246,9.95072078704834
26,-0.4459645748138428,-2.1631743907928467,-0.03339729458093643,36.7152257,3.1825258,51.46,-5.5,-8.27,-1.64,85,236,10.07180404663086,9.936091423034668
27,-0.49329352378845215,-2.1646764278411865,0.013850431889295578,36.715151,3.1823863,53.97,-5.51,-8.29,-1.64,84,235,10.091706275939941,9.957182884216309
28,-0.404236763715744,-2.1642308235168457,-0.006012032274156809,36.7150637,3.1822231,56.9,-5.51,-8.25,-1.63,84,236,10.067262649536133,9.933106422424316
29,-0.24572525918483734,-2.167480945587158,-0.023320620879530907,36.7149937,3.1820929,59.25,-4.64,-6.91,-1.39,83,235,8.442968368530273,8.327566146850586
30,-0.0750255212187767,-2.1621108055114746,0.03224627301096916,36.7149421,3.1819965,60.89,-3.0,-4.56,-0.71,83,236,5.5109076499938965,5.464688301086426
31,-0.16460996866226196,-2.115133285522461,0.0013399421004578471,36.7149033,3.1819193,61.57,-2.16,-3.69,-0.12,83,238,4.289685249328613,4.287811279296875
32,-0.13620667159557343,-2.1017158031463623,0.024525348097085953,36.714875,3.1818579,61.61,-2.07,-3.66,0.0,82,239,4.212231636047363,4.212226867675781
33,-0.016801681369543076,-2.1063010692596436,-0.0007168553420342505,36.7148441,3.1817905,61.58,-1.63,-2.86,0.11,82,239,3.29951548576355,3.297658920288086
34,0.04290683567523956,-2.3393280506134033,-0.0465073324739933,36.7148256,3.1817563,60.65,-1.21,-1.34,1.19,82,225,2.170421838760376,1.809995412826538
35,-0.04035048931837082,-2.467433452606201,0.024524003267288208,36.7148083,3.181738,58.05,-1.03,-0.8,1.44,81,218,1.946973443031311,1.307726263999939
36,-0.03061704710125923,-2.4705231189727783,-0.02047828584909439,36.7147942,3.1817248,55.81,-1.05,-0.83,1.43,81,218,1.9698113203048706,1.3475236892700195
37,-0.010949667543172836,-2.4692647457122803,0.011905638501048088,36.7147775,3.1817082,53.19,-1.06,-0.87,1.44,80,218,1.9978053569793701,1.3788177967071533
38,-0.05610114336013794,-2.469743251800537,-0.014896991662681103,36.714763,3.1816937,50.95,-1.07,-0.89,1.45,80,218,2.0161211490631104,1.3982576131820679
39,-0.022045351564884186,-2.4691011905670166,0.026190854609012604,36.7147485,3.181679,48.71,-1.07,-0.88,1.45,80,218,2.013350486755371,1.387729287147522
40,-0.060145147144794464,-2.4697933197021484,0.017409710213541985,36.7147315,3.1816619,46.09,-1.07,-0.88,1.46,79,218,2.017033576965332,1.390181303024292
41,-0.007560625206679106,-2.4694976806640625,-0.0013935031602159142,36.7147169,3.1816472,43.84,-1.07,-0.88,1.46,79,218,2.023577928543091,1.3924200534820557
42,-0.03210248053073883,-2.46982741355896,0.027594752609729767,36.7146998,3.18163,41.23,-1.06,-0.88,1.47,79,218,2.0223374366760254,1.3844788074493408
43,-0.02676108293235302,-2.4696009159088135,-0.024391014128923416,36.7146852,3.1816153,38.99,-1.07,-0.88,1.48,78,218,2.031146287918091,1.3869235515594482
44,-0.042625006288290024,-2.4696314334869385,0.02740340493619442,36.7146706,3.1816006,36.73,-1.05,-0.87,1.48,78,218,2.0234241485595703,1.375850796699524
45,-0.05992446467280388,-2.469364881515503,-0.009272175841033459,36.7146536,3.1815834,34.11,-1.07,-0.88,1.48,78,218,2.0333731174468994,1.3931989669799805
46,-0.012446288019418716,-2.469592809677124,0.019229166209697723,36.714639,3.1815687,31.86,-1.05,-0.87,1.48,77,218,2.0213711261749268,1.3765285015106201
47,-0.054283324629068375,-2.469978094100952,0.019184846431016922,36.714622,3.1815515,29.23,-1.05,-0.89,1.47,77,218,2.0236496925354004,1.3827773332595825
48,-0.011357925832271576,-2.4692158699035645,-0.004243616946041584,36.7146075,3.1815368,26.97,-1.06,-0.88,1.47,76,218,2.020400285720825,1.3835949897766113
49,-0.06064015254378319,-2.469528913497925,0.0073464056476950645,36.7145928,3.1815221,24.72,-1.06,-0.88,1.47,76,218,2.021353006362915,1.3817579746246338
50,-0.13827821612358093,3.1370739936828613,-0.13611572980880737,36.7145712,3.1815091,22.25,-1.93,-0.08,1.05,76,179,2.2060439586639404,1.9348182678222656
51,-0.2215345948934555,2.6745829582214355,0.01168616022914648,36.7145342,3.1815239,21.62,-3.49,1.67,-0.04,75,153,3.8745949268341064,3.874377727508545
52,-0.1847570687532425,2.6794352531433105,-0.011022139340639114,36.7144721,3.181562,21.72,-4.07,2.03,0.04,75,153,4.554815769195557,4.554610729217529
53,-0.004128854256123304,3.017019271850586,0.21262460947036743,36.7144194,3.1815874,21.66,-3.54,0.45,0.05,75,172,3.5738162994384766,3.5734364986419678
54,-0.38895532488822937,-2.2223212718963623,0.1059626117348671,36.714377,3.1815643,21.64,-2.97,-3.42,0.02,74,232,4.532462120056152,4.532402515411377
55,-0.4526204764842987,-2.1491873264312744,0.012716183438897133,36.7143211,3.1814606,21.64,-4.25,-6.76,0.0,74,236,7.989751815795898,7.989747047424316
56,-0.46066921949386597,-2.1487553119659424,-0.036016423255205154,36.7142581,3.1813367,21.65,-4.89,-7.7,0.0,73,236,9.125164985656738,9.125164031982422
57,-0.31229159235954285,-2.1518747806549072,0.022951899096369743,36.7141813,3.1811878,21.67,-4.62,-7.15,0.0,73,236,8.521056175231934,8.521051406860352
58,-0.23776058852672577,-2.143481731414795,-0.014600350521504879,36.7141243,3.1810768,21.66,-3.78,-5.98,0.02,73,237,7.076873779296875,7.076817035675049
59,-0.2508074939250946,-2.1109840869903564,0.03444558382034302,36.7140691,3.1809636,21.64,-3.31,-5.64,0.0,72,239,6.543449878692627,6.543447971343994
60,-0.28459984064102173,-2.1001715660095215,-0.021815987303853035,36.7140251,3.1808686,21.64,-3.21,-5.64,0.0,72,239,6.497298240661621,6.4972944259643555
61,-0.18578402698040009,-2.1001594066619873,0.026820242404937744,36.7139819,3.1807743,21.64,-3.02,-5.31,0.0,71,239,6.113461971282959,6.11345911026001
62,0.1292104721069336,-2.1005561351776123,-0.020802874118089676,36.7139437,3.1806914,21.62,-1.51,-2.65,0.02,71,239,3.059406280517578,3.0592873096466064
63,0.12096086889505386,-2.1000595092773438,0.02492998167872429,36.7139333,3.1806685,21.63,-0.16,-0.32,-0.01,71,239,0.36618006229400635,0.36563819646835327
64,-0.03400488197803497,-2.103398084640503,0.08202030509710312,36.7139342,3.1806695,21.6,0.25,0.02,0.03,70,239,0.2628277838230133,0.2602667212486267
