timestamp,pitch,yaw,roll,lat,lon,alt,velocity_x,velocity_y,velocity_z,battery,heading,airspeed,groundspeed
0,0.03081870637834072,0.004751313012093306,-0.005843907594680786,36.7156067,3.1846299,18.6,-0.03,0.03,0.03,96,0,0.05692886561155319,0.0453379824757576
1,-0.08153088390827179,-0.004506364464759827,0.10865404456853867,36.7156075,3.1846319,18.61,0.26,0.49,-0.01,95,359,0.5577031373977661,0.5575652718544006
2,-0.236689493060112,1.4632008075714111,-0.11136062443256378,36.7156221,3.1846594,18.57,1.68,2.58,-0.02,95,83,3.0832936763763428,3.0831732749938965
3,-0.1449267566204071,0.8928883075714111,-0.003714686958119273,36.7156503,3.1847127,18.61,2.32,3.52,-0.04,95,51,4.224817276000977,4.22461462020874
4,0.039254121482372284,0.9690279364585876,0.026048261672258377,36.7156869,3.1847804,18.64,1.99,2.95,-0.01,94,55,3.560563087463379,3.560513734817505
5,0.36083194613456726,0.9986881017684937,-0.01643563248217106,36.7157006,3.1848046,18.64,-0.42,-0.62,0.01,94,57,0.756938636302948,0.756825864315033
6,-0.02091047540307045,2.665976047515869,0.2179698646068573,36.7156809,3.1847688,18.67,-2.14,-3.07,-0.03,93,152,3.7471983432769775,3.747041702270508
7,-0.13440249860286713,-1.954644799232483,0.021310949698090553,36.7156455,3.1847039,18.66,-2.17,-3.25,0.0,93,248,3.912832736968994,3.9128291606903076
8,0.0031846913043409586,-1.7110583782196045,0.1872243732213974,36.7156263,3.1846505,18.65,-0.24,-2.94,0.0,93,261,2.9509596824645996,2.950953722000122
9,-0.388386607170105,-0.6534411907196045,0.09671395272016525,36.7156567,3.1845942,18.64,4.1,-3.17,0.0,92,322,5.19138765335083,5.191385269165039
10,-0.5157312154769897,-0.6227613687515259,-0.01854882575571537,36.7157316,3.1845285,18.65,6.75,-4.66,0.0,92,324,8.2066011428833,8.206596374511719
11,-0.47931113839149475,-0.6167443990707397,0.023529743775725365,36.7158494,3.1844266,18.67,7.87,-5.52,0.0,91,324,9.618096351623535,9.618094444274902
12,-0.37242674827575684,-0.6191577911376953,-0.023097625002264977,36.7159558,3.1843332,18.69,7.6,-5.38,-0.02,91,324,9.315340995788574,9.31531047821045
13,-0.042020659893751144,-0.6256123781204224,-0.0018943488830700517,36.716061,3.1842404,18.72,5.19,-3.74,0.05,91,324,6.40432596206665,6.404129981994629
14,0.014823597855865955,-1.150782823562622,-0.2993185520172119,36.7161071,3.184187,18.83,1.22,-2.86,-0.23,90,294,3.123661756515503,3.1144983768463135
15,-0.38495197892189026,-2.1271564960479736,-0.0542258620262146,36.7160958,3.184131,19.68,-2.7,-4.27,-0.86,90,238,5.132031440734863,5.059039115905762
16,-0.49237290024757385,-2.1590311527252197,-0.025590993463993073,36.7160321,3.1840188,21.8,-4.89,-7.08,-1.46,89,236,8.734655380249023,8.610748291015625
17,-0.4919554591178894,-2.163602352142334,0.01975167728960514,36.7159598,3.1838885,24.21,-5.52,-8.02,-1.6,89,236,9.878334999084473,9.746343612670898
18,-0.43107298016548157,-2.1645667552948,0.02440795861184597,36.7158847,3.183751,26.68,-5.53,-8.18,-1.57,88,235,10.004786491394043,9.880311012268066
19,-0.43813765048980713,-2.1630234718322754,-0.026619644835591316,36.7158097,3.1836115,29.14,-5.55,-8.26,-1.58,88,236,10.083532333374023,9.957772254943848
20,-0.4683779180049896,-2.1671667098999023,0.03883998468518257,36.7157218,3.1834486,32.03,-5.54,-8.25,-1.6,88,235,10.071382522583008,9.94287395477295
21,-0.4486374855041504,-2.1635169982910156,-0.025661634281277657,36.7156349,3.1832863,34.94,-5.49,-8.27,-1.6,87,236,10.061483383178711,9.933175086975098
22,-0.48820167779922485,-2.163252830505371,-0.011610626243054867,36.7155602,3.1831464,37.43,-5.53,-8.29,-1.61,87,236,10.10101318359375,9.971611976623535
23,-0.45504066348075867,-2.1646389961242676,0.04370083287358284,36.7154851,3.1830065,39.92,-5.5,-8.27,-1.63,86,235,10.071784019470215,9.938755989074707
24,-0.4595782160758972,-2.163458824157715,-0.028697902336716652,36.7153983,3.1828439,42.84,-5.51,-8.3,-1.62,86,236,10.101358413696289,9.970234870910645
25,-0.49199968576431274,-2.166238784790039,0.013455969281494617,36.7153234,3.1827039,45.34,-5.53,-8.3,-1.62,85,235,10.116861343383789,9.985007286071777
26,-0.417733371257782,-2.1631641387939453,0.007209455128759146,36.715236,3.1825404,48.26,-5.49,-8.27,-1.63,85,236,10.063737869262695,9.929221153259277
27,-0.4743654429912567,-2.1644201278686523,-0.029538407921791077,36.7151614,3.1824007,50.76,-5.51,-8.28,-1.63,84,235,10.08466625213623,9.950882911682129
28,-0.43897199630737305,-2.1639938354492188,0.035863179713487625,36.7150743,3.182238,53.69,-5.52,-8.29,-1.63,84,236,10.100971221923828,9.967965126037598
29,-0.23301130533218384,-2.1690866947174072,-0.016370117664337158,36.7150029,3.1821054,56.07,-4.79,-7.11,-1.43,83,235,8.695693016052246,8.577081680297852
30,-0.05896315723657608,-2.16020131111145,0.04096359759569168,36.7149423,3.1819921,58.0,-2.88,-4.43,-0.66,83,236,5.720000267028809,5.667322635650635
31,-0.14091040194034576,-2.1179635524749756,-0.013294199481606483,36.7149096,3.1819265,58.58,-2.19,-3.7,-0.15,83,238,4.313791275024414,4.310882091522217
32,-0.1699201464653015,-2.101785898208618,0.02992698736488819,36.7148811,3.1818651,58.63,-2.08,-3.69,0.0,82,239,4.2408528327941895,4.2408447265625
33,-0.02300204709172249,-2.1035008430480957,-0.024262890219688416,36.7148495,3.1817962,58.61,-1.71,-3.02,0.05,82,239,3.4776883125305176,3.477236747741699
34,0.03968214616179466,-2.3037569522857666,-0.030103139579296112,36.7148302,3.1817594,57.85,-1.21,-1.43,1.08,82,228,2.171053171157837,1.8817589282989502
35,-0.05978308990597725,-2.472954511642456,0.009302113205194473,36.7148128,3.1817404,55.28,-1.03,-0.79,1.44,81,218,1.9434020519256592,1.3043349981307983
36,-0.023441575467586517,-2.4723241329193115,0.02893230691552162,36.7148012,3.1817294,53.42,-1.04,-0.82,1.42,81,218,1.9466004371643066,1.3299897909164429
37,-0.06275299936532974,-2.470311164855957,0.010303696617484093,36.7147846,3.181713,50.8,-1.06,-0.88,1.43,81,218,1.9897128343582153,1.3834482431411743
38,-0.041583333164453506,-2.469959020614624,-0.02508585713803768,36.7147675,3.181696,48.19,-1.07,-0.87,1.44,80,218,1.9989956617355347,1.385776162147522
39,-0.04023290425539017,-2.469311237335205,0.028922948986291885,36.7147529,3.1816813,45.95,-1.06,-0.87,1.45,80,218,2.0025105476379395,1.3762215375900269
40,-0.06334194540977478,-2.469449043273926,0.0015534153208136559,36.714736,3.1816643,43.33,-1.06,-0.88,1.46,79,218,2.011185646057129,1.383031964302063
41,-0.009869302622973919,-2.4692673683166504,0.012644040398299694,36.7147215,3.1816497,41.08,-1.07,-0.88,1.46,79,218,2.0169460773468018,1.3914633989334106
42,-0.05823465809226036,-2.4696311950683594,-0.005913321860134602,36.7147069,3.1816349,38.84,-1.07,-0.89,1.47,79,218,2.0260419845581055,1.3928178548812866
43,-0.01728825829923153,-2.4695699214935303,-0.021359389647841454,36.7146898,3.1816177,36.22,-1.06,-0.88,1.47,78,218,2.021765947341919,1.3857519626617432
44,-0.049634624272584915,-2.469816207885742,0.026914356276392937,36.7146752,3.1816031,33.97,-1.06,-0.88,1.46,78,218,2.0196237564086914,1.386018991470337
45,-0.05835026502609253,-2.4693026542663574,-0.015070508234202862,36.7146582,3.1815859,31.35,-1.06,-0.89,1.47,78,218,2.0265398025512695,1.3879051208496094
46,-0.017172077670693398,-2.4696450233459473,0.024131326004862785,36.7146437,3.1815711,29.1,-1.06,-0.88,1.47,77,218,2.0205013751983643,1.38068687915802
47,-0.04594049230217934,-2.469139814376831,-0.027972007170319557,36.7146291,3.1815564,26.84,-1.06,-0.88,1.46,77,218,2.019325017929077,1.3853411674499512
48,-0.010045933537185192,-2.4692039489746094,-0.003406318137422204,36.714612,3.1815392,24.22,-1.06,-0.87,1.47,76,218,2.0199601650238037,1.383169174194336
49,-0.05932873860001564,-2.4696872234344482,0.009515466168522835,36.7145974,3.1815245,21.98,-1.05,-0.87,1.47,76,218,2.018310785293579,1.373642921447754
50,-0.12203223258256912,-3.054753303527832,-0.1402600109577179,36.7145771,3.1815104,19.44,-1.81,-0.23,1.16,76,184,2.1683337688446045,1.8289263248443604
51,-0.21871262788772583,2.66726016998291,0.002837340347468853,36.7145422,3.1815223,18.64,-3.36,1.61,-0.01,75,152,3.7310049533843994,3.730973720550537
52,-0.1941685825586319,2.6725215911865234,-0.011487110517919064,36.7144813,3.1815603,18.75,-4.0,2.05,0.02,75,153,4.504109859466553,4.504026889801025
53,-0.0008041097898967564,2.9610116481781006,0.18963710963726044,36.7144286,3.1815877,18.69,-3.55,0.66,0.05,75,169,3.620924711227417,3.6204378604888916
54,-0.38822436332702637,-2.2533011436462402,0.1244448572397232,36.7143858,3.1815692,18.67,-2.96,-3.19,0.02,74,230,4.364852428436279,4.364787578582764
55,-0.4558810591697693,-2.1488559246063232,-0.008356730453670025,36.7143308,3.1814689,18.67,-4.22,-6.64,0.0,74,236,7.8691630363464355,7.869156837463379
56,-0.4921487271785736,-2.151904582977295,-0.029689637944102287,36.7142677,3.181346,18.68,-4.95,-7.66,0.0,73,236,9.12813949584961,9.128138542175293
57,-0.3080853521823883,-2.1568920612335205,0.01242046244442463,36.7141895,3.1811966,18.71,-4.71,-7.19,0.0,73,236,8.600379943847656,8.600377082824707
58,-0.25171589851379395,-2.1497809886932373,-0.005934223532676697,36.7141312,3.1810847,18.7,-3.84,-6.02,0.03,73,236,7.14580774307251,7.145718574523926
59,-0.24306395649909973,-2.1136114597320557,0.01703621819615364,36.7140754,3.1809715,18.68,-3.33,-5.66,0.01,72,238,6.572216987609863,6.572196960449219
60,-0.3075791299343109,-2.100623607635498,-0.008445562794804573,36.7140314,3.1808767,18.68,-3.23,-5.66,0.01,72,239,6.522454738616943,6.522436141967773
61,-0.1782713383436203,-2.100329875946045,0.03172453120350838,36.713988,3.1807819,18.68,-3.08,-5.41,0.0,71,239,6.227209568023682,6.22721004486084
62,0.11907271295785904,-2.100984573364258,0.006332661025226116,36.7139484,3.1806954,18.66,-1.64,-2.88,0.03,71,239,3.321582078933716,3.3213541507720947
63,0.1435452699661255,-2.1001439094543457,0.0012833783403038979,36.7139367,3.1806697,18.66,-0.22,-0.39,-0.02,71,239,0.4592393636703491,0.45878109335899353
64,-0.010619343258440495,-2.1013221740722656,0.09001398086547852,36.7139374,3.1806707,18.63,0.2,0.05,0.03,70,239,0.22036083042621613,0.21722140908241272
