timestamp,pitch,yaw,roll,lat,lon,alt,velocity_x,velocity_y,velocity_z,battery,heading,airspeed,groundspeed
0,-0.00029727205401286483,-0.04215862601995468,0.031785525381565094,36.7156065,3.1846299,21.13,-0.01,0.03,-0.02,96,357,0.04196443408727646,0.035538047552108765
1,-0.04807361960411072,-0.0499410480260849,0.05939998850226402,36.7156076,3.1846321,21.07,0.27,0.49,-0.02,95,357,0.5693287253379822,0.5688381195068359
2,-0.1691906750202179,1.558008074760437,-0.13410663604736328,36.7156206,3.1846592,21.1,1.5,2.48,-0.03,95,89,2.906759262084961,2.9064929485321045
3,-0.1590859293937683,0.8579161167144775,0.0511639267206192,36.715646,3.1847106,21.12,2.12,3.44,-0.02,95,49,4.043371677398682,4.043320178985596
4,-0.019496062770485878,0.984857439994812,-0.028725670650601387,36.715675,3.1847686,21.12,1.98,3.19,0.0,94,56,3.7615058422088623,3.761492967605591
5,0.37304940819740295,1.2990567684173584,0.10777650773525238,36.715691,3.1848005,21.15,-0.51,-0.68,-0.03,94,74,0.8570219874382019,0.8564960360527039
6,-0.0905204713344574,2.8838493824005127,0.18199247121810913,36.7156709,3.1847642,21.14,-2.15,-3.06,0.06,93,165,3.7463631629943848,3.745849132537842
7,-0.12041911482810974,-1.9240642786026,-0.013012457638978958,36.7156358,3.1847,21.17,-2.2,-3.27,-0.01,93,249,3.9443111419677734,3.9442875385284424
8,-0.01639869250357151,-1.6427154541015625,0.23989079892635345,36.7156167,3.1846465,21.13,-0.22,-2.95,0.02,93,265,2.9673471450805664,2.9672281742095947
9,-0.43811437487602234,-0.655750036239624,0.08534559607505798,36.7156474,3.1845894,21.12,4.1,-3.18,0.0,92,322,5.197146892547607,5.197145462036133
10,-0.5141475796699524,-0.6179302334785461,0.03948811814188957,36.7157075,3.1845359,21.12,6.41,-4.46,0.0,92,324,7.810164928436279,7.810164928436279
11,-0.49825379252433777,-0.6196193695068359,-0.03282151743769646,36.7158225,3.1844362,21.13,7.84,-5.47,0.0,91,324,9.56830883026123,9.568306922912598
12,-0.3730882406234741,-0.622620165348053,0.027851836755871773,36.7159462,3.1843273,21.16,7.57,-5.38,-0.02,91,324,9.291533470153809,9.291494369506836
13,-0.07719441503286362,-0.625863254070282,-0.030103767290711403,36.7160377,3.1842461,21.18,5.62,-4.02,0.03,91,324,6.915736675262451,6.915646076202393
14,0.032618794590234756,-1.2021892070770264,-0.2675560712814331,36.7160944,3.1841818,21.31,1.13,-2.89,-0.26,90,291,3.124237298965454,3.1129679679870605
15,-0.4109819829463959,-2.1252782344818115,-0.10313799232244492,36.7160819,3.1841243,22.19,-2.79,-4.32,-0.88,90,238,5.222147464752197,5.146768569946289
16,-0.4667053520679474,-2.163862705230713,0.03979199752211571,36.7160286,3.1840306,23.98,-4.78,-6.8,-1.42,89,236,8.439173698425293,8.318624496459961
17,-0.4601622223854065,-2.163113594055176,-0.03986285999417305,36.7159448,3.1838806,26.75,-5.54,-8.01,-1.61,89,236,9.88086223602295,9.748791694641113
18,-0.4904664158821106,-2.165534496307373,0.030641037970781326,36.7158694,3.183743,29.21,-5.52,-8.2,-1.58,88,235,10.019623756408691,9.893589973449707
19,-0.42597511410713196,-2.1643974781036377,-0.015010473318397999,36.7157818,3.18358,32.09,-5.54,-8.25,-1.6,88,235,10.071069717407227,9.943052291870117
20,-0.48098957538604736,-2.1667332649230957,-0.02173040062189102,36.7157068,3.1834408,34.57,-5.52,-8.25,-1.6,88,235,10.05914306640625,9.931025505065918
21,-0.438815712928772,-2.1625163555145264,0.028623493388295174,36.7156199,3.183278,37.47,-5.49,-8.28,-1.61,87,236,10.070509910583496,9.939583778381348
22,-0.4374839961528778,-2.163367986679077,-0.023250672966241837,36.7155453,3.1831386,39.95,-5.54,-8.29,-1.63,87,236,10.106328010559082,9.973589897155762
23,-0.49300068616867065,-2.164383888244629,-0.0054038832895457745,36.7154702,3.1829988,42.45,-5.52,-8.3,-1.63,86,235,10.104025840759277,9.970367431640625
24,-0.4288014769554138,-2.1624481678009033,0.017598260194063187,36.7153831,3.1828355,45.37,-5.51,-8.27,-1.64,86,236,10.079219818115234,9.944836616516113
25,-0.45105528831481934,-2.166288137435913,-0.024153048172593117,36.7153084,3.1826959,47.88,-5.53,-8.28,-1.63,85,235,10.099067687988281,9.965858459472656
26,-0.47405582666397095,-2.1640207767486572,0.038251325488090515,36.7152212,3.1825326,50.8,-5.5,-8.29,-1.64,85,236,10.0901517868042,9.955787658691406
27,-0.42405056953430176,-2.16412353515625,0.002422288991510868,36.7151465,3.1823928,53.31,-5.52,-8.28,-1.63,84,236,10.086377143859863,9.952232360839844
28,-0.4593169093132019,-2.1647212505340576,-0.029053909704089165,36.7150716,3.1822532,55.81,-5.52,-8.29,-1.63,84,235,10.100092887878418,9.966630935668945
29,-0.24084797501564026,-2.1685070991516113,0.03055156022310257,36.7149884,3.1820985,58.61,-4.74,-7.05,-1.41,83,235,8.617616653442383,8.50029468536377
30,-0.056465838104486465,-2.162628412246704,-0.017470933496952057,36.7149355,3.1819993,60.31,-3.09,-4.7,-0.75,83,236,5.678823947906494,5.628292083740234
31,-0.11456792801618576,-2.104090929031372,0.026548199355602264,36.7148965,3.1819207,61.05,-2.14,-3.7,-0.15,83,239,4.281064033508301,4.278282165527344
32,-0.17476114630699158,-2.0858891010284424,-0.018193639814853668,36.7148688,3.1818592,61.11,-2.01,-3.68,0.0,82,240,4.195723056793213,4.195719242095947
33,0.02292025461792946,-2.0895278453826904,-0.020829856395721436,36.7148385,3.1817909,61.09,-1.62,-2.96,0.08,82,240,3.38047456741333,3.3795204162597656
34,-0.0052414545789361,-2.309300184249878,-0.03547325357794762,36.71482,3.181755,60.26,-1.18,-1.42,1.13,82,227,2.1732864379882812,1.8523285388946533
35,-0.007762756664305925,-2.48217511177063,-0.006796309724450111,36.714805,3.1817381,58.06,-1.04,-0.8,1.46,81,217,1.9716514348983765,1.3172367811203003
36,-0.031167253851890564,-2.470917224884033,0.02984090894460678,36.7147886,3.1817227,55.44,-1.04,-0.83,1.43,81,218,1.960899829864502,1.337643027305603
37,-0.03667645901441574,-2.470182418823242,-0.02387603186070919,36.7147743,3.1817087,53.19,-1.06,-0.87,1.44,81,218,1.9954427480697632,1.3798555135726929
38,-0.012397682294249535,-2.4697177410125732,0.006068308837711811,36.7147574,3.1816918,50.58,-1.06,-0.88,1.45,80,218,2.005460739135742,1.3843947649002075
39,-0.06131012365221977,-2.469151496887207,-0.010252078995108604,36.7147429,3.1816771,48.34,-1.06,-0.89,1.45,80,218,2.016385316848755,1.392297625541687
40,-0.010338423773646355,-2.4695966243743896,0.008450591005384922,36.7147283,3.1816624,46.1,-1.06,-0.89,1.46,79,218,2.023311138153076,1.3909733295440674
41,-0.053143102675676346,-2.469910144805908,0.0300370492041111,36.7147113,3.1816453,43.48,-1.06,-0.89,1.47,79,218,2.028981924057007,1.3920007944107056
42,-0.019283665344119072,-2.470092296600342,-0.01835678517818451,36.7146967,3.1816305,41.23,-1.07,-0.88,1.47,79,218,2.029118537902832,1.3918397426605225
43,-0.01896817237138748,-2.468979597091675,0.018623890355229378,36.7146797,3.1816134,38.61,-1.06,-0.88,1.47,78,218,2.021725654602051,1.3812354803085327
44,-0.05613449588418007,-2.4693470001220703,-0.018263166770339012,36.7146651,3.1815987,36.36,-1.06,-0.89,1.47,78,218,2.0254604816436768,1.3859244585037231
45,-0.016163911670446396,-2.4691762924194336,0.030192965641617775,36.7146505,3.1815839,34.11,-1.06,-0.88,1.47,78,218,2.0222747325897217,1.3819772005081177
46,-0.058952368795871735,-2.4697463512420654,0.01306556910276413,36.7146335,3.1815668,31.48,-1.06,-0.88,1.47,77,218,2.0246262550354004,1.386570930480957
47,-0.013537461869418621,-2.469498872756958,-0.0034478658344596624,36.7146189,3.1815521,29.24,-1.07,-0.88,1.47,77,218,2.0259296894073486,1.3879029750823975
48,-0.03101193532347679,-2.469190835952759,0.028855886310338974,36.7146019,3.181535,26.62,-1.05,-0.88,1.48,76,218,2.027538537979126,1.3825448751449585
49,-0.04310338944196701,-2.469515085220337,-0.022717487066984177,36.7145873,3.1815202,24.36,-1.06,-0.88,1.48,76,218,2.028777599334717,1.3830687999725342
50,-0.09948951750993729,-3.0915908813476562,-0.10180903226137161,36.7145664,3.1815065,21.85,-1.86,-0.18,1.13,76,182,2.18532657623291,1.8695497512817383
51,-0.2625489830970764,2.6748595237731934,-0.01579395867884159,36.7145306,3.1815194,21.11,-3.43,1.62,-0.02,75,153,3.8009893894195557,3.800919532775879
52,-0.14759935438632965,2.679899215698242,0.0062488978728652,36.7144781,3.1815515,21.21,-4.06,2.03,0.0,75,153,4.545429229736328,4.545422077178955
53,-0.04152977466583252,2.9648079872131348,0.20884183049201965,36.7144159,3.181584,21.16,-3.59,0.62,0.05,75,169,3.6482462882995605,3.647859811782837
54,-0.33648914098739624,-2.238424062728882,0.10792312026023865,36.7143729,3.1815645,21.14,-2.97,-3.2,0.02,74,231,4.370598316192627,4.370543479919434
55,-0.4733990728855133,-2.1468517780303955,0.038723740726709366,36.7143179,3.1814641,21.14,-4.19,-6.67,0.01,74,237,7.887094020843506,7.887086868286133
56,-0.43378257751464844,-2.148632287979126,-0.022308293730020523,36.7142555,3.181341,21.15,-4.88,-7.7,0.0,73,236,9.119304656982422,9.119305610656738
57,-0.34551283717155457,-2.1525168418884277,0.024105418473482132,36.7141785,3.1811917,21.17,-4.67,-7.22,0.0,73,236,8.604344367980957,8.604339599609375
58,-0.22611717879772186,-2.1469666957855225,0.03692616894841194,36.7141294,3.1810968,21.17,-3.97,-6.22,0.02,73,236,7.384231090545654,7.384189605712891
59,-0.29790303111076355,-2.1180362701416016,0.015751458704471588,36.7140726,3.1809819,21.14,-3.36,-5.66,0.01,72,238,6.591887950897217,6.591871738433838
60,-0.26428458094596863,-2.0998518466949463,-0.01878516376018524,36.714021,3.1808711,21.14,-3.2,-5.62,0.0,72,239,6.4752373695373535,6.4752349853515625
61,-0.21298058331012726,-2.0997962951660156,0.009523008018732071,36.7139778,3.1807765,21.14,-3.05,-5.37,0.0,71,239,6.186411380767822,6.186409950256348
62,0.13695913553237915,-2.100999355316162,-0.02859881892800331,36.7139385,3.1806912,21.12,-1.62,-2.84,0.03,71,239,3.2791824340820312,3.27900767326355
63,0.1113135814666748,-2.100383996963501,0.027831723913550377,36.7139271,3.1806661,21.13,-0.21,-0.39,-0.02,71,239,0.45597508549690247,0.45538127422332764
64,0.005040628369897604,-2.1006312370300293,0.002101716585457325,36.7139273,3.1806663,21.12,0.13,0.13,0.03,70,239,0.19571441411972046,0.1916927546262741
