timestamp,pitch,yaw,roll,lat,lon,alt,velocity_x,velocity_y,velocity_z,battery,heading,airspeed,groundspeed
0,0.008329001255333424,-0.0023131142370402813,-0.028438881039619446,36.7156067,3.18463,17.34,-0.02,0.02,-0.03,96,359,0.052336014807224274,0.03690678998827934
1,-0.06036863848567009,-0.0031255653593689203,0.1316549926996231,36.7156078,3.1846324,17.4,0.32,0.54,-0.01,95,359,0.6311845779418945,0.6310827136039734
2,-0.2270519882440567,1.4192068576812744,-0.10713186115026474,36.7156199,3.1846549,17.36,1.53,2.34,-0.01,95,81,2.7996811866760254,2.799654245376587
3,-0.1547548770904541,0.9201194047927856,-0.026255887001752853,36.7156514,3.1847137,17.39,2.23,3.38,-0.02,95,52,4.054222583770752,4.054143905639648
4,0.05344678461551666,0.9540625214576721,0.026831816881895065,36.7156815,3.1847689,17.4,1.9,2.78,0.0,94,54,3.3735597133636475,3.3735454082489014
5,0.3104463517665863,0.866513192653656,-0.013748664408922195,36.7156924,3.1847877,17.39,-0.98,-1.45,0.0,94,49,1.7606953382492065,1.760691523551941
6,-0.029999056831002235,-0.9702140092849731,-0.16990672051906586,36.7156684,3.1847439,17.43,-2.23,-3.23,-0.02,93,304,3.9323856830596924,3.9323298931121826
7,-0.029659707099199295,-2.4352407455444336,0.08296646922826767,36.7156334,3.184679,17.42,-2.0,-3.23,0.01,93,220,3.80769944190979,3.8076765537261963
8,-0.11413975805044174,-1.4016941785812378,0.25458478927612305,36.7156206,3.1846262,17.4,0.48,-2.82,0.01,93,279,2.8636679649353027,2.8636465072631836
9,-0.3862456977367401,-0.6500558853149414,0.05999418720602989,36.7156534,3.1845774,17.4,4.26,-3.24,0.0,92,322,5.35849142074585,5.358489990234375
10,-0.5359792709350586,-0.6255406737327576,-0.012141427956521511,36.7157299,3.1845102,17.4,6.79,-4.75,0.0,92,324,8.296222686767578,8.296218872070312
11,-0.45618653297424316,-0.6224538087844849,0.0050069610588252544,36.7158482,3.1844072,17.42,7.84,-5.56,0.0,91,324,9.620476722717285,9.620474815368652
12,-0.37992849946022034,-0.6225191950798035,-0.02262035943567753,36.715954,3.1843135,17.45,7.5,-5.35,-0.01,91,324,9.220610618591309,9.220597267150879
13,0.009169881232082844,-0.6349473595619202,-0.04154551401734352,36.7160563,3.1842226,17.47,4.95,-3.65,0.05,91,323,6.155887126922607,6.155637264251709
14,0.06459043174982071,-1.044845461845398,-0.2814159691333771,36.7160955,3.184178,17.55,1.67,-2.89,-0.18,90,300,3.3496663570404053,3.344475746154785
15,-0.4065869152545929,-2.1419425010681152,-0.07489928603172302,36.7160761,3.184099,18.77,-3.35,-4.82,-1.01,90,237,5.9678473472595215,5.881725788116455
16,-0.5140135884284973,-2.162017345428467,0.026374412700533867,36.7160178,3.1839966,20.72,-4.99,-7.19,-1.48,89,236,8.88306999206543,8.758445739746094
17,-0.4197879433631897,-2.164422035217285,0.018000492826104164,36.7159447,3.183865,23.15,-5.52,-8.03,-1.6,89,235,9.88203239440918,9.75070571899414
18,-0.48656758666038513,-2.163945198059082,-0.006707173306494951,36.7158569,3.1837037,26.01,-5.5,-8.19,-1.57,88,236,9.99951457977295,9.874948501586914
19,-0.46588462591171265,-2.165179967880249,0.037843089550733566,36.7157819,3.1835644,28.48,-5.52,-8.23,-1.58,88,235,10.041511535644531,9.915184020996094
20,-0.46293264627456665,-2.1667137145996094,-0.024869652464985847,36.7156949,3.1834025,31.38,-5.55,-8.28,-1.58,88,235,10.10006046295166,9.974274635314941
21,-0.4834897816181183,-2.162919282913208,0.007103261072188616,36.7156199,3.1832623,33.86,-5.52,-8.29,-1.6,87,236,10.090483665466309,9.961541175842285
22,-0.4259891211986542,-2.1644179821014404,-0.0149075360968709,36.7155325,3.1830993,36.77,-5.51,-8.27,-1.61,87,235,10.076399803161621,9.945589065551758
23,-0.4881265163421631,-2.1645777225494385,-0.016713855788111687,36.715458,3.18296,39.27,-5.5,-8.28,-1.61,86,235,10.078847885131836,9.949076652526855
24,-0.47272175550460815,-2.1652650833129883,0.03467892110347748,36.7153833,3.1828203,41.77,-5.51,-8.31,-1.62,86,235,10.113398551940918,9.981401443481445
25,-0.4432252049446106,-2.1663658618927,-0.022013802081346512,36.7152958,3.1826571,44.69,-5.53,-8.29,-1.62,85,235,10.105461120605469,9.973527908325195
26,-0.4939967393875122,-2.1643242835998535,0.01078488864004612,36.7152213,3.1825174,47.2,-5.48,-8.3,-1.62,85,236,10.082898139953613,9.951579093933105
27,-0.42554450035095215,-2.1646652221679688,-0.0009166799718514085,36.7151341,3.1823541,50.12,-5.52,-8.31,-1.62,84,235,10.116517066955566,9.984374046325684
28,-0.451023668050766,-2.166879415512085,-0.025162622332572937,36.7150593,3.1822144,52.61,-5.5,-8.26,-1.62,84,235,10.060540199279785,9.928051948547363
29,-0.2561369836330414,-2.1687569618225098,0.0287350844591856,36.714989,3.1820836,54.99,-4.69,-6.97,-1.39,84,235,8.520320892333984,8.405777931213379
30,-0.06421758234500885,-2.156248092651367,-0.009950954467058182,36.71493,3.1819733,56.82,-2.8,-4.31,-0.6,83,236,5.181660175323486,5.145856857299805
31,-0.12377655506134033,-2.103423833847046,0.0432530976831913,36.7148983,3.1819085,57.34,-2.1,-3.69,-0.13,83,239,4.2539262771606445,4.251636028289795
32,-0.1569565087556839,-2.0863046646118164,-0.023990001529455185,36.7148711,3.1818473,57.38,-2.0,-3.7,-0.01,82,240,4.2101311683654785,4.21010160446167
33,0.03332635760307312,-2.091139316558838,-0.011661668308079243,36.7148411,3.1817793,57.35,-1.63,-2.94,0.09,82,240,3.3679330348968506,3.3667209148406982
34,-0.0017476377543061972,-2.3247389793395996,-0.05017288401722908,36.7148224,3.1817437,56.46,-1.2,-1.36,1.17,82,226,2.1641571521759033,1.816178321838379
35,-0.0375107116997242,-2.46856427192688,-0.022051943466067314,36.7148052,3.1817256,53.85,-1.02,-0.78,1.43,81,218,1.930533766746521,1.294043779373169
36,-0.03346814587712288,-2.470665454864502,0.03330684453248978,36.7147913,3.1817125,51.61,-1.03,-0.83,1.41,81,218,1.94500732421875,1.3314039707183838
37,-0.06324616819620132,-2.469754695892334,0.0021161879412829876,36.7147746,3.1816959,49.0,-1.06,-0.88,1.43,81,218,1.9954464435577393,1.3887114524841309
38,0.0001359281741315499,-2.469240188598633,0.0018048726487904787,36.71476,3.1816811,46.76,-1.07,-0.86,1.44,80,218,1.9951257705688477,1.3807086944580078
39,-0.06211669370532036,-2.469693899154663,0.0074582453817129135,36.7147455,3.1816666,44.51,-1.07,-0.87,1.44,80,218,2.001068592071533,1.3841882944107056
40,-0.007428692653775215,-2.469874382019043,-0.0027716769836843014,36.7147309,3.181652,42.27,-1.08,-0.87,1.44,80,218,2.0106799602508545,1.393038272857666
41,-0.03485320508480072,-2.4697678089141846,0.029527023434638977,36.7147138,3.1816349,39.66,-1.05,-0.89,1.46,79,218,2.0177743434906006,1.385099172592163
42,-0.06253384053707123,-2.4700264930725098,0.004808561410754919,36.7146969,3.1816178,37.03,-1.07,-0.88,1.46,79,218,2.020282030105591,1.3901726007461548
43,-0.007310261484235525,-2.4688944816589355,0.0071865469217300415,36.7146823,3.181603,34.79,-1.07,-0.89,1.46,78,218,2.0247738361358643,1.3952926397323608
44,-0.055461760610342026,-2.4695351123809814,0.00635109655559063,36.7146676,3.1815882,32.54,-1.07,-0.9,1.47,78,218,2.033705711364746,1.4000829458236694
45,-0.031276967376470566,-2.4697773456573486,-0.030064547434449196,36.7146507,3.181571,29.92,-1.06,-0.87,1.47,78,218,2.0195529460906982,1.3756277561187744
46,-0.03634222596883774,-2.469639539718628,0.030072035267949104,36.7146361,3.1815565,27.67,-1.07,-0.88,1.47,77,218,2.0290536880493164,1.3952000141143799
47,-0.06504440307617188,-2.4691104888916016,-0.005195985548198223,36.714619,3.1815392,25.05,-1.05,-0.88,1.47,77,218,2.0230519771575928,1.3826690912246704
48,-0.007718800567090511,-2.469305992126465,-0.0003135382430627942,36.7146045,3.1815244,22.8,-1.05,-0.87,1.47,77,218,2.019390344619751,1.3770005702972412
49,-0.06605041027069092,-2.469456672668457,-0.0016031424747779965,36.71459,3.1815098,20.54,-1.06,-0.88,1.47,76,218,2.0226898193359375,1.3847277164459229
50,-0.13713811337947845,-3.1304407119750977,-0.13616706430912018,36.7145686,3.1814965,18.05,-1.92,-0.11,1.08,76,180,2.208627462387085,1.9263575077056885
51,-0.23263217508792877,2.675602674484253,0.008012063801288605,36.7145318,3.1815106,17.39,-3.47,1.68,-0.04,75,153,3.8603405952453613,3.8600707054138184
52,-0.18944527208805084,2.67930006980896,-0.003957475535571575,36.7144697,3.1815488,17.49,-4.06,2.04,0.03,75,153,4.545515060424805,4.545381546020508
53,0.0023651535157114267,3.0048155784606934,0.19276714324951172,36.7144168,3.1815748,17.44,-3.54,0.5,0.04,75,172,3.5763096809387207,3.575960874557495
54,-0.4007035195827484,-2.2301039695739746,0.1293163001537323,36.7143742,3.181553,17.42,-2.95,-3.39,0.02,74,232,4.499074935913086,4.499024391174316
55,-0.4634491801261902,-2.1477108001708984,-0.01217452622950077,36.7143192,3.1814499,17.42,-4.24,-6.76,0.0,74,236,7.985950469970703,7.985945701599121
56,-0.48417913913726807,-2.1481759548187256,-0.015038985759019852,36.7142562,3.1813256,17.43,-4.94,-7.69,0.0,73,236,9.142696380615234,9.142695426940918
57,-0.29249417781829834,-2.1525049209594727,-0.007427014410495758,36.7141786,3.1811761,17.46,-4.62,-7.12,0.0,73,236,8.496295928955078,8.496294975280762
58,-0.2644592523574829,-2.1447196006774902,0.0009320889366790652,36.7141215,3.1810652,17.45,-3.76,-5.95,0.04,73,237,7.04160213470459,7.041485786437988
59,-0.25323402881622314,-2.1156771183013916,0.03839770704507828,36.7140742,3.1809689,17.43,-3.35,-5.69,0.02,72,238,6.611643314361572,6.611606597900391
60,-0.31094861030578613,-2.099656581878662,0.009334675967693329,36.7140226,3.1808576,17.43,-3.23,-5.68,0.01,72,239,6.5361785888671875,6.536162853240967
61,-0.14261549711227417,-2.100203514099121,0.0007895430899225175,36.7139793,3.180763,17.43,-3.04,-5.34,0.0,72,239,6.153495788574219,6.153494358062744
62,0.1499202847480774,-2.1008284091949463,0.030902789905667305,36.7139407,3.1806792,17.4,-1.55,-2.7,0.03,71,239,3.1179373264312744,3.117734670639038
63,0.11669287085533142,-2.1009225845336914,-0.026928862556815147,36.7139301,3.1806557,17.41,-0.16,-0.32,-0.01,71,239,0.3635677099227905,0.3631277084350586
64,-0.018075818195939064,-2.100939989089966,0.06732312589883804,36.7139308,3.1806568,17.39,0.14,0.12,0.03,70,239,0.1939636468887329,0.18985585868358612
