timestamp,pitch,yaw,roll,lat,lon,alt,velocity_x,velocity_y,velocity_z,battery,heading,airspeed,groundspeed
0,-0.024218181148171425,0.027533816173672676,0.007629466708749533,36.7156066,3.1846299,20.98,-0.02,0.03,-0.01,96,1,0.043788425624370575,0.04103541001677513
1,-0.03648589551448822,0.027442913502454758,0.08535842597484589,36.7156079,3.1846323,20.92,0.33,0.55,-0.02,95,1,0.6464987397193909,0.645954966545105
2,-0.2308303415775299,1.3953845500946045,-0.06287037581205368,36.7156202,3.1846544,20.95,1.53,2.3,-0.04,95,79,2.7694225311279297,2.769036293029785
3,-0.19127774238586426,0.9416195750236511,0.008886780589818954,36.7156524,3.1847139,20.97,2.33,3.45,-0.02,95,53,4.168498992919922,4.168440818786621
4,0.027836212888360023,0.948941707611084,-0.0074399239383637905,36.7156841,3.1847711,20.97,2.12,3.04,-0.01,94,54,3.710468053817749,3.710451126098633
5,0.37339937686920166,0.8558047413825989,-0.013072305358946323,36.7157,3.1847979,21.0,-0.61,-0.98,-0.02,94,49,1.1650097370147705,1.1647671461105347
6,-0.06519831717014313,-0.8619611859321594,-0.1882762908935547,36.7156788,3.1847587,20.98,-2.17,-3.15,0.05,93,310,3.826446294784546,3.8259809017181396
7,-0.08818881958723068,-2.3413894176483154,0.04322674497961998,36.7156484,3.1847036,21.02,-2.26,-3.25,-0.03,93,225,3.962482452392578,3.962366819381714
8,-0.04111980274319649,-1.5642147064208984,0.2620798945426941,36.7156264,3.184641,20.98,-0.01,-2.9,0.02,93,270,2.9042820930480957,2.9041330814361572
9,-0.4093894064426422,-0.6464211940765381,0.05716829001903534,36.7156521,3.1845928,20.97,3.78,-3.04,0.0,92,322,4.861439228057861,4.8614373207092285
10,-0.5047988295555115,-0.617005467414856,0.04782656580209732,36.7157236,3.1845294,20.97,6.54,-4.53,0.0,92,324,7.967737197875977,7.967736721038818
11,-0.5074564218521118,-0.6184954643249512,-0.0285436250269413,36.7158398,3.184429,20.99,7.88,-5.5,0.0,91,324,9.612871170043945,9.612871170043945
12,-0.4272505044937134,-0.6188491582870483,0.02141990326344967,36.7159464,3.1843356,21.01,7.7,-5.42,-0.01,91,324,9.420486450195312,9.420467376708984
13,-0.07338757067918777,-0.6227949857711792,-0.03967280685901642,36.7160543,3.1842404,21.04,5.48,-3.91,0.04,91,324,6.741240501403809,6.741101264953613
14,0.07537569105625153,-1.0502986907958984,-0.2263616919517517,36.7161051,3.1841854,21.12,1.65,-2.87,-0.19,90,299,3.318403482437134,3.312422752380371
15,-0.41705843806266785,-2.126215934753418,-0.06300458312034607,36.7160929,3.184119,22.1,-2.91,-4.42,-0.91,90,238,5.3798017501831055,5.301859378814697
16,-0.4420275390148163,-2.1601011753082275,0.013042907230556011,36.7160384,3.1840233,23.93,-4.82,-6.85,-1.43,89,236,8.507757186889648,8.385942459106445
17,-0.4850557744503021,-2.1627533435821533,-0.01174844242632389,36.7159541,3.1838723,26.72,-5.52,-8.02,-1.6,89,236,9.874311447143555,9.743423461914062
18,-0.44465839862823486,-2.163961172103882,0.03782127797603607,36.715879,3.1837349,29.18,-5.53,-8.21,-1.58,88,236,10.02508544921875,9.899723052978516
19,-0.42624661326408386,-2.1659157276153564,-0.009768647141754627,36.7158038,3.1835953,31.64,-5.56,-8.27,-1.59,88,235,10.094608306884766,9.968052864074707
20,-0.48157110810279846,-2.1658430099487305,0.03361426293849945,36.7157165,3.1834324,34.54,-5.52,-8.25,-1.59,88,235,10.055459976196289,9.927807807922363
21,-0.4283068776130676,-2.1624205112457275,0.024196701124310493,36.7156419,3.1832931,37.01,-5.51,-8.26,-1.61,87,236,10.069150924682617,9.938538551330566
22,-0.4920995235443115,-2.162886381149292,-0.0007310590008273721,36.7155544,3.1831301,39.92,-5.51,-8.29,-1.62,87,236,10.093050003051758,9.96152400970459
23,-0.49091094732284546,-2.164098024368286,0.015053494833409786,36.7154921,3.1830136,42.01,-5.5,-8.28,-1.62,86,236,10.076930046081543,9.945324897766113
24,-0.4331018328666687,-2.164268732070923,-0.009988230653107166,36.7154052,3.182851,44.92,-5.52,-8.29,-1.62,86,236,10.096701622009277,9.964448928833008
25,-0.48692786693573,-2.1646440029144287,0.02723817154765129,36.715318,3.1826877,47.84,-5.51,-8.31,-1.63,85,235,10.107327461242676,9.974177360534668
26,-0.4248918294906616,-2.1649200916290283,0.019748372957110405,36.7152429,3.1825476,50.35,-5.52,-8.27,-1.63,85,235,10.080678939819336,9.94676399230957
27,-0.49173539876937866,-2.165271759033203,-0.0020234957337379456,36.7151558,3.1823846,53.27,-5.5,-8.28,-1.62,84,235,10.079907417297363,9.947274208068848
28,-0.45858991146087646,-2.162750720977783,0.03322888910770416,36.7150813,3.1822451,55.77,-5.51,-8.31,-1.64,84,236,10.113369941711426,9.978843688964844
29,-0.24818022549152374,-2.167942762374878,-0.008599206805229187,36.7150091,3.182111,58.19,-4.9,-7.28,-1.46,83,235,8.901872634887695,8.780834197998047
30,-0.07408349215984344,-2.1625325679779053,0.03562368080019951,36.7149462,3.1819935,60.22,-3.03,-4.6,-0.72,83,236,5.558523654937744,5.5116801261901855
31,-0.14299318194389343,-2.1221466064453125,-0.015056937001645565,36.7149123,3.1819263,60.87,-2.22,-3.71,-0.19,83,238,4.333556175231934,4.329312801361084
32,-0.12533029913902283,-2.101393938064575,0.01687741093337536,36.7148789,3.1818545,60.95,-2.06,-3.67,-0.01,82,239,4.216737270355225,4.216724872589111
33,-0.043008461594581604,-2.1032252311706543,-0.010698034428060055,36.7148517,3.1817953,60.95,-1.78,-3.14,0.02,82,239,3.6107640266418457,3.6107051372528076
34,0.0438387356698513,-2.26859450340271,-0.03509008511900902,36.7148318,3.1817561,60.32,-1.22,-1.56,0.96,82,230,2.2090682983398438,1.9881060123443604
35,-0.04064054787158966,-2.479492425918579,0.026825251057744026,36.7148141,3.1817357,57.82,-1.03,-0.8,1.45,81,217,1.9597817659378052,1.3083972930908203
36,-0.027559706941246986,-2.4723987579345703,-0.02269355021417141,36.7148001,3.1817225,55.58,-1.03,-0.82,1.42,81,218,1.9472583532333374,1.3265382051467896
37,-0.011339783668518066,-2.4699366092681885,0.0159312654286623,36.7147834,3.1817062,52.97,-1.06,-0.87,1.44,80,218,1.9929144382476807,1.376254677772522
38,-0.06440014392137527,-2.4694573879241943,-0.01197751984000206,36.7147689,3.1816916,50.72,-1.06,-0.88,1.44,80,218,2.0062174797058105,1.3889081478118896
39,-0.009775937534868717,-2.4692025184631348,0.009303221479058266,36.7147544,3.1816769,48.48,-1.06,-0.87,1.45,80,218,2.003056764602661,1.3802387714385986
40,-0.06316493451595306,-2.4695444107055664,-0.007502637803554535,36.7147398,3.1816624,46.23,-1.07,-0.88,1.45,79,218,2.012877941131592,1.390364646911621
41,-0.024786964058876038,-2.469938278198242,-0.023363038897514343,36.7147228,3.1816452,43.62,-1.07,-0.89,1.47,79,218,2.0296239852905273,1.3973699808120728
42,-0.008670991286635399,-2.46966290473938,0.010082175955176353,36.7147058,3.181628,41.0,-1.07,-0.87,1.47,79,218,2.019610643386841,1.3847479820251465
43,-0.058681465685367584,-2.4692726135253906,-0.004065696615725756,36.7146912,3.1816134,38.75,-1.06,-0.88,1.46,78,218,2.0188493728637695,1.3839024305343628
44,-0.010159154422581196,-2.469456911087036,0.0043270946480333805,36.7146766,3.1815986,36.51,-1.06,-0.88,1.47,78,218,2.024193525314331,1.3848086595535278
45,-0.044060561805963516,-2.470020294189453,0.03153494372963905,36.7146596,3.1815815,33.88,-1.06,-0.88,1.48,78,218,2.0258090496063232,1.3818376064300537
46,-0.028976760804653168,-2.469958543777466,-0.02392367273569107,36.714645,3.1815667,31.63,-1.06,-0.88,1.47,77,218,2.0260868072509766,1.388451337814331
47,-0.007547566667199135,-2.4688639640808105,0.020664969459176064,36.714628,3.1815496,29.01,-1.06,-0.87,1.48,77,218,2.024219274520874,1.380719542503357
48,-0.062765933573246,-2.469557046890259,-0.0007412635022774339,36.7146134,3.1815348,26.76,-1.06,-0.88,1.48,76,218,2.0274622440338135,1.3851408958435059
49,-0.007178917992860079,-2.469350814819336,0.009735042229294777,36.7145988,3.1815201,24.5,-1.06,-0.88,1.47,76,218,2.023392677307129,1.380458950996399
50,-0.11102279275655746,-2.958186626434326,-0.07226211577653885,36.7145792,3.1815051,21.94,-1.68,-0.37,1.26,76,190,2.137821674346924,1.7257113456726074
51,-0.22528943419456482,2.670578718185425,-0.061427295207977295,36.7145463,3.1815142,20.96,-3.23,1.5,0.04,75,153,3.5712757110595703,3.5710153579711914
52,-0.13851025700569153,2.6725010871887207,0.0017987838946282864,36.7144863,3.1815512,21.06,-4.0,2.04,0.0,75,153,4.49331521987915,4.493314743041992
53,-0.061480484902858734,2.8866841793060303,0.1554442197084427,36.7144333,3.1815805,21.02,-3.63,0.91,0.05,75,165,3.750424861907959,3.749971866607666
54,-0.30726075172424316,-2.3021178245544434,0.16975592076778412,36.7143896,3.1815678,20.99,-2.95,-2.8,0.02,74,228,4.0720038414001465,4.071929454803467
55,-0.5034756660461426,-2.1479761600494385,0.03089071623980999,36.714336,3.1814735,20.99,-4.11,-6.46,0.01,74,236,7.664847373962402,7.6648359298706055
56,-0.44182342290878296,-2.1514008045196533,-0.005824973341077566,36.714274,3.1813523,21.0,-4.91,-7.64,0.0,73,236,9.083560943603516,9.0835599899292
57,-0.36779242753982544,-2.1569814682006836,0.018892893567681313,36.7141958,3.1812025,21.02,-4.79,-7.31,0.0,73,236,8.745437622070312,8.74543285369873
58,-0.2039460837841034,-2.1507773399353027,0.015001676045358181,36.7141362,3.1810887,21.02,-3.94,-6.12,0.02,73,236,7.2877583503723145,7.2877044677734375
59,-0.2854805588722229,-2.1174957752227783,0.03919174522161484,36.7140797,3.1809748,20.99,-3.34,-5.65,0.01,72,238,6.576225280761719,6.57620906829834
60,-0.2529405951499939,-2.0999209880828857,-0.0029531230684369802,36.7140356,3.1808798,20.99,-3.22,-5.65,0.0,72,239,6.511255264282227,6.511251449584961
61,-0.2319703996181488,-2.1005337238311768,0.014979026280343533,36.713992,3.1807847,21.0,-3.13,-5.5,0.0,71,239,6.33225154876709,6.33225154876709
62,0.1139211654663086,-2.1007513999938965,-0.028277279809117317,36.7139506,3.1806947,20.98,-1.82,-3.19,0.04,71,239,3.678265333175659,3.678044557571411
63,0.12979741394519806,-2.1006529331207275,0.03003433533012867,36.713937,3.1806649,20.98,-0.32,-0.56,-0.02,71,239,0.6470943689346313,0.6466957926750183
64,-0.0335252620279789,-2.101879835128784,0.04710474982857704,36.7139371,3.1806645,20.96,0.16,0.1,0.04,70,239,0.2005390077829361,0.19647783041000366
