timestamp,pitch,yaw,roll,lat,lon,alt,velocity_x,velocity_y,velocity_z,battery,heading,airspeed,groundspeed
0,-0.019693832844495773,0.014728986658155918,-0.0188567116856575,36.7156066,3.1846299,17.13,-0.02,0.03,-0.04,96,0,0.05943794548511505,0.04178260266780853
1,-0.042018793523311615,0.01886642538011074,0.11414915323257446,36.7156079,3.1846326,17.19,0.33,0.58,-0.01,95,1,0.6705436706542969,0.6704573035240173
2,-0.2509022057056427,1.4303513765335083,-0.0851881206035614,36.7156203,3.1846561,17.15,1.56,2.43,0.0,95,81,2.895637035369873,2.8956212997436523
3,-0.19502508640289307,0.9483942985534668,-0.011976590380072594,36.7156527,3.1847179,17.18,2.33,3.57,-0.02,95,54,4.271918296813965,4.271858215332031
4,0.027229754254221916,0.9654167294502258,0.007797661237418652,36.7156845,3.184777,17.19,2.1,3.14,0.0,94,55,3.7861151695251465,3.786107063293457
5,0.3526803255081177,1.0619654655456543,0.067378930747509,36.7157,3.184805,17.17,-0.65,-0.94,0.0,94,60,1.1480135917663574,1.1479755640029907
6,-0.045907072722911835,2.7875559329986572,0.15279126167297363,36.7156787,3.1847665,17.21,-2.18,-3.12,-0.02,93,159,3.812739610671997,3.8126447200775146
7,-0.11365621536970139,-2.0145926475524902,0.017202911898493767,36.7156485,3.1847112,17.2,-2.22,-3.28,0.01,93,244,3.9619152545928955,3.961900234222412
8,-0.051528047770261765,-1.6036967039108276,0.2541158199310303,36.7156263,3.1846484,17.18,0.0,-2.9,0.0,93,268,2.906405210494995,2.9063966274261475
9,-0.3832565248012543,-0.6605291962623596,0.05979252606630325,36.7156518,3.1846003,17.18,3.78,-3.06,0.0,92,322,4.869912624359131,4.8699116706848145
10,-0.5337028503417969,-0.6202039122581482,0.031152047216892242,36.715723,3.184537,17.18,6.57,-4.53,0.0,92,324,7.981797218322754,7.981797218322754
11,-0.4735705554485321,-0.6194372773170471,-0.024819379672408104,36.7158397,3.1844364,17.2,7.87,-5.49,0.0,91,324,9.600471496582031,9.600468635559082
12,-0.4324844181537628,-0.6181032657623291,-0.00695031275972724,36.7159463,3.1843432,17.22,7.69,-5.41,-0.01,91,324,9.40820026397705,9.408180236816406
13,-0.05326882749795914,-0.6235206723213196,-0.03828011080622673,36.7160538,3.1842483,17.24,5.5,-3.94,0.03,91,324,6.775424003601074,6.775327682495117
14,0.04430157691240311,-1.0413236618041992,-0.2237914800643921,36.7161051,3.1841929,17.32,1.67,-2.89,-0.2,90,300,3.3521173000335693,3.3459982872009277
15,-0.41481679677963257,-2.128300666809082,-0.09154192358255386,36.7160928,3.1841263,18.31,-2.92,-4.41,-0.91,90,238,5.37080717086792,5.293120861053467
16,-0.4729761779308319,-2.1596779823303223,0.035721343010663986,36.7160387,3.1840311,20.13,-4.81,-6.89,-1.43,89,236,8.529072761535645,8.406825065612793
17,-0.43514740467071533,-2.1630165576934814,-0.01999622955918312,36.7159668,3.1839026,22.51,-5.53,-8.01,-1.61,89,236,9.872096061706543,9.73884105682373
18,-0.4778018295764923,-2.1641838550567627,0.03728815168142319,36.715879,3.1837424,25.39,-5.52,-8.2,-1.58,88,236,10.012137413024902,9.886565208435059
19,-0.43382924795150757,-2.1635100841522217,0.02319146692752838,36.7158042,3.1836032,27.84,-5.55,-8.27,-1.59,88,236,10.091840744018555,9.96515941619873
20,-0.49052494764328003,-2.1625773906707764,-0.007229512091726065,36.7157166,3.1834399,30.73,-5.52,-8.26,-1.6,88,236,10.068512916564941,9.939793586730957
21,-0.462630033493042,-2.164407253265381,0.0430997759103775,36.7156415,3.1833003,33.22,-5.51,-8.24,-1.61,87,235,10.045379638671875,9.91469669342041
22,-0.47149336338043213,-2.164278984069824,-0.02917082980275154,36.7155547,3.1831381,36.13,-5.5,-8.27,-1.61,87,236,10.06965160369873,9.938490867614746
23,-0.48283520340919495,-2.162689208984375,-0.027838101610541344,36.7154925,3.1830217,38.21,-5.51,-8.3,-1.63,86,236,10.10716724395752,9.974787712097168
24,-0.4277414381504059,-2.1648004055023193,0.024114888161420822,36.7154051,3.1828583,41.13,-5.51,-8.27,-1.63,86,235,10.081974029541016,9.94890022277832
25,-0.4940567910671234,-2.165266990661621,-0.011606378480792046,36.715318,3.1826953,44.05,-5.53,-8.28,-1.62,85,235,10.096488952636719,9.964520454406738
26,-0.46230727434158325,-2.1651055812835693,0.0438971072435379,36.7152434,3.1825558,46.54,-5.5,-8.29,-1.64,85,235,10.090909004211426,9.955798149108887
27,-0.4646163582801819,-2.1646106243133545,-0.025013254955410957,36.715156,3.1823925,49.47,-5.51,-8.31,-1.64,84,235,10.107633590698242,9.972538948059082
28,-0.49052757024765015,-2.1660971641540527,0.014852440916001797,36.7150814,3.1822526,51.98,-5.51,-8.29,-1.63,84,235,10.097810745239258,9.965301513671875
29,-0.2615985870361328,-2.1675827503204346,0.02457655966281891,36.7150096,3.182119,54.39,-4.94,-7.29,-1.47,84,235,8.93195915222168,8.809901237487793
30,-0.09061136841773987,-2.162571430206299,0.01390833966434002,36.7149463,3.182001,56.42,-3.04,-4.62,-0.72,83,236,5.583192825317383,5.535307884216309
31,-0.1158507764339447,-2.1217217445373535,0.008466334082186222,36.7149121,3.1819336,57.08,-2.22,-3.7,-0.19,83,238,4.322534084320068,4.318248748779297
32,-0.17971746623516083,-2.102508306503296,0.0023441805969923735,36.7148836,3.1818723,57.17,-2.06,-3.66,0.0,82,239,4.206652641296387,4.206650257110596
33,-0.012262949720025063,-2.103264808654785,-0.029835354536771774,36.7148517,3.1818028,57.16,-1.78,-3.14,0.02,82,239,3.6156060695648193,3.615530252456665
34,0.013240799307823181,-2.266714334487915,-0.026135610416531563,36.7148318,3.1817635,56.53,-1.22,-1.56,0.95,82,230,2.207185983657837,1.987487554550171
35,-0.06134248897433281,-2.4794981479644775,-0.002550520934164524,36.7148142,3.181743,54.04,-1.03,-0.8,1.45,81,217,1.9602223634719849,1.310767412185669
36,-0.007854943163692951,-2.4720420837402344,0.005353049840778112,36.7148002,3.1817299,51.8,-1.04,-0.81,1.43,81,218,1.953613519668579,1.3254742622375488
37,-0.06209596246480942,-2.4704768657684326,-0.0007397328736260533,36.7147859,3.181716,49.55,-1.06,-0.88,1.43,81,218,1.9961516857147217,1.3828777074813843
38,-0.02418396808207035,-2.4695487022399902,-0.02896753139793873,36.7147689,3.1816991,46.94,-1.07,-0.88,1.44,80,218,2.005239963531494,1.3898589611053467
39,-0.03572902828454971,-2.4694838523864746,0.02889774926006794,36.7147544,3.1816845,44.7,-1.06,-0.88,1.45,80,218,2.0127949714660645,1.3867379426956177
40,-0.06205039843916893,-2.469623327255249,0.002452642424032092,36.7147374,3.1816673,42.08,-1.07,-0.89,1.46,79,218,2.0232033729553223,1.3945627212524414
41,-0.00898163951933384,-2.4695546627044678,0.004672394134104252,36.7147228,3.1816526,39.83,-1.06,-0.88,1.46,79,218,2.0149645805358887,1.38265061378479
42,-0.03804423660039902,-2.4695932865142822,0.030518963932991028,36.7147058,3.1816355,37.22,-1.07,-0.88,1.47,79,218,2.030117988586426,1.3924977779388428
43,-0.02829780988395214,-2.469266176223755,-0.024450758472085,36.7146912,3.1816208,34.97,-1.06,-0.88,1.47,78,218,2.024829149246216,1.3843700885772705
44,-0.03422565013170242,-2.4695959091186523,0.02802884578704834,36.7146767,3.1816061,32.71,-1.06,-0.88,1.47,78,218,2.023500442504883,1.3839256763458252
45,-0.06595694273710251,-2.4696624279022217,-0.0013428428210318089,36.7146596,3.1815889,30.1,-1.06,-0.88,1.48,78,218,2.029663324356079,1.3877441883087158
46,-0.006395356729626656,-2.4698915481567383,0.0031994765158742666,36.714645,3.1815741,27.85,-1.06,-0.89,1.48,77,218,2.0322821140289307,1.3920440673828125
47,-0.04360917583107948,-2.4694817066192627,0.0338766872882843,36.714628,3.181557,25.22,-1.06,-0.87,1.47,77,218,2.0183775424957275,1.3787367343902588
48,-0.03814303129911423,-2.4695122241973877,-0.024404771625995636,36.7146134,3.1815423,22.97,-1.06,-0.88,1.47,77,218,2.0209178924560547,1.3821322917938232
49,-0.041779372841119766,-2.4698169231414795,0.032110076397657394,36.7145988,3.1815276,20.72,-1.06,-0.89,1.48,76,218,2.0302488803863525,1.3878180980682373
50,-0.1365344524383545,-2.9535865783691406,-0.10233870148658752,36.7145792,3.1815125,18.15,-1.67,-0.38,1.25,76,190,2.1317267417907715,1.7197641134262085
51,-0.1968718022108078,2.669665813446045,-0.02633153647184372,36.7145462,3.1815217,17.18,-3.22,1.49,0.04,75,152,3.558450222015381,3.558163642883301
52,-0.16908149421215057,2.6724767684936523,0.023380152881145477,36.7144866,3.1815585,17.28,-4.01,2.04,0.0,75,153,4.509316921234131,4.5093159675598145
53,-0.03733619675040245,2.8904311656951904,0.1274222731590271,36.7144335,3.1815878,17.23,-3.66,0.92,0.05,75,165,3.7783401012420654,3.777876138687134
54,-0.33841243386268616,-2.3099286556243896,0.19558046758174896,36.7143897,3.1815752,17.2,-2.95,-2.78,0.02,74,227,4.055263996124268,4.055175304412842
55,-0.5116686820983887,-2.1465392112731934,-0.01172175258398056,36.7143361,3.1814815,17.2,-4.1,-6.47,0.01,74,237,7.669801712036133,7.6697821617126465
56,-0.4676021337509155,-2.152059316635132,0.02452741377055645,36.714274,3.1813603,17.21,-4.9,-7.65,0.0,73,236,9.087512969970703,9.08751106262207
57,-0.36493054032325745,-2.15596079826355,-0.02253221534192562,36.7141958,3.18121,17.23,-4.77,-7.3,0.0,73,236,8.723529815673828,8.723526954650879
58,-0.23705410957336426,-2.151245355606079,0.041083190590143204,36.7141365,3.1810966,17.23,-3.94,-6.13,0.02,73,236,7.293463706970215,7.2934088706970215
59,-0.29848939180374146,-2.117140769958496,0.0014856035122647882,36.7140799,3.1809825,17.2,-3.35,-5.67,0.01,72,238,6.59306526184082,6.593048095703125
60,-0.2609177231788635,-2.099736452102661,0.032862190157175064,36.7140356,3.1808871,17.2,-3.21,-5.63,0.0,72,239,6.489133358001709,6.48913049697876
61,-0.2237444370985031,-2.0999953746795654,-0.02266572043299675,36.7139922,3.1807924,17.2,-3.12,-5.47,0.0,71,239,6.307577610015869,6.307577610015869
62,0.14731551706790924,-2.1009469032287598,-0.007975934073328972,36.7139508,3.1807025,17.19,-1.84,-3.21,0.03,71,239,3.709730386734009,3.709529161453247
63,0.09845544397830963,-2.100752830505371,0.008149341680109501,36.7139371,3.1806722,17.18,-0.31,-0.57,-0.02,71,239,0.658490002155304,0.6580546498298645
64,-0.007680305279791355,-2.1008222103118896,0.01562562584877014,36.713937,3.1806717,17.17,0.15,0.11,0.04,70,239,0.19892552495002747,0.1941320151090622
